{"total_count": 1468, "results": [{"stationcode": "6003", "name": "Saint-Sulpice", "is_installed": "OUI", "capacity": 21, "numdocksavailable": 19, "numbikesavailable": 1, "mechanical": 1, "ebike": 0, "is_renting": "OUI", "is_returning": "OUI", "duedate": "2024-05-01T10:36:16+00:00", "coordonnees_geo": {"lon": 2.3308077827095985, "lat": 48.85165383178419}, "nom_arrondissement_communes": "Paris", "code_insee_commune": null}, {"stationcode": "7002", "name": "Vaneau - S\u00e8vres", "is_installed": "OUI", "capacity": 35, "numdocksavailable": 23, "numbikesavailable": 12, "mechanical": 9, "ebike": 3, "is_renting": "OUI", "is_returning": "OUI", "duedate": "2024-05-01T10:36:13+00:00", "coordonnees_geo": {"lon": 2.3204218259346, "lat": 48.848563233059}, "nom_arrondissement_communes": "Paris", "code_insee_commune": null}, {"stationcode": "33006", "name": "Andr\u00e9 Karman - R\u00e9publique", "is_installed": "OUI", "capacity": 31, "numdocksavailable": 21, "numbikesavailable": 9, "mechanical": 9, "ebike": 0, "is_renting": "OUI", "is_returning": "OUI", "duedate": "2024-05-01T10:31:34+00:00", "coordonnees_geo": {"lon": 2.3851355910301213, "lat": 48.91039875761846}, "nom_arrondissement_communes": "Aubervilliers", "code_insee_commune": null}, {"stationcode": "41301", "name": "Bois de Vincennes - Gare", "is_installed": "OUI", "capacity": 50, "numdocksavailable": 32, "numbikesavailable": 16, "mechanical": 5, "ebike": 11, "is_renting": "OUI", "is_returning": "OUI", "duedate": "2024-05-01T10:35:37+00:00", "coordonnees_geo": {"lon": 2.4708339950830287, "lat": 48.836022242886884}, "nom_arrondissement_communes": "Nogent-sur-Marne", "code_insee_commune": null}, {"stationcode": "15202", "name": "Bracion - P\u00e9riph\u00e9rique", "is_installed": "OUI", "capacity": 30, "numdocksavailable": 27, "numbikesavailable": 2, "mechanical": 1, "ebike": 1, "is_renting": "OUI", "is_returning": "OUI", "duedate": "2024-05-01T10:31:54+00:00", "coordonnees_geo": {"lon": 2.3004549373748, "lat": 48.826103771275}, "nom_arrondissement_communes": "Paris", "code_insee_commune": null}, {"stationcode": "17026", "name": "Jouffroy d'Abbans - Wagram", "is_installed": "OUI", "capacity": 40, "numdocksavailable": 34, "numbikesavailable": 6, "mechanical": 1, "ebike": 5, "is_renting": "OUI", "is_returning": "OUI", "duedate": "2024-05-01T10:36:23+00:00", "coordonnees_geo": {"lon": 2.301132157445, "lat": 48.881973298352}, "nom_arrondissement_communes": "Paris", "code_insee_commune": null}, {"stationcode": "11025", "name": "Froment - Br\u00e9guet", "is_installed": "OUI", "capacity": 43, "numdocksavailable": 0, "numbikesavailable": 41, "mechanical": 35, "ebike": 6, "is_renting": "OUI", "is_returning": "OUI", "duedate": "2024-05-01T10:33:01+00:00", "coordonnees_geo": {"lon": 2.37289470306807, "lat": 48.8570414504784}, "nom_arrondissement_communes": "Paris", "code_insee_commune": null}, {"stationcode": "15047", "name": "Morillons - Dantzig", "is_installed": "OUI", "capacity": 52, "numdocksavailable": 32, "numbikesavailable": 20, "mechanical": 3, "ebike": 17, "is_renting": "OUI", "is_returning": "OUI", "duedate": "2024-05-01T10:33:57+00:00", "coordonnees_geo": {"lon": 2.299380004405976, "lat": 48.83310149953933}, "nom_arrondissement_communes": "Paris", "code_insee_commune": null}, {"stationcode": "8050", "name": "Bo\u00e9tie - Ponthieu", "is_installed": "OUI", "capacity": 45, "numdocksavailable": 38, "numbikesavailable": 7, "mechanical": 4, "ebike": 3, "is_renting": "OUI", "is_returning": "OUI", "duedate": "2024-05-01T10:32:34+00:00", "coordonnees_geo": {"lon": 2.3076787590981, "lat": 48.871417284355}, "nom_arrondissement_communes": "Paris", "code_insee_commune": null}, {"stationcode": "31024", "name": "Romainville - Vaillant-Couturier", "is_installed": "OUI", "capacity": 38, "numdocksavailable": 24, "numbikesavailable": 11, "mechanical": 3, "ebike": 8, "is_renting": "OUI", "is_returning": "OUI", "duedate": "2024-05-01T10:36:35+00:00", "coordonnees_geo": {"lon": 2.446748, "lat": 48.86785}, "nom_arrondissement_communes": "Montreuil", "code_insee_commune": null}, {"stationcode": "15026", "name": "Bir Hakeim", "is_installed": "OUI", "capacity": 33, "numdocksavailable": 7, "numbikesavailable": 26, "mechanical": 19, "ebike": 7, "is_renting": "OUI", "is_returning": "OUI", "duedate": "2024-05-01T10:35:34+00:00", "coordonnees_geo": {"lon": 2.289705348222022, "lat": 48.853844054333514}, "nom_arrondissement_communes": "Paris", "code_insee_commune": null}, {"stationcode": "17044", "name": "Porte de Saint-Ouen - Bessi\u00e8res", "is_installed": "OUI", "capacity": 42, "numdocksavailable": 21, "numbikesavailable": 10, "mechanical": 8, "ebike": 2, "is_renting": "OUI", "is_returning": "OUI", "duedate": "2024-05-01T10:29:13+00:00", "coordonnees_geo": {"lon": 2.32851451022192, "lat": 48.89792240854517}, "nom_arrondissement_communes": "Paris", "code_insee_commune": null}, {"stationcode": "19033", "name": "Cambrai - Benjamin Constant", "is_installed": "OUI", "capacity": 43, "numdocksavailable": 30, "numbikesavailable": 11, "mechanical": 7, "ebike": 4, "is_renting": "OUI", "is_returning": "OUI", "duedate": "2024-05-01T10:30:58+00:00", "coordonnees_geo": {"lon": 2.381133802246315, "lat": 48.89594736851349}, "nom_arrondissement_communes": "Paris", "code_insee_commune": null}, {"stationcode": "15068", "name": "G\u00e9n\u00e9ral Martial Valin - Pont du Garigliano", "is_installed": "OUI", "capacity": 16, "numdocksavailable": 7, "numbikesavailable": 10, "mechanical": 2, "ebike": 8, "is_renting": "OUI", "is_returning": "OUI", "duedate": "2024-05-01T10:34:34+00:00", "coordonnees_geo": {"lon": 2.270506024360657, "lat": 48.83823094269141}, "nom_arrondissement_communes": "Paris", "code_insee_commune": null}, {"stationcode": "31028", "name": "Raspail Barb\u00e8s", "is_installed": "OUI", "capacity": 28, "numdocksavailable": 21, "numbikesavailable": 7, "mechanical": 1, "ebike": 6, "is_renting": "OUI", "is_returning": "OUI", "duedate": "2024-05-01T10:35:36+00:00", "coordonnees_geo": {"lon": 2.4247387, "lat": 48.8529945}, "nom_arrondissement_communes": "Montreuil", "code_insee_commune": null}, {"stationcode": "44017", "name": "Jules Guesde - Pont du Port \u00e0 l'Anglais", "is_installed": "OUI", "capacity": 30, "numdocksavailable": 14, "numbikesavailable": 16, "mechanical": 13, "ebike": 3, "is_renting": "OUI", "is_returning": "OUI", "duedate": "2024-05-01T10:34:20+00:00", "coordonnees_geo": {"lon": 2.417212128639221, "lat": 48.79628807093802}, "nom_arrondissement_communes": "Vitry-sur-Seine", "code_insee_commune": null}, {"stationcode": "2017", "name": "Caire - Dussoubs", "is_installed": "OUI", "capacity": 40, "numdocksavailable": 37, "numbikesavailable": 3, "mechanical": 2, "ebike": 1, "is_renting": "OUI", "is_returning": "OUI", "duedate": "2024-05-01T10:33:54+00:00", "coordonnees_geo": {"lon": 2.349364310503006, "lat": 48.86785342111862}, "nom_arrondissement_communes": "Paris", "code_insee_commune": null}, {"stationcode": "8048", "name": "Marceau - Chaillot", "is_installed": "OUI", "capacity": 21, "numdocksavailable": 19, "numbikesavailable": 2, "mechanical": 1, "ebike": 1, "is_renting": "OUI", "is_returning": "OUI", "duedate": "2024-05-01T10:27:49+00:00", "coordonnees_geo": {"lon": 2.2986030816809, "lat": 48.868834023334}, "nom_arrondissement_communes": "Paris", "code_insee_commune": null}, {"stationcode": "13118", "name": "Regnault - Patay", "is_installed": "OUI", "capacity": 63, "numdocksavailable": 13, "numbikesavailable": 49, "mechanical": 36, "ebike": 13, "is_renting": "OUI", "is_returning": "OUI", "duedate": "2024-05-01T10:34:45+00:00", "coordonnees_geo": {"lon": 2.377065159380436, "lat": 48.82435782216384}, "nom_arrondissement_communes": "Paris", "code_insee_commune": null}, {"stationcode": "15112", "name": "Vig\u00e9e-Lebrun - Anselme Payen", "is_installed": "OUI", "capacity": 24, "numdocksavailable": 22, "numbikesavailable": 2, "mechanical": 0, "ebike": 2, "is_renting": "OUI", "is_returning": "OUI", "duedate": "2024-05-01T10:30:52+00:00", "coordonnees_geo": {"lon": 2.3110422492027287, "lat": 48.838683941628375}, "nom_arrondissement_communes": "Paris", "code_insee_commune": null}, {"stationcode": "18111", "name": "F\u00e9lix Ziem - Armand Gauthier", "is_installed": "OUI", "capacity": 25, "numdocksavailable": 24, "numbikesavailable": 1, "mechanical": 1, "ebike": 0, "is_renting": "OUI", "is_returning": "OUI", "duedate": "2024-05-01T10:36:03+00:00", "coordonnees_geo": {"lon": 2.333393658804396, "lat": 48.88949630486821}, "nom_arrondissement_communes": "Paris", "code_insee_commune": null}, {"stationcode": "16110", "name": "Octave Feuillet - Alb\u00e9ric Magnard", "is_installed": "OUI", "capacity": 21, "numdocksavailable": 21, "numbikesavailable": 0, "mechanical": 0, "ebike": 0, "is_renting": "OUI", "is_returning": "OUI", "duedate": "2024-05-01T10:32:20+00:00", "coordonnees_geo": {"lon": 2.2730283066630363, "lat": 48.86106902949534}, "nom_arrondissement_communes": "Paris", "code_insee_commune": null}, {"stationcode": "14002", "name": "Edgar Quinet - Raspail", "is_installed": "OUI", "capacity": 46, "numdocksavailable": 31, "numbikesavailable": 11, "mechanical": 4, "ebike": 7, "is_renting": "OUI", "is_returning": "OUI", "duedate": "2024-05-01T10:36:34+00:00", "coordonnees_geo": {"lon": 2.32971478253603, "lat": 48.83940266673835}, "nom_arrondissement_communes": "Paris", "code_insee_commune": null}, {"stationcode": "8016", "name": "Square Louis XVI", "is_installed": "OUI", "capacity": 29, "numdocksavailable": 20, "numbikesavailable": 8, "mechanical": 7, "ebike": 1, "is_renting": "OUI", "is_returning": "OUI", "duedate": "2024-05-01T10:35:39+00:00", "coordonnees_geo": {"lon": 2.323658830743138, "lat": 48.87320440102894}, "nom_arrondissement_communes": "Paris", "code_insee_commune": null}, {"stationcode": "10029", "name": "Dunkerque - Rocroy", "is_installed": "OUI", "capacity": 24, "numdocksavailable": 17, "numbikesavailable": 6, "mechanical": 2, "ebike": 4, "is_renting": "OUI", "is_returning": "OUI", "duedate": "2024-05-01T10:30:49+00:00", "coordonnees_geo": {"lon": 2.351464, "lat": 48.880726}, "nom_arrondissement_communes": "Paris", "code_insee_commune": null}, {"stationcode": "41303", "name": "Gare de Nogent-le-Perreux", "is_installed": "OUI", "capacity": 32, "numdocksavailable": 7, "numbikesavailable": 24, "mechanical": 13, "ebike": 11, "is_renting": "OUI", "is_returning": "OUI", "duedate": "2024-05-01T10:34:51+00:00", "coordonnees_geo": {"lon": 2.493693307042122, "lat": 48.83842553348809}, "nom_arrondissement_communes": "Nogent-sur-Marne", "code_insee_commune": null}, {"stationcode": "12031", "name": "Gabriel Lam\u00e9", "is_installed": "OUI", "capacity": 36, "numdocksavailable": 0, "numbikesavailable": 35, "mechanical": 32, "ebike": 3, "is_renting": "OUI", "is_returning": "OUI", "duedate": "2024-05-01T10:35:37+00:00", "coordonnees_geo": {"lon": 2.385534569621086, "lat": 48.8351212784276}, "nom_arrondissement_communes": "Paris", "code_insee_commune": null}, {"stationcode": "7011", "name": "Las Cases - Bourgogne", "is_installed": "OUI", "capacity": 22, "numdocksavailable": 21, "numbikesavailable": 1, "mechanical": 0, "ebike": 1, "is_renting": "OUI", "is_returning": "OUI", "duedate": "2024-05-01T10:34:43+00:00", "coordonnees_geo": {"lon": 2.3185685276985, "lat": 48.859091104741}, "nom_arrondissement_communes": "Paris", "code_insee_commune": null}, {"stationcode": "5022", "name": "Boulangers - Cardinal Lemoine", "is_installed": "OUI", "capacity": 20, "numdocksavailable": 17, "numbikesavailable": 2, "mechanical": 2, "ebike": 0, "is_renting": "OUI", "is_returning": "OUI", "duedate": "2024-05-01T10:36:00+00:00", "coordonnees_geo": {"lon": 2.3521495, "lat": 48.8462904}, "nom_arrondissement_communes": "Paris", "code_insee_commune": null}, {"stationcode": "21323", "name": "Charlot - Stade Gabriel Voisin", "is_installed": "OUI", "capacity": 31, "numdocksavailable": 4, "numbikesavailable": 27, "mechanical": 22, "ebike": 5, "is_renting": "OUI", "is_returning": "OUI", "duedate": "2024-05-01T10:35:39+00:00", "coordonnees_geo": {"lon": 2.268122527474, "lat": 48.827228120536}, "nom_arrondissement_communes": "Issy-les-Moulineaux", "code_insee_commune": null}, {"stationcode": "17040", "name": "Pereire - Ternes", "is_installed": "OUI", "capacity": 48, "numdocksavailable": 34, "numbikesavailable": 13, "mechanical": 3, "ebike": 10, "is_renting": "OUI", "is_returning": "OUI", "duedate": "2024-05-01T10:33:54+00:00", "coordonnees_geo": {"lon": 2.288012132048607, "lat": 48.87973954830735}, "nom_arrondissement_communes": "Paris", "code_insee_commune": null}, {"stationcode": "8009", "name": "Gare Saint-Lazare - Isly", "is_installed": "OUI", "capacity": 27, "numdocksavailable": 15, "numbikesavailable": 7, "mechanical": 2, "ebike": 5, "is_renting": "OUI", "is_returning": "OUI", "duedate": "2024-05-01T10:33:23+00:00", "coordonnees_geo": {"lon": 2.326515804784655, "lat": 48.874777677621296}, "nom_arrondissement_communes": "Paris", "code_insee_commune": null}, {"stationcode": "1001", "name": "Quai de l'Horloge - Pont Neuf", "is_installed": "OUI", "capacity": 17, "numdocksavailable": 6, "numbikesavailable": 9, "mechanical": 5, "ebike": 4, "is_renting": "OUI", "is_returning": "OUI", "duedate": "2024-05-01T10:34:54+00:00", "coordonnees_geo": {"lon": 2.3417982839439, "lat": 48.857058739111}, "nom_arrondissement_communes": "Paris", "code_insee_commune": null}, {"stationcode": "31103", "name": "Gare Rosny-Bois-Perrier", "is_installed": "OUI", "capacity": 36, "numdocksavailable": 16, "numbikesavailable": 20, "mechanical": 14, "ebike": 6, "is_renting": "OUI", "is_returning": "OUI", "duedate": "2024-05-01T10:36:23+00:00", "coordonnees_geo": {"lon": 2.480436824262142, "lat": 48.88115023337061}, "nom_arrondissement_communes": "Rosny-sous-Bois", "code_insee_commune": null}, {"stationcode": "17008", "name": "Porte Pouchet-Bessi\u00e8res", "is_installed": "OUI", "capacity": 23, "numdocksavailable": 21, "numbikesavailable": 2, "mechanical": 1, "ebike": 1, "is_renting": "OUI", "is_returning": "OUI", "duedate": "2024-05-01T10:27:04+00:00", "coordonnees_geo": {"lon": 2.3230632, "lat": 48.8978765}, "nom_arrondissement_communes": "Paris", "code_insee_commune": null}, {"stationcode": "7018", "name": "S\u00e9gur - d'Estr\u00e9es", "is_installed": "OUI", "capacity": 19, "numdocksavailable": 2, "numbikesavailable": 16, "mechanical": 15, "ebike": 1, "is_renting": "OUI", "is_returning": "OUI", "duedate": "2024-05-01T10:36:32+00:00", "coordonnees_geo": {"lon": 2.3097044974566, "lat": 48.851419978983}, "nom_arrondissement_communes": "Paris", "code_insee_commune": null}, {"stationcode": "5020", "name": "Institut du Monde Arabe - Saint-Germain", "is_installed": "OUI", "capacity": 40, "numdocksavailable": 28, "numbikesavailable": 10, "mechanical": 7, "ebike": 3, "is_renting": "OUI", "is_returning": "OUI", "duedate": "2024-05-01T10:35:11+00:00", "coordonnees_geo": {"lon": 2.3558086529374, "lat": 48.849063299501}, "nom_arrondissement_communes": "Paris", "code_insee_commune": null}, {"stationcode": "19015", "name": "Thionville - Ourcq", "is_installed": "OUI", "capacity": 24, "numdocksavailable": 21, "numbikesavailable": 2, "mechanical": 1, "ebike": 1, "is_renting": "OUI", "is_returning": "OUI", "duedate": "2024-05-01T10:34:21+00:00", "coordonnees_geo": {"lon": 2.3833653330802917, "lat": 48.88917613743794}, "nom_arrondissement_communes": "Paris", "code_insee_commune": null}, {"stationcode": "9022", "name": "Rossini - Laffitte", "is_installed": "OUI", "capacity": 33, "numdocksavailable": 32, "numbikesavailable": 1, "mechanical": 0, "ebike": 1, "is_renting": "OUI", "is_returning": "OUI", "duedate": "2024-05-01T10:29:13+00:00", "coordonnees_geo": {"lon": 2.337980867701675, "lat": 48.87334627510507}, "nom_arrondissement_communes": "Paris", "code_insee_commune": null}, {"stationcode": "26003", "name": "Argenteuil - Voltaire", "is_installed": "OUI", "capacity": 16, "numdocksavailable": 5, "numbikesavailable": 11, "mechanical": 11, "ebike": 0, "is_renting": "OUI", "is_returning": "OUI", "duedate": "2024-05-01T10:35:30+00:00", "coordonnees_geo": {"lon": 2.2814112156629562, "lat": 48.91864865955558}, "nom_arrondissement_communes": "Asni\u00e8res-sur-Seine", "code_insee_commune": null}, {"stationcode": "19003", "name": "Quai de la Seine", "is_installed": "OUI", "capacity": 24, "numdocksavailable": 5, "numbikesavailable": 19, "mechanical": 13, "ebike": 6, "is_renting": "OUI", "is_returning": "OUI", "duedate": "2024-05-01T10:35:15+00:00", "coordonnees_geo": {"lon": 2.3703941702842717, "lat": 48.884492238407525}, "nom_arrondissement_communes": "Paris", "code_insee_commune": null}, {"stationcode": "17043", "name": "Belidor - Gouvion-Saint-Cyr", "is_installed": "OUI", "capacity": 39, "numdocksavailable": 29, "numbikesavailable": 9, "mechanical": 5, "ebike": 4, "is_renting": "OUI", "is_returning": "OUI", "duedate": "2024-05-01T10:35:16+00:00", "coordonnees_geo": {"lon": 2.2854680567979813, "lat": 48.88022154052015}, "nom_arrondissement_communes": "Paris", "code_insee_commune": null}, {"stationcode": "19026", "name": "Place de Rhin et Danube", "is_installed": "OUI", "capacity": 17, "numdocksavailable": 10, "numbikesavailable": 6, "mechanical": 1, "ebike": 5, "is_renting": "OUI", "is_returning": "OUI", "duedate": "2024-05-01T10:35:06+00:00", "coordonnees_geo": {"lon": 2.392586767673493, "lat": 48.88192765861766}, "nom_arrondissement_communes": "Paris", "code_insee_commune": null}, {"stationcode": "16039", "name": "Exelmans - Versailles", "is_installed": "OUI", "capacity": 49, "numdocksavailable": 21, "numbikesavailable": 27, "mechanical": 21, "ebike": 6, "is_renting": "OUI", "is_returning": "OUI", "duedate": "2024-05-01T10:35:40+00:00", "coordonnees_geo": {"lon": 2.264390252530575, "lat": 48.84097491091973}, "nom_arrondissement_communes": "Paris", "code_insee_commune": null}, {"stationcode": "11023", "name": "Saint-Maur - Roquette", "is_installed": "OUI", "capacity": 46, "numdocksavailable": 1, "numbikesavailable": 44, "mechanical": 40, "ebike": 4, "is_renting": "OUI", "is_returning": "OUI", "duedate": "2024-05-01T10:34:13+00:00", "coordonnees_geo": {"lon": 2.383553994571467, "lat": 48.858688774062955}, "nom_arrondissement_communes": "Paris", "code_insee_commune": null}, {"stationcode": "8034", "name": "Berri - Haussmann", "is_installed": "OUI", "capacity": 35, "numdocksavailable": 33, "numbikesavailable": 1, "mechanical": 1, "ebike": 0, "is_renting": "OUI", "is_returning": "OUI", "duedate": "2024-05-01T10:35:46+00:00", "coordonnees_geo": {"lon": 2.3082953318953514, "lat": 48.874746047357135}, "nom_arrondissement_communes": "Paris", "code_insee_commune": null}, {"stationcode": "11047", "name": "Amelot - Saint-S\u00e9bastien", "is_installed": "OUI", "capacity": 30, "numdocksavailable": 3, "numbikesavailable": 22, "mechanical": 7, "ebike": 15, "is_renting": "OUI", "is_returning": "OUI", "duedate": "2024-05-01T10:32:37+00:00", "coordonnees_geo": {"lon": 2.3677996181077, "lat": 48.861142162761}, "nom_arrondissement_communes": "Paris", "code_insee_commune": null}, {"stationcode": "15067", "name": "Desaix - Edgar Faure", "is_installed": "OUI", "capacity": 12, "numdocksavailable": 4, "numbikesavailable": 6, "mechanical": 5, "ebike": 1, "is_renting": "OUI", "is_returning": "OUI", "duedate": "2024-05-01T10:33:46+00:00", "coordonnees_geo": {"lon": 2.293077029857222, "lat": 48.852804604940296}, "nom_arrondissement_communes": "Paris", "code_insee_commune": null}, {"stationcode": "17030", "name": "Pereire - Rennequin", "is_installed": "OUI", "capacity": 23, "numdocksavailable": 18, "numbikesavailable": 4, "mechanical": 4, "ebike": 0, "is_renting": "OUI", "is_returning": "OUI", "duedate": "2024-05-01T10:34:50+00:00", "coordonnees_geo": {"lon": 2.2952447086572647, "lat": 48.88364782887555}, "nom_arrondissement_communes": "Paris", "code_insee_commune": null}, {"stationcode": "6006", "name": "Notre-Dame-des-Champs - Stanislas", "is_installed": "OUI", "capacity": 19, "numdocksavailable": 10, "numbikesavailable": 9, "mechanical": 8, "ebike": 1, "is_renting": "OUI", "is_returning": "OUI", "duedate": "2024-05-01T10:36:02+00:00", "coordonnees_geo": {"lon": 2.329337755887181, "lat": 48.84479928858768}, "nom_arrondissement_communes": "Paris", "code_insee_commune": null}, {"stationcode": "12128", "name": "Pyramide - Ecole du Breuil", "is_installed": "OUI", "capacity": 34, "numdocksavailable": 25, "numbikesavailable": 9, "mechanical": 5, "ebike": 4, "is_renting": "OUI", "is_returning": "OUI", "duedate": "2024-05-01T10:35:03+00:00", "coordonnees_geo": {"lon": 2.4586871266365056, "lat": 48.82237977153955}, "nom_arrondissement_communes": "Paris", "code_insee_commune": null}, {"stationcode": "8010", "name": "Li\u00e8ge - Moscou", "is_installed": "OUI", "capacity": 17, "numdocksavailable": 15, "numbikesavailable": 2, "mechanical": 0, "ebike": 2, "is_renting": "OUI", "is_returning": "OUI", "duedate": "2024-05-01T10:32:59+00:00", "coordonnees_geo": {"lon": 2.3264628, "lat": 48.8795431}, "nom_arrondissement_communes": "Paris", "code_insee_commune": null}, {"stationcode": "46002", "name": "Rouget de Lisle", "is_installed": "OUI", "capacity": 35, "numdocksavailable": 3, "numbikesavailable": 31, "mechanical": 12, "ebike": 19, "is_renting": "OUI", "is_returning": "OUI", "duedate": "2024-05-01T10:34:07+00:00", "coordonnees_geo": {"lon": 2.4071189761161804, "lat": 48.764615483395254}, "nom_arrondissement_communes": "Choisy-le-Roi", "code_insee_commune": null}, {"stationcode": "10016", "name": "R\u00e9collets - Square Villemin", "is_installed": "OUI", "capacity": 17, "numdocksavailable": 7, "numbikesavailable": 9, "mechanical": 5, "ebike": 4, "is_renting": "OUI", "is_returning": "OUI", "duedate": "2024-05-01T10:34:32+00:00", "coordonnees_geo": {"lon": 2.359801238597928, "lat": 48.875034655883944}, "nom_arrondissement_communes": "Paris", "code_insee_commune": null}, {"stationcode": "41302", "name": "Charles de Gaulle - Beaut\u00e9", "is_installed": "OUI", "capacity": 49, "numdocksavailable": 37, "numbikesavailable": 11, "mechanical": 0, "ebike": 11, "is_renting": "OUI", "is_returning": "OUI", "duedate": "2024-05-01T10:35:18+00:00", "coordonnees_geo": {"lon": 2.479562651149885, "lat": 48.83649602312711}, "nom_arrondissement_communes": "Nogent-sur-Marne", "code_insee_commune": null}, {"stationcode": "5018", "name": "Mutualit\u00e9", "is_installed": "OUI", "capacity": 37, "numdocksavailable": 25, "numbikesavailable": 12, "mechanical": 5, "ebike": 7, "is_renting": "OUI", "is_returning": "OUI", "duedate": "2024-05-01T10:34:36+00:00", "coordonnees_geo": {"lon": 2.3502873256803, "lat": 48.848225572724}, "nom_arrondissement_communes": "Paris", "code_insee_commune": null}, {"stationcode": "33017", "name": "Anatole France - President Roosevelt", "is_installed": "OUI", "capacity": 29, "numdocksavailable": 15, "numbikesavailable": 13, "mechanical": 2, "ebike": 11, "is_renting": "OUI", "is_returning": "OUI", "duedate": "2024-05-01T10:34:18+00:00", "coordonnees_geo": {"lon": 2.3814103, "lat": 48.9155156}, "nom_arrondissement_communes": "Aubervilliers", "code_insee_commune": null}, {"stationcode": "15042", "name": "Henry Farman", "is_installed": "OUI", "capacity": 16, "numdocksavailable": 9, "numbikesavailable": 6, "mechanical": 5, "ebike": 1, "is_renting": "OUI", "is_returning": "OUI", "duedate": "2024-05-01T10:29:07+00:00", "coordonnees_geo": {"lon": 2.2713854536414146, "lat": 48.83372430280548}, "nom_arrondissement_communes": "Paris", "code_insee_commune": null}, {"stationcode": "18011", "name": "Pajol - Place Herbert", "is_installed": "OUI", "capacity": 39, "numdocksavailable": 35, "numbikesavailable": 4, "mechanical": 3, "ebike": 1, "is_renting": "OUI", "is_returning": "OUI", "duedate": "2024-05-01T10:35:50+00:00", "coordonnees_geo": {"lon": 2.3635598, "lat": 48.8927825}, "nom_arrondissement_communes": "Paris", "code_insee_commune": null}, {"stationcode": "43008", "name": "Fontenay - Lib\u00e9ration", "is_installed": "OUI", "capacity": 25, "numdocksavailable": 20, "numbikesavailable": 4, "mechanical": 2, "ebike": 2, "is_renting": "OUI", "is_returning": "OUI", "duedate": "2024-05-01T10:34:59+00:00", "coordonnees_geo": {"lon": 2.445141971111298, "lat": 48.84780306364685}, "nom_arrondissement_communes": "Vincennes", "code_insee_commune": null}, {"stationcode": "33102", "name": "Gabriel P\u00e9ri - Francisco Ferrer", "is_installed": "OUI", "capacity": 18, "numdocksavailable": 8, "numbikesavailable": 8, "mechanical": 3, "ebike": 5, "is_renting": "OUI", "is_returning": "OUI", "duedate": "2024-05-01T10:31:36+00:00", "coordonnees_geo": {"lon": 2.407338917255402, "lat": 48.88633710236977}, "nom_arrondissement_communes": "Le Pr\u00e9-Saint-Gervais", "code_insee_commune": null}, {"stationcode": "15104", "name": "H\u00f4pital Europ\u00e9en Georges Pompidou", "is_installed": "OUI", "capacity": 64, "numdocksavailable": 54, "numbikesavailable": 9, "mechanical": 4, "ebike": 5, "is_renting": "OUI", "is_returning": "OUI", "duedate": "2024-05-01T10:32:55+00:00", "coordonnees_geo": {"lon": 2.275374233722687, "lat": 48.83769531916335}, "nom_arrondissement_communes": "Paris", "code_insee_commune": null}, {"stationcode": "44006", "name": "Concorde - Stalingrad", "is_installed": "OUI", "capacity": 35, "numdocksavailable": 10, "numbikesavailable": 25, "mechanical": 7, "ebike": 18, "is_renting": "OUI", "is_returning": "OUI", "duedate": "2024-05-01T10:36:07+00:00", "coordonnees_geo": {"lon": 2.3821302, "lat": 48.7985844}, "nom_arrondissement_communes": "Vitry-sur-Seine", "code_insee_commune": null}, {"stationcode": "51005", "name": "Yves Farges - Route d'Enghein", "is_installed": "NON", "capacity": 0, "numdocksavailable": 0, "numbikesavailable": 0, "mechanical": 0, "ebike": 0, "is_renting": "NON", "is_returning": "NON", "duedate": "2024-02-06T11:04:01+00:00", "coordonnees_geo": {"lon": 2.2834496977978, "lat": 48.95756799268}, "nom_arrondissement_communes": "Argenteuil", "code_insee_commune": null}, {"stationcode": "19120", "name": "Carducci - Place Hannah Arendt", "is_installed": "OUI", "capacity": 27, "numdocksavailable": 25, "numbikesavailable": 2, "mechanical": 0, "ebike": 2, "is_renting": "OUI", "is_returning": "OUI", "duedate": "2024-05-01T10:36:12+00:00", "coordonnees_geo": {"lon": 2.3860743641853337, "lat": 48.877436681515796}, "nom_arrondissement_communes": "Paris", "code_insee_commune": null}, {"stationcode": "5004", "name": "Saint-Jacques - Val de Gr\u00e2ce", "is_installed": "OUI", "capacity": 19, "numdocksavailable": 13, "numbikesavailable": 5, "mechanical": 0, "ebike": 5, "is_renting": "OUI", "is_returning": "OUI", "duedate": "2024-05-01T10:34:52+00:00", "coordonnees_geo": {"lon": 2.3413893, "lat": 48.8417514}, "nom_arrondissement_communes": "Paris", "code_insee_commune": null}, {"stationcode": "13001", "name": "Port-Royal - H\u00f4pital du Val-de-Gr\u00e2ce", "is_installed": "OUI", "capacity": 18, "numdocksavailable": 14, "numbikesavailable": 3, "mechanical": 2, "ebike": 1, "is_renting": "OUI", "is_returning": "OUI", "duedate": "2024-05-01T10:33:10+00:00", "coordonnees_geo": {"lon": 2.3448138346607, "lat": 48.837668272811}, "nom_arrondissement_communes": "Paris", "code_insee_commune": null}, {"stationcode": "8045", "name": "Place de la Reine Astrid", "is_installed": "OUI", "capacity": 58, "numdocksavailable": 50, "numbikesavailable": 8, "mechanical": 2, "ebike": 6, "is_renting": "OUI", "is_returning": "OUI", "duedate": "2024-05-01T10:36:17+00:00", "coordonnees_geo": {"lon": 2.3025491823859, "lat": 48.864920982538}, "nom_arrondissement_communes": "Paris", "code_insee_commune": null}, {"stationcode": "42014", "name": "Place Marcel Cachin", "is_installed": "OUI", "capacity": 32, "numdocksavailable": 15, "numbikesavailable": 17, "mechanical": 16, "ebike": 1, "is_renting": "OUI", "is_returning": "OUI", "duedate": "2024-05-01T10:33:13+00:00", "coordonnees_geo": {"lon": 2.39090770483017, "lat": 48.81411442356866}, "nom_arrondissement_communes": "Ivry-sur-Seine", "code_insee_commune": null}, {"stationcode": "17033", "name": "Carnot - G\u00e9n\u00e9ral Lanrezac", "is_installed": "OUI", "capacity": 30, "numdocksavailable": 30, "numbikesavailable": 0, "mechanical": 0, "ebike": 0, "is_renting": "NON", "is_returning": "NON", "duedate": "2018-05-21T05:30:29+00:00", "coordonnees_geo": {"lon": 2.2938242935036, "lat": 48.875443870736}, "nom_arrondissement_communes": "Paris", "code_insee_commune": null}, {"stationcode": "14008", "name": "Mouton Duvernet - G\u00e9n\u00e9ral Leclerc", "is_installed": "OUI", "capacity": 28, "numdocksavailable": 23, "numbikesavailable": 4, "mechanical": 4, "ebike": 0, "is_renting": "OUI", "is_returning": "OUI", "duedate": "2024-05-01T10:35:40+00:00", "coordonnees_geo": {"lon": 2.3293121159076686, "lat": 48.831632518292565}, "nom_arrondissement_communes": "Paris", "code_insee_commune": null}, {"stationcode": "5124", "name": "Erasme - Ulm", "is_installed": "OUI", "capacity": 24, "numdocksavailable": 17, "numbikesavailable": 6, "mechanical": 0, "ebike": 6, "is_renting": "OUI", "is_returning": "OUI", "duedate": "2024-05-01T10:36:37+00:00", "coordonnees_geo": {"lon": 2.3445946723222733, "lat": 48.84264375274712}, "nom_arrondissement_communes": "Paris", "code_insee_commune": null}, {"stationcode": "14106", "name": "Marc Sangnier - Porte de Vanves", "is_installed": "OUI", "capacity": 21, "numdocksavailable": 13, "numbikesavailable": 8, "mechanical": 2, "ebike": 6, "is_renting": "OUI", "is_returning": "OUI", "duedate": "2024-05-01T10:34:42+00:00", "coordonnees_geo": {"lon": 2.3107116669416428, "lat": 48.825218683556734}, "nom_arrondissement_communes": "Paris", "code_insee_commune": null}, {"stationcode": "18046", "name": "Etienne Jodelle - Saint Ouen", "is_installed": "OUI", "capacity": 33, "numdocksavailable": 30, "numbikesavailable": 2, "mechanical": 2, "ebike": 0, "is_renting": "OUI", "is_returning": "OUI", "duedate": "2024-05-01T10:33:22+00:00", "coordonnees_geo": {"lon": 2.326124420314341, "lat": 48.88794016394694}, "nom_arrondissement_communes": "Paris", "code_insee_commune": null}, {"stationcode": "22406", "name": "Guy M\u00f4quet - Etienne Dolet", "is_installed": "OUI", "capacity": 23, "numdocksavailable": 17, "numbikesavailable": 6, "mechanical": 4, "ebike": 2, "is_renting": "OUI", "is_returning": "OUI", "duedate": "2024-05-01T10:32:35+00:00", "coordonnees_geo": {"lon": 2.298078276995073, "lat": 48.81527009991819}, "nom_arrondissement_communes": "Malakoff", "code_insee_commune": null}, {"stationcode": "2111", "name": "Chabanais - Petits Champs", "is_installed": "OUI", "capacity": 30, "numdocksavailable": 25, "numbikesavailable": 3, "mechanical": 1, "ebike": 2, "is_renting": "OUI", "is_returning": "OUI", "duedate": "2024-05-01T10:36:11+00:00", "coordonnees_geo": {"lon": 2.336716018617153, "lat": 48.86703740186721}, "nom_arrondissement_communes": "Paris", "code_insee_commune": null}, {"stationcode": "18022", "name": "Marcadet - Barb\u00e8s", "is_installed": "OUI", "capacity": 37, "numdocksavailable": 32, "numbikesavailable": 3, "mechanical": 1, "ebike": 2, "is_renting": "OUI", "is_returning": "OUI", "duedate": "2024-05-01T10:34:08+00:00", "coordonnees_geo": {"lon": 2.3490573929687, "lat": 48.890451120965}, "nom_arrondissement_communes": "Paris", "code_insee_commune": null}, {"stationcode": "8054", "name": "Bertie Albrecht - Hoche", "is_installed": "OUI", "capacity": 32, "numdocksavailable": 26, "numbikesavailable": 5, "mechanical": 2, "ebike": 3, "is_renting": "OUI", "is_returning": "OUI", "duedate": "2024-05-01T10:31:16+00:00", "coordonnees_geo": {"lon": 2.301303138307601, "lat": 48.87614039826388}, "nom_arrondissement_communes": "Paris", "code_insee_commune": null}, {"stationcode": "15109", "name": "Cevennes - Bergers", "is_installed": "OUI", "capacity": 29, "numdocksavailable": 9, "numbikesavailable": 19, "mechanical": 15, "ebike": 4, "is_renting": "OUI", "is_returning": "OUI", "duedate": "2024-05-01T10:35:37+00:00", "coordonnees_geo": {"lon": 2.281037718057633, "lat": 48.84240765130395}, "nom_arrondissement_communes": "Paris", "code_insee_commune": null}, {"stationcode": "14012", "name": "Sibelle - Al\u00e9sia", "is_installed": "OUI", "capacity": 25, "numdocksavailable": 13, "numbikesavailable": 11, "mechanical": 7, "ebike": 4, "is_renting": "OUI", "is_returning": "OUI", "duedate": "2024-05-01T10:36:36+00:00", "coordonnees_geo": {"lon": 2.3384983465075493, "lat": 48.826701758539215}, "nom_arrondissement_communes": "Paris", "code_insee_commune": null}, {"stationcode": "10042", "name": "Enghien - Faubourg Poissonni\u00e8re", "is_installed": "OUI", "capacity": 33, "numdocksavailable": 30, "numbikesavailable": 2, "mechanical": 2, "ebike": 0, "is_renting": "OUI", "is_returning": "OUI", "duedate": "2024-05-01T10:32:05+00:00", "coordonnees_geo": {"lon": 2.3483952362828, "lat": 48.872420063053}, "nom_arrondissement_communes": "Paris", "code_insee_commune": null}, {"stationcode": "17203", "name": "Place de la Porte de Champeret", "is_installed": "OUI", "capacity": 28, "numdocksavailable": 18, "numbikesavailable": 6, "mechanical": 3, "ebike": 3, "is_renting": "OUI", "is_returning": "OUI", "duedate": "2024-05-01T10:29:35+00:00", "coordonnees_geo": {"lon": 2.2917001576821, "lat": 48.886062068226}, "nom_arrondissement_communes": "Paris", "code_insee_commune": null}, {"stationcode": "14124", "name": "David Weill - Parc Montsouris", "is_installed": "OUI", "capacity": 22, "numdocksavailable": 20, "numbikesavailable": 2, "mechanical": 0, "ebike": 2, "is_renting": "OUI", "is_returning": "OUI", "duedate": "2024-05-01T10:35:06+00:00", "coordonnees_geo": {"lon": 2.333725690841675, "lat": 48.821092374256104}, "nom_arrondissement_communes": "Paris", "code_insee_commune": null}, {"stationcode": "15133", "name": "Saint Lambert - Blomet", "is_installed": "OUI", "capacity": 27, "numdocksavailable": 13, "numbikesavailable": 13, "mechanical": 12, "ebike": 1, "is_renting": "OUI", "is_returning": "OUI", "duedate": "2024-05-01T10:36:28+00:00", "coordonnees_geo": {"lon": 2.2930556908249855, "lat": 48.83659148147257}, "nom_arrondissement_communes": "Paris", "code_insee_commune": null}, {"stationcode": "44013", "name": "Edouard Tremblay - Julian Grimaux", "is_installed": "OUI", "capacity": 30, "numdocksavailable": 26, "numbikesavailable": 4, "mechanical": 1, "ebike": 3, "is_renting": "OUI", "is_returning": "OUI", "duedate": "2024-05-01T10:33:57+00:00", "coordonnees_geo": {"lon": 2.3723508417606, "lat": 48.781383825117}, "nom_arrondissement_communes": "Vitry-sur-Seine", "code_insee_commune": null}, {"stationcode": "6025", "name": "Assas - Rennes", "is_installed": "OUI", "capacity": 32, "numdocksavailable": 31, "numbikesavailable": 1, "mechanical": 1, "ebike": 0, "is_renting": "OUI", "is_returning": "OUI", "duedate": "2024-05-01T10:33:19+00:00", "coordonnees_geo": {"lon": 2.32851454623001, "lat": 48.8492084999386}, "nom_arrondissement_communes": "Paris", "code_insee_commune": null}, {"stationcode": "21015", "name": "Nationale - Place Jules Guesde", "is_installed": "OUI", "capacity": 23, "numdocksavailable": 9, "numbikesavailable": 14, "mechanical": 9, "ebike": 5, "is_renting": "OUI", "is_returning": "OUI", "duedate": "2024-05-01T10:35:57+00:00", "coordonnees_geo": {"lon": 2.2416052222251897, "lat": 48.82753962462998}, "nom_arrondissement_communes": "Boulogne-Billancourt", "code_insee_commune": null}, {"stationcode": "48010", "name": "Karl Marx", "is_installed": "OUI", "capacity": 16, "numdocksavailable": 12, "numbikesavailable": 3, "mechanical": 1, "ebike": 2, "is_renting": "OUI", "is_returning": "OUI", "duedate": "2024-05-01T10:30:28+00:00", "coordonnees_geo": {"lon": 2.3646667979455587, "lat": 48.784527937293184}, "nom_arrondissement_communes": "Villejuif", "code_insee_commune": null}, {"stationcode": "42021", "name": "Raspail - Manufacture des Oeillets", "is_installed": "OUI", "capacity": 32, "numdocksavailable": 11, "numbikesavailable": 21, "mechanical": 13, "ebike": 8, "is_renting": "OUI", "is_returning": "OUI", "duedate": "2024-05-01T10:36:34+00:00", "coordonnees_geo": {"lon": 2.3903009, "lat": 48.8094458}, "nom_arrondissement_communes": "Ivry-sur-Seine", "code_insee_commune": null}, {"stationcode": "31708", "name": "Noisy le Sec - Jean-Baptiste Cl\u00e9ment", "is_installed": "OUI", "capacity": 22, "numdocksavailable": 18, "numbikesavailable": 1, "mechanical": 0, "ebike": 1, "is_renting": "OUI", "is_returning": "OUI", "duedate": "2024-05-01T10:33:40+00:00", "coordonnees_geo": {"lon": 2.415283620357514, "lat": 48.87451538963655}, "nom_arrondissement_communes": "Bagnolet", "code_insee_commune": null}, {"stationcode": "1020", "name": "Cambon - Rivoli", "is_installed": "OUI", "capacity": 40, "numdocksavailable": 21, "numbikesavailable": 15, "mechanical": 11, "ebike": 4, "is_renting": "OUI", "is_returning": "OUI", "duedate": "2024-05-01T10:36:19+00:00", "coordonnees_geo": {"lon": 2.3251800647137, "lat": 48.866143390992}, "nom_arrondissement_communes": "Paris", "code_insee_commune": null}, {"stationcode": "31003", "name": "Paris - Emile Zola", "is_installed": "OUI", "capacity": 30, "numdocksavailable": 16, "numbikesavailable": 13, "mechanical": 4, "ebike": 9, "is_renting": "OUI", "is_returning": "OUI", "duedate": "2024-05-01T10:36:35+00:00", "coordonnees_geo": {"lon": 2.4186685681343083, "lat": 48.854898095789295}, "nom_arrondissement_communes": "Montreuil", "code_insee_commune": null}, {"stationcode": "22402", "name": "Jean Jaur\u00e8s - Salvador Allende", "is_installed": "OUI", "capacity": 43, "numdocksavailable": 32, "numbikesavailable": 11, "mechanical": 9, "ebike": 2, "is_renting": "OUI", "is_returning": "OUI", "duedate": "2024-05-01T10:34:20+00:00", "coordonnees_geo": {"lon": 2.3026576638221745, "lat": 48.821475594736775}, "nom_arrondissement_communes": "Malakoff", "code_insee_commune": null}, {"stationcode": "21008", "name": "Victor Hugo - Galli\u00e9ni", "is_installed": "OUI", "capacity": 34, "numdocksavailable": 14, "numbikesavailable": 19, "mechanical": 12, "ebike": 7, "is_renting": "OUI", "is_returning": "OUI", "duedate": "2024-05-01T10:36:14+00:00", "coordonnees_geo": {"lon": 2.2460845112800603, "lat": 48.83802015441127}, "nom_arrondissement_communes": "Boulogne-Billancourt", "code_insee_commune": null}, {"stationcode": "11039", "name": "Richard Lenoir - Jean-Pierre Timbaud", "is_installed": "OUI", "capacity": 36, "numdocksavailable": 3, "numbikesavailable": 33, "mechanical": 30, "ebike": 3, "is_renting": "OUI", "is_returning": "OUI", "duedate": "2024-05-01T10:36:20+00:00", "coordonnees_geo": {"lon": 2.3693370749669, "lat": 48.865804276686}, "nom_arrondissement_communes": "Paris", "code_insee_commune": null}, {"stationcode": "17013", "name": "Legendre - Dulong", "is_installed": "OUI", "capacity": 23, "numdocksavailable": 22, "numbikesavailable": 0, "mechanical": 0, "ebike": 0, "is_renting": "OUI", "is_returning": "OUI", "duedate": "2024-05-01T10:33:42+00:00", "coordonnees_geo": {"lon": 2.316423766314984, "lat": 48.885325169402904}, "nom_arrondissement_communes": "Paris", "code_insee_commune": null}, {"stationcode": "13050", "name": "Quai Panhard et Levassor", "is_installed": "OUI", "capacity": 57, "numdocksavailable": 43, "numbikesavailable": 14, "mechanical": 13, "ebike": 1, "is_renting": "OUI", "is_returning": "OUI", "duedate": "2024-05-01T10:33:54+00:00", "coordonnees_geo": {"lon": 2.384273745805574, "lat": 48.82837482809675}, "nom_arrondissement_communes": "Paris", "code_insee_commune": null}, {"stationcode": "11026", "name": "Chemin Vert - Saint-Maur", "is_installed": "OUI", "capacity": 45, "numdocksavailable": 12, "numbikesavailable": 32, "mechanical": 16, "ebike": 16, "is_renting": "OUI", "is_returning": "OUI", "duedate": "2024-05-01T10:36:20+00:00", "coordonnees_geo": {"lon": 2.381299026310444, "lat": 48.86112461407359}, "nom_arrondissement_communes": "Paris", "code_insee_commune": null}, {"stationcode": "41601", "name": "G\u00e9n\u00e9ral De Gaulle - Alouette", "is_installed": "OUI", "capacity": 26, "numdocksavailable": 23, "numbikesavailable": 3, "mechanical": 1, "ebike": 2, "is_renting": "OUI", "is_returning": "OUI", "duedate": "2024-05-01T10:34:56+00:00", "coordonnees_geo": {"lon": 2.4175664, "lat": 48.839109}, "nom_arrondissement_communes": "Saint-Mand\u00e9", "code_insee_commune": null}, {"stationcode": "10162", "name": "Alexandre Parodi - Quai de Valmy", "is_installed": "OUI", "capacity": 24, "numdocksavailable": 24, "numbikesavailable": 0, "mechanical": 0, "ebike": 0, "is_renting": "NON", "is_returning": "NON", "duedate": "2024-05-01T10:26:51+00:00", "coordonnees_geo": {"lon": 2.3665961623192, "lat": 48.879359419425}, "nom_arrondissement_communes": "Paris", "code_insee_commune": null}]}