{"total_count": 1461, "results": [{"stationcode": "31104", "name": "Mairie de Rosny-sous-Bois", "is_installed": "OUI", "capacity": 30, "numdocksavailable": 0, "numbikesavailable": 29, "mechanical": 1, "ebike": 28, "is_renting": "OUI", "is_returning": "OUI", "duedate": "2024-03-18T01:36:28+00:00", "coordonnees_geo": {"lon": 2.4865807592869, "lat": 48.871256519012}, "nom_arrondissement_communes": "Rosny-sous-Bois", "code_insee_commune": null}, {"stationcode": "44015", "name": "Rouget de L'isle - Watteau", "is_installed": "OUI", "capacity": 20, "numdocksavailable": 7, "numbikesavailable": 13, "mechanical": 11, "ebike": 2, "is_renting": "OUI", "is_returning": "OUI", "duedate": "2024-03-18T01:38:47+00:00", "coordonnees_geo": {"lon": 2.3963020229163, "lat": 48.778192750803}, "nom_arrondissement_communes": "Vitry-sur-Seine", "code_insee_commune": null}, {"stationcode": "6003", "name": "Saint-Sulpice", "is_installed": "OUI", "capacity": 21, "numdocksavailable": 12, "numbikesavailable": 8, "mechanical": 7, "ebike": 1, "is_renting": "OUI", "is_returning": "OUI", "duedate": "2024-03-18T01:32:59+00:00", "coordonnees_geo": {"lon": 2.3308077827095985, "lat": 48.85165383178419}, "nom_arrondissement_communes": "Paris", "code_insee_commune": null}, {"stationcode": "5110", "name": "Lac\u00e9p\u00e8de - Monge", "is_installed": "OUI", "capacity": 23, "numdocksavailable": 17, "numbikesavailable": 6, "mechanical": 2, "ebike": 4, "is_renting": "OUI", "is_returning": "OUI", "duedate": "2024-03-18T01:34:31+00:00", "coordonnees_geo": {"lon": 2.3519663885235786, "lat": 48.84389286531899}, "nom_arrondissement_communes": "Paris", "code_insee_commune": null}, {"stationcode": "21010", "name": "Silly - Galli\u00e9ni", "is_installed": "OUI", "capacity": 25, "numdocksavailable": 1, "numbikesavailable": 23, "mechanical": 11, "ebike": 12, "is_renting": "OUI", "is_returning": "OUI", "duedate": "2024-03-18T01:36:33+00:00", "coordonnees_geo": {"lon": 2.2325500845909, "lat": 48.835583838706}, "nom_arrondissement_communes": "Boulogne-Billancourt", "code_insee_commune": null}, {"stationcode": "25006", "name": "Place Nelson Mandela", "is_installed": "OUI", "capacity": 22, "numdocksavailable": 19, "numbikesavailable": 3, "mechanical": 0, "ebike": 3, "is_renting": "OUI", "is_returning": "OUI", "duedate": "2024-03-18T01:34:08+00:00", "coordonnees_geo": {"lon": 2.1961666225454, "lat": 48.862453313908}, "nom_arrondissement_communes": "Rueil-Malmaison", "code_insee_commune": null}, {"stationcode": "17038", "name": "Grande Arm\u00e9e - Brunel", "is_installed": "OUI", "capacity": 62, "numdocksavailable": 55, "numbikesavailable": 5, "mechanical": 2, "ebike": 3, "is_renting": "OUI", "is_returning": "OUI", "duedate": "2024-03-18T01:37:32+00:00", "coordonnees_geo": {"lon": 2.288124, "lat": 48.876116}, "nom_arrondissement_communes": "Paris", "code_insee_commune": null}, {"stationcode": "15202", "name": "Bracion - P\u00e9riph\u00e9rique", "is_installed": "OUI", "capacity": 30, "numdocksavailable": 24, "numbikesavailable": 6, "mechanical": 3, "ebike": 3, "is_renting": "OUI", "is_returning": "OUI", "duedate": "2024-03-18T01:37:55+00:00", "coordonnees_geo": {"lon": 2.3004549373748, "lat": 48.826103771275}, "nom_arrondissement_communes": "Paris", "code_insee_commune": null}, {"stationcode": "7003", "name": "Square Boucicaut", "is_installed": "OUI", "capacity": 60, "numdocksavailable": 59, "numbikesavailable": 0, "mechanical": 0, "ebike": 0, "is_renting": "OUI", "is_returning": "OUI", "duedate": "2024-03-18T01:37:19+00:00", "coordonnees_geo": {"lon": 2.325061820447445, "lat": 48.851296433665276}, "nom_arrondissement_communes": "Paris", "code_insee_commune": null}, {"stationcode": "8050", "name": "Bo\u00e9tie - Ponthieu", "is_installed": "OUI", "capacity": 33, "numdocksavailable": 31, "numbikesavailable": 1, "mechanical": 0, "ebike": 1, "is_renting": "OUI", "is_returning": "OUI", "duedate": "2024-03-18T01:34:42+00:00", "coordonnees_geo": {"lon": 2.3076787590981, "lat": 48.871417284355}, "nom_arrondissement_communes": "Paris", "code_insee_commune": null}, {"stationcode": "2022", "name": "Saint-Fiacre - Poissoni\u00e8re", "is_installed": "OUI", "capacity": 35, "numdocksavailable": 26, "numbikesavailable": 9, "mechanical": 7, "ebike": 2, "is_renting": "OUI", "is_returning": "OUI", "duedate": "2024-03-18T01:32:11+00:00", "coordonnees_geo": {"lon": 2.3459213599563, "lat": 48.870828911558}, "nom_arrondissement_communes": "Paris", "code_insee_commune": null}, {"stationcode": "17044", "name": "Porte de Saint-Ouen - Bessi\u00e8res", "is_installed": "OUI", "capacity": 42, "numdocksavailable": 17, "numbikesavailable": 13, "mechanical": 10, "ebike": 3, "is_renting": "OUI", "is_returning": "OUI", "duedate": "2024-03-18T01:35:11+00:00", "coordonnees_geo": {"lon": 2.32851451022192, "lat": 48.89792240854517}, "nom_arrondissement_communes": "Paris", "code_insee_commune": null}, {"stationcode": "21326", "name": "Moulin de Pierre - Abb\u00e9 Gr\u00e9goire", "is_installed": "OUI", "capacity": 20, "numdocksavailable": 7, "numbikesavailable": 13, "mechanical": 1, "ebike": 12, "is_renting": "OUI", "is_returning": "OUI", "duedate": "2024-03-18T01:37:48+00:00", "coordonnees_geo": {"lon": 2.2754641655975, "lat": 48.822036188382}, "nom_arrondissement_communes": "Issy-les-Moulineaux", "code_insee_commune": null}, {"stationcode": "20143", "name": "Ramponeau - Belleville", "is_installed": "OUI", "capacity": 44, "numdocksavailable": 18, "numbikesavailable": 24, "mechanical": 6, "ebike": 18, "is_renting": "OUI", "is_returning": "OUI", "duedate": "2024-03-18T01:39:04+00:00", "coordonnees_geo": {"lon": 2.379056852114, "lat": 48.871031137596}, "nom_arrondissement_communes": "Paris", "code_insee_commune": null}, {"stationcode": "22207", "name": "Rond-point du Dr Albert Schweitzer", "is_installed": "OUI", "capacity": 22, "numdocksavailable": 15, "numbikesavailable": 7, "mechanical": 2, "ebike": 5, "is_renting": "OUI", "is_returning": "OUI", "duedate": "2024-03-18T01:36:37+00:00", "coordonnees_geo": {"lon": 2.3143940046429634, "lat": 48.78980918988166}, "nom_arrondissement_communes": "Bagneux", "code_insee_commune": null}, {"stationcode": "92002", "name": "Th\u00e9\u00e2tre des Amandiers - Palais des sports", "is_installed": "OUI", "capacity": 23, "numdocksavailable": 19, "numbikesavailable": 3, "mechanical": 1, "ebike": 2, "is_renting": "OUI", "is_returning": "OUI", "duedate": "2024-03-18T01:38:56+00:00", "coordonnees_geo": {"lon": 2.2136941552162, "lat": 48.892648526839}, "nom_arrondissement_communes": "Nanterre", "code_insee_commune": null}, {"stationcode": "31028", "name": "Raspail Barb\u00e8s", "is_installed": "OUI", "capacity": 28, "numdocksavailable": 15, "numbikesavailable": 13, "mechanical": 3, "ebike": 10, "is_renting": "OUI", "is_returning": "OUI", "duedate": "2024-03-18T01:36:39+00:00", "coordonnees_geo": {"lon": 2.4247387, "lat": 48.8529945}, "nom_arrondissement_communes": "Montreuil", "code_insee_commune": null}, {"stationcode": "44017", "name": "Jules Guesde - Pont du Port \u00e0 l'Anglais", "is_installed": "OUI", "capacity": 30, "numdocksavailable": 18, "numbikesavailable": 12, "mechanical": 12, "ebike": 0, "is_renting": "OUI", "is_returning": "OUI", "duedate": "2024-03-18T01:30:32+00:00", "coordonnees_geo": {"lon": 2.417212128639221, "lat": 48.79628807093802}, "nom_arrondissement_communes": "Vitry-sur-Seine", "code_insee_commune": null}, {"stationcode": "10013", "name": "Alibert - Jemmapes", "is_installed": "OUI", "capacity": 60, "numdocksavailable": 8, "numbikesavailable": 49, "mechanical": 47, "ebike": 2, "is_renting": "OUI", "is_returning": "OUI", "duedate": "2024-03-18T01:38:37+00:00", "coordonnees_geo": {"lon": 2.3661044619878, "lat": 48.871044051984}, "nom_arrondissement_communes": "Paris", "code_insee_commune": null}, {"stationcode": "16118", "name": "Michel-Ange - Parent de Rosan", "is_installed": "OUI", "capacity": 26, "numdocksavailable": 16, "numbikesavailable": 5, "mechanical": 2, "ebike": 3, "is_renting": "OUI", "is_returning": "OUI", "duedate": "2024-03-18T01:34:24+00:00", "coordonnees_geo": {"lon": 2.2584119439125065, "lat": 48.840579923690115}, "nom_arrondissement_communes": "Paris", "code_insee_commune": null}, {"stationcode": "2017", "name": "Caire - Dussoubs", "is_installed": "OUI", "capacity": 40, "numdocksavailable": 11, "numbikesavailable": 29, "mechanical": 29, "ebike": 0, "is_renting": "OUI", "is_returning": "OUI", "duedate": "2024-03-18T01:38:38+00:00", "coordonnees_geo": {"lon": 2.349364310503006, "lat": 48.86785342111862}, "nom_arrondissement_communes": "Paris", "code_insee_commune": null}, {"stationcode": "8103", "name": "Artois - Berri", "is_installed": "OUI", "capacity": 23, "numdocksavailable": 19, "numbikesavailable": 4, "mechanical": 1, "ebike": 3, "is_renting": "OUI", "is_returning": "OUI", "duedate": "2024-03-18T01:36:46+00:00", "coordonnees_geo": {"lon": 2.3064258322119713, "lat": 48.87393521240818}, "nom_arrondissement_communes": "Paris", "code_insee_commune": null}, {"stationcode": "14013", "name": "Liard - Amiral Mouchez", "is_installed": "OUI", "capacity": 14, "numdocksavailable": 1, "numbikesavailable": 13, "mechanical": 8, "ebike": 5, "is_renting": "OUI", "is_returning": "OUI", "duedate": "2024-03-18T01:39:00+00:00", "coordonnees_geo": {"lon": 2.342167, "lat": 48.8214169}, "nom_arrondissement_communes": "Paris", "code_insee_commune": null}, {"stationcode": "9002", "name": "Abbeville - Faubourg Poissonni\u00e8re", "is_installed": "OUI", "capacity": 14, "numdocksavailable": 7, "numbikesavailable": 7, "mechanical": 3, "ebike": 4, "is_renting": "OUI", "is_returning": "OUI", "duedate": "2024-03-18T01:34:16+00:00", "coordonnees_geo": {"lon": 2.349147, "lat": 48.879223}, "nom_arrondissement_communes": "Paris", "code_insee_commune": null}, {"stationcode": "48003", "name": "Youri Gagarine - Karl Marx", "is_installed": "OUI", "capacity": 22, "numdocksavailable": 19, "numbikesavailable": 3, "mechanical": 1, "ebike": 2, "is_renting": "OUI", "is_returning": "OUI", "duedate": "2024-03-18T01:37:10+00:00", "coordonnees_geo": {"lon": 2.35908430069685, "lat": 48.78448485079149}, "nom_arrondissement_communes": "Villejuif", "code_insee_commune": null}, {"stationcode": "9014", "name": "Faubourg Montmartre - La Fayette", "is_installed": "OUI", "capacity": 35, "numdocksavailable": 25, "numbikesavailable": 10, "mechanical": 9, "ebike": 1, "is_renting": "OUI", "is_returning": "OUI", "duedate": "2024-03-18T01:34:50+00:00", "coordonnees_geo": {"lon": 2.340853661298752, "lat": 48.87525454905335}, "nom_arrondissement_communes": "Paris", "code_insee_commune": null}, {"stationcode": "8053", "name": "Place Georges Guillaumin", "is_installed": "OUI", "capacity": 29, "numdocksavailable": 22, "numbikesavailable": 3, "mechanical": 1, "ebike": 2, "is_renting": "OUI", "is_returning": "OUI", "duedate": "2024-03-18T01:31:34+00:00", "coordonnees_geo": {"lon": 2.301771435325988, "lat": 48.874750203956566}, "nom_arrondissement_communes": "Paris", "code_insee_commune": null}, {"stationcode": "9001", "name": "Bellefond - Poissonni\u00e8re", "is_installed": "OUI", "capacity": 17, "numdocksavailable": 10, "numbikesavailable": 7, "mechanical": 4, "ebike": 3, "is_renting": "OUI", "is_returning": "OUI", "duedate": "2024-03-18T01:39:20+00:00", "coordonnees_geo": {"lon": 2.348463758826256, "lat": 48.87759897050706}, "nom_arrondissement_communes": "Paris", "code_insee_commune": null}, {"stationcode": "5005", "name": "Gay Lussac - Saint-Jacques", "is_installed": "OUI", "capacity": 24, "numdocksavailable": 21, "numbikesavailable": 3, "mechanical": 0, "ebike": 3, "is_renting": "OUI", "is_returning": "OUI", "duedate": "2024-03-18T01:36:42+00:00", "coordonnees_geo": {"lon": 2.341923944866407, "lat": 48.844730256132095}, "nom_arrondissement_communes": "Paris", "code_insee_commune": null}, {"stationcode": "10161", "name": "Gare de l'Est - Faubourg-Saint-Martin", "is_installed": "OUI", "capacity": 32, "numdocksavailable": 29, "numbikesavailable": 2, "mechanical": 0, "ebike": 2, "is_renting": "OUI", "is_returning": "OUI", "duedate": "2024-03-18T01:35:30+00:00", "coordonnees_geo": {"lon": 2.3594588041306, "lat": 48.875642647477}, "nom_arrondissement_communes": "Paris", "code_insee_commune": null}, {"stationcode": "12031", "name": "Gabriel Lam\u00e9", "is_installed": "OUI", "capacity": 36, "numdocksavailable": 4, "numbikesavailable": 29, "mechanical": 26, "ebike": 3, "is_renting": "OUI", "is_returning": "OUI", "duedate": "2024-03-18T01:37:46+00:00", "coordonnees_geo": {"lon": 2.385534569621086, "lat": 48.8351212784276}, "nom_arrondissement_communes": "Paris", "code_insee_commune": null}, {"stationcode": "9106", "name": "Boudreau - Auber", "is_installed": "OUI", "capacity": 14, "numdocksavailable": 10, "numbikesavailable": 2, "mechanical": 0, "ebike": 2, "is_renting": "OUI", "is_returning": "OUI", "duedate": "2024-03-18T01:36:13+00:00", "coordonnees_geo": {"lon": 2.329423, "lat": 48.87219}, "nom_arrondissement_communes": "Paris", "code_insee_commune": null}, {"stationcode": "21328", "name": "Verger - Colonel Guichard", "is_installed": "OUI", "capacity": 29, "numdocksavailable": 19, "numbikesavailable": 10, "mechanical": 1, "ebike": 9, "is_renting": "OUI", "is_returning": "OUI", "duedate": "2024-03-18T01:37:17+00:00", "coordonnees_geo": {"lon": 2.2670380088932, "lat": 48.816376985087}, "nom_arrondissement_communes": "Issy-les-Moulineaux", "code_insee_commune": null}, {"stationcode": "21323", "name": "Charlot - Stade Gabriel Voisin", "is_installed": "OUI", "capacity": 31, "numdocksavailable": 4, "numbikesavailable": 27, "mechanical": 26, "ebike": 1, "is_renting": "OUI", "is_returning": "OUI", "duedate": "2024-03-18T01:36:58+00:00", "coordonnees_geo": {"lon": 2.268122527474, "lat": 48.827228120536}, "nom_arrondissement_communes": "Issy-les-Moulineaux", "code_insee_commune": null}, {"stationcode": "8201", "name": "Ars\u00e8ne Houssaye - Friedland", "is_installed": "OUI", "capacity": 29, "numdocksavailable": 23, "numbikesavailable": 6, "mechanical": 6, "ebike": 0, "is_renting": "OUI", "is_returning": "OUI", "duedate": "2024-03-18T01:37:55+00:00", "coordonnees_geo": {"lon": 2.2994716674148, "lat": 48.874510616163}, "nom_arrondissement_communes": "Paris", "code_insee_commune": null}, {"stationcode": "17040", "name": "Pereire - Ternes", "is_installed": "OUI", "capacity": 48, "numdocksavailable": 12, "numbikesavailable": 36, "mechanical": 31, "ebike": 5, "is_renting": "OUI", "is_returning": "OUI", "duedate": "2024-03-18T01:36:35+00:00", "coordonnees_geo": {"lon": 2.288012132048607, "lat": 48.87973954830735}, "nom_arrondissement_communes": "Paris", "code_insee_commune": null}, {"stationcode": "8009", "name": "Gare Saint-Lazare - Isly", "is_installed": "OUI", "capacity": 27, "numdocksavailable": 23, "numbikesavailable": 3, "mechanical": 2, "ebike": 1, "is_renting": "OUI", "is_returning": "OUI", "duedate": "2024-03-18T01:36:07+00:00", "coordonnees_geo": {"lon": 2.326515804784655, "lat": 48.874777677621296}, "nom_arrondissement_communes": "Paris", "code_insee_commune": null}, {"stationcode": "17008", "name": "Porte Pouchet-Bessi\u00e8res", "is_installed": "OUI", "capacity": 23, "numdocksavailable": 7, "numbikesavailable": 14, "mechanical": 6, "ebike": 8, "is_renting": "OUI", "is_returning": "OUI", "duedate": "2024-03-18T01:36:25+00:00", "coordonnees_geo": {"lon": 2.3230632, "lat": 48.8978765}, "nom_arrondissement_communes": "Paris", "code_insee_commune": null}, {"stationcode": "7018", "name": "S\u00e9gur - d'Estr\u00e9es", "is_installed": "OUI", "capacity": 19, "numdocksavailable": 1, "numbikesavailable": 16, "mechanical": 9, "ebike": 7, "is_renting": "OUI", "is_returning": "OUI", "duedate": "2024-03-18T01:39:31+00:00", "coordonnees_geo": {"lon": 2.3097044974566, "lat": 48.851419978983}, "nom_arrondissement_communes": "Paris", "code_insee_commune": null}, {"stationcode": "6001", "name": "Institut de France", "is_installed": "OUI", "capacity": 17, "numdocksavailable": 2, "numbikesavailable": 14, "mechanical": 14, "ebike": 0, "is_renting": "OUI", "is_returning": "OUI", "duedate": "2024-03-18T01:39:18+00:00", "coordonnees_geo": {"lon": 2.3358313530377, "lat": 48.857615678565}, "nom_arrondissement_communes": "Paris", "code_insee_commune": null}, {"stationcode": "5020", "name": "Institut du Monde Arabe - Saint-Germain", "is_installed": "OUI", "capacity": 40, "numdocksavailable": 31, "numbikesavailable": 7, "mechanical": 6, "ebike": 1, "is_renting": "OUI", "is_returning": "OUI", "duedate": "2024-03-18T01:35:54+00:00", "coordonnees_geo": {"lon": 2.3558086529374, "lat": 48.849063299501}, "nom_arrondissement_communes": "Paris", "code_insee_commune": null}, {"stationcode": "19015", "name": "Thionville - Ourcq", "is_installed": "OUI", "capacity": 24, "numdocksavailable": 8, "numbikesavailable": 16, "mechanical": 5, "ebike": 11, "is_renting": "OUI", "is_returning": "OUI", "duedate": "2024-03-18T01:36:18+00:00", "coordonnees_geo": {"lon": 2.3833653330802917, "lat": 48.88917613743794}, "nom_arrondissement_communes": "Paris", "code_insee_commune": null}, {"stationcode": "26003", "name": "Argenteuil - Voltaire", "is_installed": "OUI", "capacity": 16, "numdocksavailable": 1, "numbikesavailable": 14, "mechanical": 6, "ebike": 8, "is_renting": "OUI", "is_returning": "OUI", "duedate": "2024-03-18T01:37:13+00:00", "coordonnees_geo": {"lon": 2.2814112156629562, "lat": 48.91864865955558}, "nom_arrondissement_communes": "Asni\u00e8res-sur-Seine", "code_insee_commune": null}, {"stationcode": "19003", "name": "Quai de la Seine", "is_installed": "OUI", "capacity": 24, "numdocksavailable": 18, "numbikesavailable": 4, "mechanical": 1, "ebike": 3, "is_renting": "OUI", "is_returning": "OUI", "duedate": "2024-03-18T01:38:05+00:00", "coordonnees_geo": {"lon": 2.3703941702842717, "lat": 48.884492238407525}, "nom_arrondissement_communes": "Paris", "code_insee_commune": null}, {"stationcode": "8036", "name": "Lisbonne - Monceau", "is_installed": "OUI", "capacity": 33, "numdocksavailable": 28, "numbikesavailable": 4, "mechanical": 1, "ebike": 3, "is_renting": "OUI", "is_returning": "OUI", "duedate": "2024-03-18T01:39:10+00:00", "coordonnees_geo": {"lon": 2.309694221419506, "lat": 48.87745567681383}, "nom_arrondissement_communes": "Paris", "code_insee_commune": null}, {"stationcode": "18107", "name": "Chartres - La Charbonni\u00e8re", "is_installed": "OUI", "capacity": 34, "numdocksavailable": 29, "numbikesavailable": 3, "mechanical": 2, "ebike": 1, "is_renting": "OUI", "is_returning": "OUI", "duedate": "2024-03-18T01:34:28+00:00", "coordonnees_geo": {"lon": 2.3534657, "lat": 48.8847601}, "nom_arrondissement_communes": "Paris", "code_insee_commune": null}, {"stationcode": "16026", "name": "Ranelagh - Mozart", "is_installed": "OUI", "capacity": 23, "numdocksavailable": 18, "numbikesavailable": 4, "mechanical": 1, "ebike": 3, "is_renting": "OUI", "is_returning": "OUI", "duedate": "2024-03-18T01:39:11+00:00", "coordonnees_geo": {"lon": 2.2704418, "lat": 48.8554439}, "nom_arrondissement_communes": "Paris", "code_insee_commune": null}, {"stationcode": "16039", "name": "Exelmans - Versailles", "is_installed": "OUI", "capacity": 49, "numdocksavailable": 28, "numbikesavailable": 18, "mechanical": 9, "ebike": 9, "is_renting": "OUI", "is_returning": "OUI", "duedate": "2024-03-18T01:35:21+00:00", "coordonnees_geo": {"lon": 2.264390252530575, "lat": 48.84097491091973}, "nom_arrondissement_communes": "Paris", "code_insee_commune": null}, {"stationcode": "11023", "name": "Saint-Maur - Roquette", "is_installed": "OUI", "capacity": 46, "numdocksavailable": 12, "numbikesavailable": 32, "mechanical": 28, "ebike": 4, "is_renting": "OUI", "is_returning": "OUI", "duedate": "2024-03-18T01:38:10+00:00", "coordonnees_geo": {"lon": 2.383553994571467, "lat": 48.858688774062955}, "nom_arrondissement_communes": "Paris", "code_insee_commune": null}, {"stationcode": "11002", "name": "Roquette - Thi\u00e9r\u00e9", "is_installed": "OUI", "capacity": 23, "numdocksavailable": 8, "numbikesavailable": 14, "mechanical": 13, "ebike": 1, "is_renting": "OUI", "is_returning": "OUI", "duedate": "2024-03-18T01:36:25+00:00", "coordonnees_geo": {"lon": 2.3733686318721463, "lat": 48.85507930579506}, "nom_arrondissement_communes": "Paris", "code_insee_commune": null}, {"stationcode": "12111", "name": "Claude Decaen - Cannebi\u00e8re", "is_installed": "OUI", "capacity": 27, "numdocksavailable": 9, "numbikesavailable": 18, "mechanical": 8, "ebike": 10, "is_renting": "OUI", "is_returning": "OUI", "duedate": "2024-03-18T01:38:04+00:00", "coordonnees_geo": {"lon": 2.397253782195704, "lat": 48.83761417037952}, "nom_arrondissement_communes": "Paris", "code_insee_commune": null}, {"stationcode": "19043", "name": "Delphine Seyrig - G\u00e9n\u00e9ral Leclerc", "is_installed": "OUI", "capacity": 53, "numdocksavailable": 41, "numbikesavailable": 10, "mechanical": 1, "ebike": 9, "is_renting": "OUI", "is_returning": "OUI", "duedate": "2024-03-18T01:37:49+00:00", "coordonnees_geo": {"lon": 2.39790290594101, "lat": 48.893923963057865}, "nom_arrondissement_communes": "Pantin", "code_insee_commune": null}, {"stationcode": "20042", "name": "Pyr\u00e9n\u00e9es - Emmery", "is_installed": "OUI", "capacity": 40, "numdocksavailable": 23, "numbikesavailable": 14, "mechanical": 0, "ebike": 14, "is_renting": "OUI", "is_returning": "OUI", "duedate": "2024-03-18T01:35:53+00:00", "coordonnees_geo": {"lon": 2.392039597034455, "lat": 48.872010281270974}, "nom_arrondissement_communes": "Paris", "code_insee_commune": null}, {"stationcode": "15067", "name": "Desaix - Edgar Faure", "is_installed": "OUI", "capacity": 12, "numdocksavailable": 1, "numbikesavailable": 11, "mechanical": 10, "ebike": 1, "is_renting": "OUI", "is_returning": "OUI", "duedate": "2024-03-18T01:34:26+00:00", "coordonnees_geo": {"lon": 2.293077029857222, "lat": 48.852804604940296}, "nom_arrondissement_communes": "Paris", "code_insee_commune": null}, {"stationcode": "43401", "name": "Gare RER - Canadiens", "is_installed": "OUI", "capacity": 45, "numdocksavailable": 34, "numbikesavailable": 11, "mechanical": 1, "ebike": 10, "is_renting": "OUI", "is_returning": "OUI", "duedate": "2024-03-18T01:35:08+00:00", "coordonnees_geo": {"lon": 2.464176752459464, "lat": 48.81995307955795}, "nom_arrondissement_communes": "Joinville-le-Pont", "code_insee_commune": null}, {"stationcode": "17030", "name": "Pereire - Rennequin", "is_installed": "OUI", "capacity": 23, "numdocksavailable": 4, "numbikesavailable": 16, "mechanical": 7, "ebike": 9, "is_renting": "OUI", "is_returning": "OUI", "duedate": "2024-03-18T01:37:09+00:00", "coordonnees_geo": {"lon": 2.2952447086572647, "lat": 48.88364782887555}, "nom_arrondissement_communes": "Paris", "code_insee_commune": null}, {"stationcode": "6006", "name": "Notre-Dame-des-Champs - Stanislas", "is_installed": "OUI", "capacity": 19, "numdocksavailable": 18, "numbikesavailable": 1, "mechanical": 1, "ebike": 0, "is_renting": "OUI", "is_returning": "OUI", "duedate": "2024-03-18T01:34:53+00:00", "coordonnees_geo": {"lon": 2.329337755887181, "lat": 48.84479928858768}, "nom_arrondissement_communes": "Paris", "code_insee_commune": null}, {"stationcode": "11027", "name": "Saint-Ambroise - Parmentier", "is_installed": "OUI", "capacity": 38, "numdocksavailable": 1, "numbikesavailable": 37, "mechanical": 24, "ebike": 13, "is_renting": "OUI", "is_returning": "OUI", "duedate": "2024-03-18T01:39:05+00:00", "coordonnees_geo": {"lon": 2.3772348091006, "lat": 48.862147844548}, "nom_arrondissement_communes": "Paris", "code_insee_commune": null}, {"stationcode": "31022", "name": "Mairie de Montreuil", "is_installed": "OUI", "capacity": 52, "numdocksavailable": 46, "numbikesavailable": 6, "mechanical": 5, "ebike": 1, "is_renting": "OUI", "is_returning": "OUI", "duedate": "2024-03-18T01:37:35+00:00", "coordonnees_geo": {"lon": 2.440614402294159, "lat": 48.86131452758348}, "nom_arrondissement_communes": "Montreuil", "code_insee_commune": null}, {"stationcode": "10016", "name": "R\u00e9collets - Square Villemin", "is_installed": "OUI", "capacity": 17, "numdocksavailable": 14, "numbikesavailable": 1, "mechanical": 1, "ebike": 0, "is_renting": "OUI", "is_returning": "OUI", "duedate": "2024-03-18T01:39:17+00:00", "coordonnees_geo": {"lon": 2.359801238597928, "lat": 48.875034655883944}, "nom_arrondissement_communes": "Paris", "code_insee_commune": null}, {"stationcode": "31009", "name": "Place Du G\u00e9n\u00e9ral De Gaulle", "is_installed": "OUI", "capacity": 26, "numdocksavailable": 11, "numbikesavailable": 12, "mechanical": 2, "ebike": 10, "is_renting": "OUI", "is_returning": "OUI", "duedate": "2024-03-18T01:33:29+00:00", "coordonnees_geo": {"lon": 2.4329931, "lat": 48.8687591}, "nom_arrondissement_communes": "Montreuil", "code_insee_commune": null}, {"stationcode": "41302", "name": "Charles de Gaulle - Beaut\u00e9", "is_installed": "OUI", "capacity": 49, "numdocksavailable": 38, "numbikesavailable": 10, "mechanical": 2, "ebike": 8, "is_renting": "OUI", "is_returning": "OUI", "duedate": "2024-03-18T01:31:37+00:00", "coordonnees_geo": {"lon": 2.479562651149885, "lat": 48.83649602312711}, "nom_arrondissement_communes": "Nogent-sur-Marne", "code_insee_commune": null}, {"stationcode": "5018", "name": "Mutualit\u00e9", "is_installed": "OUI", "capacity": 37, "numdocksavailable": 14, "numbikesavailable": 23, "mechanical": 22, "ebike": 1, "is_renting": "OUI", "is_returning": "OUI", "duedate": "2024-03-18T01:38:36+00:00", "coordonnees_geo": {"lon": 2.3502873256803, "lat": 48.848225572724}, "nom_arrondissement_communes": "Paris", "code_insee_commune": null}, {"stationcode": "33017", "name": "Anatole France - President Roosevelt", "is_installed": "OUI", "capacity": 29, "numdocksavailable": 1, "numbikesavailable": 27, "mechanical": 12, "ebike": 15, "is_renting": "OUI", "is_returning": "OUI", "duedate": "2024-03-18T01:37:51+00:00", "coordonnees_geo": {"lon": 2.3814103, "lat": 48.9155156}, "nom_arrondissement_communes": "Aubervilliers", "code_insee_commune": null}, {"stationcode": "15042", "name": "Henry Farman", "is_installed": "OUI", "capacity": 16, "numdocksavailable": 6, "numbikesavailable": 10, "mechanical": 10, "ebike": 0, "is_renting": "OUI", "is_returning": "OUI", "duedate": "2024-03-18T01:35:49+00:00", "coordonnees_geo": {"lon": 2.2713854536414146, "lat": 48.83372430280548}, "nom_arrondissement_communes": "Paris", "code_insee_commune": null}, {"stationcode": "18011", "name": "Pajol - Place Herbert", "is_installed": "OUI", "capacity": 39, "numdocksavailable": 8, "numbikesavailable": 28, "mechanical": 14, "ebike": 14, "is_renting": "OUI", "is_returning": "OUI", "duedate": "2024-03-18T01:38:45+00:00", "coordonnees_geo": {"lon": 2.3635598, "lat": 48.8927825}, "nom_arrondissement_communes": "Paris", "code_insee_commune": null}, {"stationcode": "43008", "name": "Fontenay - Lib\u00e9ration", "is_installed": "OUI", "capacity": 25, "numdocksavailable": 19, "numbikesavailable": 4, "mechanical": 0, "ebike": 4, "is_renting": "OUI", "is_returning": "OUI", "duedate": "2024-03-18T01:34:31+00:00", "coordonnees_geo": {"lon": 2.445141971111298, "lat": 48.84780306364685}, "nom_arrondissement_communes": "Vincennes", "code_insee_commune": null}, {"stationcode": "33102", "name": "Gabriel P\u00e9ri - Francisco Ferrer", "is_installed": "OUI", "capacity": 18, "numdocksavailable": 2, "numbikesavailable": 16, "mechanical": 4, "ebike": 12, "is_renting": "OUI", "is_returning": "OUI", "duedate": "2024-03-18T01:37:37+00:00", "coordonnees_geo": {"lon": 2.407338917255402, "lat": 48.88633710236977}, "nom_arrondissement_communes": "Le Pr\u00e9-Saint-Gervais", "code_insee_commune": null}, {"stationcode": "44006", "name": "Concorde - Stalingrad", "is_installed": "OUI", "capacity": 35, "numdocksavailable": 16, "numbikesavailable": 19, "mechanical": 7, "ebike": 12, "is_renting": "OUI", "is_returning": "OUI", "duedate": "2024-03-18T01:36:55+00:00", "coordonnees_geo": {"lon": 2.3821302, "lat": 48.7985844}, "nom_arrondissement_communes": "Vitry-sur-Seine", "code_insee_commune": null}, {"stationcode": "51005", "name": "Yves Farges - Route d'Enghein", "is_installed": "NON", "capacity": 0, "numdocksavailable": 0, "numbikesavailable": 0, "mechanical": 0, "ebike": 0, "is_renting": "NON", "is_returning": "NON", "duedate": "2024-02-06T11:04:01+00:00", "coordonnees_geo": {"lon": 2.2834496977978, "lat": 48.95756799268}, "nom_arrondissement_communes": "Argenteuil", "code_insee_commune": null}, {"stationcode": "46003", "name": "Conservatoire de Musique", "is_installed": "OUI", "capacity": 25, "numdocksavailable": 15, "numbikesavailable": 10, "mechanical": 4, "ebike": 6, "is_renting": "OUI", "is_returning": "OUI", "duedate": "2024-03-18T01:33:50+00:00", "coordonnees_geo": {"lon": 2.4034014344215398, "lat": 48.77093586667601}, "nom_arrondissement_communes": "Choisy-le-Roi", "code_insee_commune": null}, {"stationcode": "18028", "name": "Championnet - Vauvenargues", "is_installed": "OUI", "capacity": 33, "numdocksavailable": 14, "numbikesavailable": 18, "mechanical": 7, "ebike": 11, "is_renting": "OUI", "is_returning": "OUI", "duedate": "2024-03-18T01:38:52+00:00", "coordonnees_geo": {"lon": 2.3319872841238976, "lat": 48.89401874744574}, "nom_arrondissement_communes": "Paris", "code_insee_commune": null}, {"stationcode": "42014", "name": "Place Marcel Cachin", "is_installed": "OUI", "capacity": 32, "numdocksavailable": 5, "numbikesavailable": 27, "mechanical": 16, "ebike": 11, "is_renting": "OUI", "is_returning": "OUI", "duedate": "2024-03-18T01:39:03+00:00", "coordonnees_geo": {"lon": 2.39090770483017, "lat": 48.81411442356866}, "nom_arrondissement_communes": "Ivry-sur-Seine", "code_insee_commune": null}, {"stationcode": "15106", "name": "Grenelle - Violet", "is_installed": "OUI", "capacity": 35, "numdocksavailable": 3, "numbikesavailable": 30, "mechanical": 29, "ebike": 1, "is_renting": "OUI", "is_returning": "OUI", "duedate": "2024-03-18T01:39:28+00:00", "coordonnees_geo": {"lon": 2.294612042605877, "lat": 48.84993035512154}, "nom_arrondissement_communes": "Paris", "code_insee_commune": null}, {"stationcode": "5124", "name": "Erasme - Ulm", "is_installed": "OUI", "capacity": 24, "numdocksavailable": 21, "numbikesavailable": 2, "mechanical": 0, "ebike": 2, "is_renting": "OUI", "is_returning": "OUI", "duedate": "2024-03-18T01:33:20+00:00", "coordonnees_geo": {"lon": 2.3445946723222733, "lat": 48.84264375274712}, "nom_arrondissement_communes": "Paris", "code_insee_commune": null}, {"stationcode": "14106", "name": "Marc Sangnier - Porte de Vanves", "is_installed": "OUI", "capacity": 21, "numdocksavailable": 15, "numbikesavailable": 5, "mechanical": 3, "ebike": 2, "is_renting": "OUI", "is_returning": "OUI", "duedate": "2024-03-18T01:38:58+00:00", "coordonnees_geo": {"lon": 2.3107116669416428, "lat": 48.825218683556734}, "nom_arrondissement_communes": "Paris", "code_insee_commune": null}, {"stationcode": "18046", "name": "Etienne Jodelle - Saint Ouen", "is_installed": "OUI", "capacity": 33, "numdocksavailable": 21, "numbikesavailable": 11, "mechanical": 3, "ebike": 8, "is_renting": "OUI", "is_returning": "OUI", "duedate": "2024-03-18T01:37:28+00:00", "coordonnees_geo": {"lon": 2.326124420314341, "lat": 48.88794016394694}, "nom_arrondissement_communes": "Paris", "code_insee_commune": null}, {"stationcode": "22406", "name": "Guy M\u00f4quet - Etienne Dolet", "is_installed": "OUI", "capacity": 23, "numdocksavailable": 15, "numbikesavailable": 8, "mechanical": 3, "ebike": 5, "is_renting": "OUI", "is_returning": "OUI", "duedate": "2024-03-18T01:36:02+00:00", "coordonnees_geo": {"lon": 2.298078276995073, "lat": 48.81527009991819}, "nom_arrondissement_communes": "Malakoff", "code_insee_commune": null}, {"stationcode": "18022", "name": "Marcadet - Barb\u00e8s", "is_installed": "OUI", "capacity": 37, "numdocksavailable": 25, "numbikesavailable": 8, "mechanical": 4, "ebike": 4, "is_renting": "OUI", "is_returning": "OUI", "duedate": "2024-03-18T01:38:32+00:00", "coordonnees_geo": {"lon": 2.3490573929687, "lat": 48.890451120965}, "nom_arrondissement_communes": "Paris", "code_insee_commune": null}, {"stationcode": "21005", "name": "H\u00f4tel de Ville de Boulogne Billancourt", "is_installed": "OUI", "capacity": 26, "numdocksavailable": 4, "numbikesavailable": 22, "mechanical": 19, "ebike": 3, "is_renting": "OUI", "is_returning": "OUI", "duedate": "2024-03-18T01:38:25+00:00", "coordonnees_geo": {"lon": 2.2416803240776066, "lat": 48.83495885166784}, "nom_arrondissement_communes": "Boulogne-Billancourt", "code_insee_commune": null}, {"stationcode": "35010", "name": "Hoche - Jean Lolive", "is_installed": "OUI", "capacity": 24, "numdocksavailable": 12, "numbikesavailable": 12, "mechanical": 1, "ebike": 11, "is_renting": "OUI", "is_returning": "OUI", "duedate": "2024-03-18T01:35:32+00:00", "coordonnees_geo": {"lon": 2.402843534946442, "lat": 48.89110239200789}, "nom_arrondissement_communes": "Pantin", "code_insee_commune": null}, {"stationcode": "15133", "name": "Saint Lambert - Blomet", "is_installed": "OUI", "capacity": 27, "numdocksavailable": 4, "numbikesavailable": 22, "mechanical": 12, "ebike": 10, "is_renting": "OUI", "is_returning": "OUI", "duedate": "2024-03-18T01:37:50+00:00", "coordonnees_geo": {"lon": 2.2930556908249855, "lat": 48.83659148147257}, "nom_arrondissement_communes": "Paris", "code_insee_commune": null}, {"stationcode": "20131", "name": "Repos - Cimeti\u00e8re du P\u00e8re Lachaise", "is_installed": "OUI", "capacity": 33, "numdocksavailable": 6, "numbikesavailable": 27, "mechanical": 22, "ebike": 5, "is_renting": "OUI", "is_returning": "OUI", "duedate": "2024-03-18T01:39:23+00:00", "coordonnees_geo": {"lon": 2.3896131366845, "lat": 48.859358523593}, "nom_arrondissement_communes": "Paris", "code_insee_commune": null}, {"stationcode": "41404", "name": "Carnot - P\u00e2querettes", "is_installed": "OUI", "capacity": 26, "numdocksavailable": 16, "numbikesavailable": 9, "mechanical": 5, "ebike": 4, "is_renting": "OUI", "is_returning": "OUI", "duedate": "2024-03-18T01:37:12+00:00", "coordonnees_geo": {"lon": 2.4261841177940373, "lat": 48.79592939432515}, "nom_arrondissement_communes": "Alfortville", "code_insee_commune": null}, {"stationcode": "48010", "name": "Karl Marx", "is_installed": "OUI", "capacity": 16, "numdocksavailable": 9, "numbikesavailable": 7, "mechanical": 1, "ebike": 6, "is_renting": "OUI", "is_returning": "OUI", "duedate": "2024-03-18T01:36:14+00:00", "coordonnees_geo": {"lon": 2.3646667979455587, "lat": 48.784527937293184}, "nom_arrondissement_communes": "Villejuif", "code_insee_commune": null}, {"stationcode": "22203", "name": "Tertres - Fontaine", "is_installed": "OUI", "capacity": 28, "numdocksavailable": 19, "numbikesavailable": 9, "mechanical": 2, "ebike": 7, "is_renting": "OUI", "is_returning": "OUI", "duedate": "2024-03-18T01:39:03+00:00", "coordonnees_geo": {"lon": 2.306235730648041, "lat": 48.787553654715644}, "nom_arrondissement_communes": "Bagneux", "code_insee_commune": null}, {"stationcode": "41202", "name": "Gare Rer de Fontenay sous Bois", "is_installed": "OUI", "capacity": 61, "numdocksavailable": 35, "numbikesavailable": 26, "mechanical": 15, "ebike": 11, "is_renting": "OUI", "is_returning": "OUI", "duedate": "2024-03-18T01:34:21+00:00", "coordonnees_geo": {"lon": 2.4630465, "lat": 48.8436279}, "nom_arrondissement_communes": "Fontenay-sous-Bois", "code_insee_commune": null}, {"stationcode": "42021", "name": "Raspail - Manufacture des Oeillets", "is_installed": "OUI", "capacity": 32, "numdocksavailable": 2, "numbikesavailable": 29, "mechanical": 23, "ebike": 6, "is_renting": "OUI", "is_returning": "OUI", "duedate": "2024-03-18T01:34:48+00:00", "coordonnees_geo": {"lon": 2.3903009, "lat": 48.8094458}, "nom_arrondissement_communes": "Ivry-sur-Seine", "code_insee_commune": null}, {"stationcode": "11030", "name": "Oberkampf - R\u00e9publique", "is_installed": "OUI", "capacity": 24, "numdocksavailable": 7, "numbikesavailable": 17, "mechanical": 14, "ebike": 3, "is_renting": "OUI", "is_returning": "OUI", "duedate": "2024-03-18T01:37:50+00:00", "coordonnees_geo": {"lon": 2.37611478491, "lat": 48.86531608707}, "nom_arrondissement_communes": "Paris", "code_insee_commune": null}, {"stationcode": "1020", "name": "Cambon - Rivoli", "is_installed": "OUI", "capacity": 40, "numdocksavailable": 35, "numbikesavailable": 2, "mechanical": 2, "ebike": 0, "is_renting": "OUI", "is_returning": "OUI", "duedate": "2024-03-18T01:35:51+00:00", "coordonnees_geo": {"lon": 2.3251800647137, "lat": 48.866143390992}, "nom_arrondissement_communes": "Paris", "code_insee_commune": null}, {"stationcode": "25003", "name": "Henri Ste-Claire D\u00e9ville - Paul H\u00e9roult", "is_installed": "OUI", "capacity": 24, "numdocksavailable": 17, "numbikesavailable": 6, "mechanical": 1, "ebike": 5, "is_renting": "OUI", "is_returning": "OUI", "duedate": "2024-03-18T01:38:43+00:00", "coordonnees_geo": {"lon": 2.172411, "lat": 48.892663}, "nom_arrondissement_communes": "Rueil-Malmaison", "code_insee_commune": null}, {"stationcode": "31003", "name": "Paris - Emile Zola", "is_installed": "OUI", "capacity": 30, "numdocksavailable": 21, "numbikesavailable": 8, "mechanical": 6, "ebike": 2, "is_renting": "OUI", "is_returning": "OUI", "duedate": "2024-03-18T01:36:45+00:00", "coordonnees_geo": {"lon": 2.4186685681343083, "lat": 48.854898095789295}, "nom_arrondissement_communes": "Montreuil", "code_insee_commune": null}, {"stationcode": "9116", "name": "Victoire - Chauss\u00e9e d'Antin", "is_installed": "OUI", "capacity": 24, "numdocksavailable": 20, "numbikesavailable": 1, "mechanical": 0, "ebike": 1, "is_renting": "OUI", "is_returning": "OUI", "duedate": "2024-03-18T01:35:03+00:00", "coordonnees_geo": {"lon": 2.3316738009452824, "lat": 48.875065791004396}, "nom_arrondissement_communes": "Paris", "code_insee_commune": null}, {"stationcode": "21008", "name": "Victor Hugo - Galli\u00e9ni", "is_installed": "OUI", "capacity": 34, "numdocksavailable": 4, "numbikesavailable": 30, "mechanical": 16, "ebike": 14, "is_renting": "OUI", "is_returning": "OUI", "duedate": "2024-03-18T01:37:27+00:00", "coordonnees_geo": {"lon": 2.2460845112800603, "lat": 48.83802015441127}, "nom_arrondissement_communes": "Boulogne-Billancourt", "code_insee_commune": null}, {"stationcode": "11039", "name": "Richard Lenoir - Jean-Pierre Timbaud", "is_installed": "OUI", "capacity": 36, "numdocksavailable": 12, "numbikesavailable": 24, "mechanical": 23, "ebike": 1, "is_renting": "OUI", "is_returning": "OUI", "duedate": "2024-03-18T01:37:08+00:00", "coordonnees_geo": {"lon": 2.3693370749669, "lat": 48.865804276686}, "nom_arrondissement_communes": "Paris", "code_insee_commune": null}, {"stationcode": "16008", "name": "Galil\u00e9e - Kl\u00e9ber", "is_installed": "OUI", "capacity": 32, "numdocksavailable": 28, "numbikesavailable": 3, "mechanical": 1, "ebike": 2, "is_renting": "OUI", "is_returning": "OUI", "duedate": "2024-03-18T01:35:54+00:00", "coordonnees_geo": {"lon": 2.290781380114821, "lat": 48.86741186571367}, "nom_arrondissement_communes": "Paris", "code_insee_commune": null}, {"stationcode": "41601", "name": "G\u00e9n\u00e9ral De Gaulle - Alouette", "is_installed": "OUI", "capacity": 26, "numdocksavailable": 4, "numbikesavailable": 19, "mechanical": 6, "ebike": 13, "is_renting": "OUI", "is_returning": "OUI", "duedate": "2024-03-18T01:38:30+00:00", "coordonnees_geo": {"lon": 2.4175664, "lat": 48.839109}, "nom_arrondissement_communes": "Saint-Mand\u00e9", "code_insee_commune": null}, {"stationcode": "10162", "name": "Alexandre Parodi - Quai de Valmy", "is_installed": "OUI", "capacity": 24, "numdocksavailable": 22, "numbikesavailable": 2, "mechanical": 0, "ebike": 2, "is_renting": "NON", "is_returning": "NON", "duedate": "2024-03-18T01:31:08+00:00", "coordonnees_geo": {"lon": 2.3665961623192, "lat": 48.879359419425}, "nom_arrondissement_communes": "Paris", "code_insee_commune": null}, {"stationcode": "15021", "name": "Joseph Liouville - Croix Nivert", "is_installed": "OUI", "capacity": 64, "numdocksavailable": 0, "numbikesavailable": 63, "mechanical": 51, "ebike": 12, "is_renting": "OUI", "is_returning": "OUI", "duedate": "2024-03-18T01:36:34+00:00", "coordonnees_geo": {"lon": 2.297508493065834, "lat": 48.844835471244416}, "nom_arrondissement_communes": "Paris", "code_insee_commune": null}, {"stationcode": "16038", "name": "Molitor - Chardon-Lagache", "is_installed": "OUI", "capacity": 34, "numdocksavailable": 26, "numbikesavailable": 8, "mechanical": 4, "ebike": 4, "is_renting": "OUI", "is_returning": "OUI", "duedate": "2024-03-18T01:35:22+00:00", "coordonnees_geo": {"lon": 2.2656840831041336, "lat": 48.84520880183234}, "nom_arrondissement_communes": "Paris", "code_insee_commune": null}]}