{"total_count": 1466, "results": [{"stationcode": "16107", "name": "Benjamin Godard - Victor Hugo", "is_installed": "OUI", "capacity": 35, "numdocksavailable": 31, "numbikesavailable": 4, "mechanical": 2, "ebike": 2, "is_renting": "OUI", "is_returning": "OUI", "duedate": "2024-05-15T13:50:14+00:00", "coordonnees_geo": {"lon": 2.275725, "lat": 48.865983}, "nom_arrondissement_communes": "Paris", "code_insee_commune": null}, {"stationcode": "31104", "name": "Mairie de Rosny-sous-Bois", "is_installed": "OUI", "capacity": 30, "numdocksavailable": 9, "numbikesavailable": 19, "mechanical": 2, "ebike": 17, "is_renting": "OUI", "is_returning": "OUI", "duedate": "2024-05-15T13:51:37+00:00", "coordonnees_geo": {"lon": 2.4865807592869, "lat": 48.871256519012}, "nom_arrondissement_communes": "Rosny-sous-Bois", "code_insee_commune": null}, {"stationcode": "44015", "name": "Rouget de L'isle - Watteau", "is_installed": "OUI", "capacity": 20, "numdocksavailable": 20, "numbikesavailable": 0, "mechanical": 0, "ebike": 0, "is_renting": "OUI", "is_returning": "OUI", "duedate": "2024-05-15T13:45:04+00:00", "coordonnees_geo": {"lon": 2.3963020229163, "lat": 48.778192750803}, "nom_arrondissement_communes": "Vitry-sur-Seine", "code_insee_commune": null}, {"stationcode": "32017", "name": "Basilique", "is_installed": "OUI", "capacity": 22, "numdocksavailable": 6, "numbikesavailable": 12, "mechanical": 10, "ebike": 2, "is_renting": "OUI", "is_returning": "OUI", "duedate": "2024-05-15T13:51:04+00:00", "coordonnees_geo": {"lon": 2.3588666820200914, "lat": 48.93626891059109}, "nom_arrondissement_communes": "Saint-Denis", "code_insee_commune": null}, {"stationcode": "11104", "name": "Charonne - Robert et Sonia Delaunay", "is_installed": "OUI", "capacity": 20, "numdocksavailable": 20, "numbikesavailable": 0, "mechanical": 0, "ebike": 0, "is_renting": "OUI", "is_returning": "OUI", "duedate": "2024-05-15T13:51:43+00:00", "coordonnees_geo": {"lon": 2.3925706744194, "lat": 48.855907555969}, "nom_arrondissement_communes": "Paris", "code_insee_commune": null}, {"stationcode": "13007", "name": "Le Brun - Gobelins", "is_installed": "OUI", "capacity": 48, "numdocksavailable": 41, "numbikesavailable": 7, "mechanical": 5, "ebike": 2, "is_renting": "OUI", "is_returning": "OUI", "duedate": "2024-05-15T13:47:24+00:00", "coordonnees_geo": {"lon": 2.3534681351338, "lat": 48.835092787824}, "nom_arrondissement_communes": "Paris", "code_insee_commune": null}, {"stationcode": "6003", "name": "Saint-Sulpice", "is_installed": "OUI", "capacity": 21, "numdocksavailable": 14, "numbikesavailable": 7, "mechanical": 6, "ebike": 1, "is_renting": "OUI", "is_returning": "OUI", "duedate": "2024-05-15T13:48:45+00:00", "coordonnees_geo": {"lon": 2.3308077827095985, "lat": 48.85165383178419}, "nom_arrondissement_communes": "Paris", "code_insee_commune": null}, {"stationcode": "5110", "name": "Lac\u00e9p\u00e8de - Monge", "is_installed": "OUI", "capacity": 23, "numdocksavailable": 13, "numbikesavailable": 10, "mechanical": 0, "ebike": 10, "is_renting": "OUI", "is_returning": "OUI", "duedate": "2024-05-15T13:48:53+00:00", "coordonnees_geo": {"lon": 2.3519663885235786, "lat": 48.84389286531899}, "nom_arrondissement_communes": "Paris", "code_insee_commune": null}, {"stationcode": "6108", "name": "Saint-Romain - Cherche-Midi", "is_installed": "OUI", "capacity": 17, "numdocksavailable": 7, "numbikesavailable": 10, "mechanical": 8, "ebike": 2, "is_renting": "OUI", "is_returning": "OUI", "duedate": "2024-05-15T13:50:58+00:00", "coordonnees_geo": {"lon": 2.321374788880348, "lat": 48.84708159081946}, "nom_arrondissement_communes": "Paris", "code_insee_commune": null}, {"stationcode": "33006", "name": "Andr\u00e9 Karman - R\u00e9publique", "is_installed": "OUI", "capacity": 31, "numdocksavailable": 22, "numbikesavailable": 9, "mechanical": 4, "ebike": 5, "is_renting": "OUI", "is_returning": "OUI", "duedate": "2024-05-15T13:43:00+00:00", "coordonnees_geo": {"lon": 2.3851355910301213, "lat": 48.91039875761846}, "nom_arrondissement_communes": "Aubervilliers", "code_insee_commune": null}, {"stationcode": "6021", "name": "Beaux-Arts - Bonaparte", "is_installed": "OUI", "capacity": 20, "numdocksavailable": 6, "numbikesavailable": 14, "mechanical": 11, "ebike": 3, "is_renting": "OUI", "is_returning": "OUI", "duedate": "2024-05-15T13:51:05+00:00", "coordonnees_geo": {"lon": 2.334851883351803, "lat": 48.856451985395786}, "nom_arrondissement_communes": "Paris", "code_insee_commune": null}, {"stationcode": "21010", "name": "Silly - Galli\u00e9ni", "is_installed": "OUI", "capacity": 25, "numdocksavailable": 18, "numbikesavailable": 7, "mechanical": 3, "ebike": 4, "is_renting": "OUI", "is_returning": "OUI", "duedate": "2024-05-15T13:48:24+00:00", "coordonnees_geo": {"lon": 2.2325500845909, "lat": 48.835583838706}, "nom_arrondissement_communes": "Boulogne-Billancourt", "code_insee_commune": null}, {"stationcode": "30002", "name": "Jean Rostand - Paul Vaillant Couturier", "is_installed": "OUI", "capacity": 40, "numdocksavailable": 24, "numbikesavailable": 15, "mechanical": 3, "ebike": 12, "is_renting": "OUI", "is_returning": "OUI", "duedate": "2024-05-15T13:48:38+00:00", "coordonnees_geo": {"lon": 2.4530601033354, "lat": 48.908168131015}, "nom_arrondissement_communes": "Bobigny", "code_insee_commune": null}, {"stationcode": "15202", "name": "Bracion - P\u00e9riph\u00e9rique", "is_installed": "OUI", "capacity": 30, "numdocksavailable": 23, "numbikesavailable": 7, "mechanical": 0, "ebike": 7, "is_renting": "OUI", "is_returning": "OUI", "duedate": "2024-05-15T13:49:30+00:00", "coordonnees_geo": {"lon": 2.3004549373748, "lat": 48.826103771275}, "nom_arrondissement_communes": "Paris", "code_insee_commune": null}, {"stationcode": "7003", "name": "Square Boucicaut", "is_installed": "OUI", "capacity": 60, "numdocksavailable": 19, "numbikesavailable": 39, "mechanical": 36, "ebike": 3, "is_renting": "OUI", "is_returning": "OUI", "duedate": "2024-05-15T13:51:34+00:00", "coordonnees_geo": {"lon": 2.325061820447445, "lat": 48.851296433665276}, "nom_arrondissement_communes": "Paris", "code_insee_commune": null}, {"stationcode": "17026", "name": "Jouffroy d'Abbans - Wagram", "is_installed": "OUI", "capacity": 40, "numdocksavailable": 34, "numbikesavailable": 6, "mechanical": 2, "ebike": 4, "is_renting": "OUI", "is_returning": "OUI", "duedate": "2024-05-15T13:50:36+00:00", "coordonnees_geo": {"lon": 2.301132157445, "lat": 48.881973298352}, "nom_arrondissement_communes": "Paris", "code_insee_commune": null}, {"stationcode": "11025", "name": "Froment - Br\u00e9guet", "is_installed": "OUI", "capacity": 43, "numdocksavailable": 15, "numbikesavailable": 27, "mechanical": 23, "ebike": 4, "is_renting": "OUI", "is_returning": "OUI", "duedate": "2024-05-15T13:50:07+00:00", "coordonnees_geo": {"lon": 2.37289470306807, "lat": 48.8570414504784}, "nom_arrondissement_communes": "Paris", "code_insee_commune": null}, {"stationcode": "8050", "name": "Bo\u00e9tie - Ponthieu", "is_installed": "OUI", "capacity": 45, "numdocksavailable": 3, "numbikesavailable": 42, "mechanical": 12, "ebike": 30, "is_renting": "OUI", "is_returning": "OUI", "duedate": "2024-05-15T13:50:55+00:00", "coordonnees_geo": {"lon": 2.3076787590981, "lat": 48.871417284355}, "nom_arrondissement_communes": "Paris", "code_insee_commune": null}, {"stationcode": "13101", "name": "Croulebarde - Corvisart", "is_installed": "OUI", "capacity": 34, "numdocksavailable": 22, "numbikesavailable": 12, "mechanical": 12, "ebike": 0, "is_renting": "OUI", "is_returning": "OUI", "duedate": "2024-05-15T13:50:31+00:00", "coordonnees_geo": {"lon": 2.3481646925210953, "lat": 48.830981659316855}, "nom_arrondissement_communes": "Paris", "code_insee_commune": null}, {"stationcode": "17025", "name": "Chazelles - Courcelles", "is_installed": "OUI", "capacity": 35, "numdocksavailable": 21, "numbikesavailable": 14, "mechanical": 2, "ebike": 12, "is_renting": "OUI", "is_returning": "OUI", "duedate": "2024-05-15T13:50:09+00:00", "coordonnees_geo": {"lon": 2.3034455627202988, "lat": 48.879406604954}, "nom_arrondissement_communes": "Paris", "code_insee_commune": null}, {"stationcode": "21326", "name": "Moulin de Pierre - Abb\u00e9 Gr\u00e9goire", "is_installed": "OUI", "capacity": 20, "numdocksavailable": 14, "numbikesavailable": 4, "mechanical": 0, "ebike": 4, "is_renting": "OUI", "is_returning": "OUI", "duedate": "2024-05-15T13:42:56+00:00", "coordonnees_geo": {"lon": 2.2754641655975, "lat": 48.822036188382}, "nom_arrondissement_communes": "Issy-les-Moulineaux", "code_insee_commune": null}, {"stationcode": "20143", "name": "Ramponeau - Belleville", "is_installed": "OUI", "capacity": 44, "numdocksavailable": 38, "numbikesavailable": 5, "mechanical": 0, "ebike": 5, "is_renting": "OUI", "is_returning": "OUI", "duedate": "2024-05-15T13:48:04+00:00", "coordonnees_geo": {"lon": 2.379056852114, "lat": 48.871031137596}, "nom_arrondissement_communes": "Paris", "code_insee_commune": null}, {"stationcode": "92002", "name": "Th\u00e9\u00e2tre des Amandiers - Palais des sports", "is_installed": "OUI", "capacity": 23, "numdocksavailable": 9, "numbikesavailable": 13, "mechanical": 1, "ebike": 12, "is_renting": "OUI", "is_returning": "OUI", "duedate": "2024-05-15T13:49:33+00:00", "coordonnees_geo": {"lon": 2.2136941552162, "lat": 48.892648526839}, "nom_arrondissement_communes": "Nanterre", "code_insee_commune": null}, {"stationcode": "17048", "name": "De Toqueville - Terrasse", "is_installed": "OUI", "capacity": 30, "numdocksavailable": 26, "numbikesavailable": 4, "mechanical": 1, "ebike": 3, "is_renting": "OUI", "is_returning": "OUI", "duedate": "2024-05-15T13:51:26+00:00", "coordonnees_geo": {"lon": 2.314002, "lat": 48.882428}, "nom_arrondissement_communes": "Paris", "code_insee_commune": null}, {"stationcode": "10013", "name": "Alibert - Jemmapes", "is_installed": "OUI", "capacity": 60, "numdocksavailable": 48, "numbikesavailable": 9, "mechanical": 5, "ebike": 4, "is_renting": "OUI", "is_returning": "OUI", "duedate": "2024-05-15T13:50:01+00:00", "coordonnees_geo": {"lon": 2.3661044619878, "lat": 48.871044051984}, "nom_arrondissement_communes": "Paris", "code_insee_commune": null}, {"stationcode": "2017", "name": "Caire - Dussoubs", "is_installed": "OUI", "capacity": 40, "numdocksavailable": 30, "numbikesavailable": 10, "mechanical": 8, "ebike": 2, "is_renting": "OUI", "is_returning": "OUI", "duedate": "2024-05-15T13:48:18+00:00", "coordonnees_geo": {"lon": 2.349364310503006, "lat": 48.86785342111862}, "nom_arrondissement_communes": "Paris", "code_insee_commune": null}, {"stationcode": "8048", "name": "Marceau - Chaillot", "is_installed": "OUI", "capacity": 21, "numdocksavailable": 14, "numbikesavailable": 7, "mechanical": 5, "ebike": 2, "is_renting": "OUI", "is_returning": "OUI", "duedate": "2024-05-15T13:48:32+00:00", "coordonnees_geo": {"lon": 2.2986030816809, "lat": 48.868834023334}, "nom_arrondissement_communes": "Paris", "code_insee_commune": null}, {"stationcode": "13118", "name": "Regnault - Patay", "is_installed": "OUI", "capacity": 63, "numdocksavailable": 2, "numbikesavailable": 61, "mechanical": 57, "ebike": 4, "is_renting": "OUI", "is_returning": "OUI", "duedate": "2024-05-15T13:50:57+00:00", "coordonnees_geo": {"lon": 2.377065159380436, "lat": 48.82435782216384}, "nom_arrondissement_communes": "Paris", "code_insee_commune": null}, {"stationcode": "15112", "name": "Vig\u00e9e-Lebrun - Anselme Payen", "is_installed": "OUI", "capacity": 24, "numdocksavailable": 21, "numbikesavailable": 3, "mechanical": 0, "ebike": 3, "is_renting": "OUI", "is_returning": "OUI", "duedate": "2024-05-15T13:45:29+00:00", "coordonnees_geo": {"lon": 2.3110422492027287, "lat": 48.838683941628375}, "nom_arrondissement_communes": "Paris", "code_insee_commune": null}, {"stationcode": "18111", "name": "F\u00e9lix Ziem - Armand Gauthier", "is_installed": "OUI", "capacity": 25, "numdocksavailable": 18, "numbikesavailable": 6, "mechanical": 0, "ebike": 6, "is_renting": "OUI", "is_returning": "OUI", "duedate": "2024-05-15T13:49:55+00:00", "coordonnees_geo": {"lon": 2.333393658804396, "lat": 48.88949630486821}, "nom_arrondissement_communes": "Paris", "code_insee_commune": null}, {"stationcode": "9002", "name": "Abbeville - Faubourg Poissonni\u00e8re", "is_installed": "OUI", "capacity": 14, "numdocksavailable": 10, "numbikesavailable": 1, "mechanical": 1, "ebike": 0, "is_renting": "OUI", "is_returning": "OUI", "duedate": "2024-05-15T13:50:59+00:00", "coordonnees_geo": {"lon": 2.349147, "lat": 48.879223}, "nom_arrondissement_communes": "Paris", "code_insee_commune": null}, {"stationcode": "16110", "name": "Octave Feuillet - Alb\u00e9ric Magnard", "is_installed": "OUI", "capacity": 21, "numdocksavailable": 18, "numbikesavailable": 3, "mechanical": 1, "ebike": 2, "is_renting": "OUI", "is_returning": "OUI", "duedate": "2024-05-15T13:50:37+00:00", "coordonnees_geo": {"lon": 2.2730283066630363, "lat": 48.86106902949534}, "nom_arrondissement_communes": "Paris", "code_insee_commune": null}, {"stationcode": "14002", "name": "Edgar Quinet - Raspail", "is_installed": "OUI", "capacity": 46, "numdocksavailable": 42, "numbikesavailable": 3, "mechanical": 1, "ebike": 2, "is_renting": "OUI", "is_returning": "OUI", "duedate": "2024-05-15T13:45:35+00:00", "coordonnees_geo": {"lon": 2.32971478253603, "lat": 48.83940266673835}, "nom_arrondissement_communes": "Paris", "code_insee_commune": null}, {"stationcode": "8053", "name": "Place Georges Guillaumin", "is_installed": "OUI", "capacity": 29, "numdocksavailable": 13, "numbikesavailable": 16, "mechanical": 0, "ebike": 16, "is_renting": "OUI", "is_returning": "OUI", "duedate": "2024-05-15T13:50:32+00:00", "coordonnees_geo": {"lon": 2.301771435325988, "lat": 48.874750203956566}, "nom_arrondissement_communes": "Paris", "code_insee_commune": null}, {"stationcode": "17032", "name": "Jean Oestreicher - Porte de Champerret", "is_installed": "OUI", "capacity": 21, "numdocksavailable": 19, "numbikesavailable": 1, "mechanical": 1, "ebike": 0, "is_renting": "OUI", "is_returning": "OUI", "duedate": "2024-05-15T13:51:28+00:00", "coordonnees_geo": {"lon": 2.288640439510346, "lat": 48.88655580065981}, "nom_arrondissement_communes": "Paris", "code_insee_commune": null}, {"stationcode": "10115", "name": "Granges aux Belles", "is_installed": "OUI", "capacity": 27, "numdocksavailable": 22, "numbikesavailable": 3, "mechanical": 1, "ebike": 2, "is_renting": "OUI", "is_returning": "OUI", "duedate": "2024-05-15T13:49:24+00:00", "coordonnees_geo": {"lon": 2.3680844979417, "lat": 48.8761373390584}, "nom_arrondissement_communes": "Paris", "code_insee_commune": null}, {"stationcode": "5005", "name": "Gay Lussac - Saint-Jacques", "is_installed": "OUI", "capacity": 24, "numdocksavailable": 18, "numbikesavailable": 5, "mechanical": 1, "ebike": 4, "is_renting": "OUI", "is_returning": "OUI", "duedate": "2024-05-15T13:51:42+00:00", "coordonnees_geo": {"lon": 2.341923944866407, "lat": 48.844730256132095}, "nom_arrondissement_communes": "Paris", "code_insee_commune": null}, {"stationcode": "10161", "name": "Gare de l'Est - Faubourg-Saint-Martin", "is_installed": "OUI", "capacity": 32, "numdocksavailable": 30, "numbikesavailable": 2, "mechanical": 0, "ebike": 2, "is_renting": "OUI", "is_returning": "OUI", "duedate": "2024-05-15T13:50:54+00:00", "coordonnees_geo": {"lon": 2.3594588041306, "lat": 48.875642647477}, "nom_arrondissement_communes": "Paris", "code_insee_commune": null}, {"stationcode": "41303", "name": "Gare de Nogent-le-Perreux", "is_installed": "OUI", "capacity": 32, "numdocksavailable": 11, "numbikesavailable": 19, "mechanical": 17, "ebike": 2, "is_renting": "OUI", "is_returning": "OUI", "duedate": "2024-05-15T13:50:53+00:00", "coordonnees_geo": {"lon": 2.493693307042122, "lat": 48.83842553348809}, "nom_arrondissement_communes": "Nogent-sur-Marne", "code_insee_commune": null}, {"stationcode": "12031", "name": "Gabriel Lam\u00e9", "is_installed": "OUI", "capacity": 36, "numdocksavailable": 2, "numbikesavailable": 34, "mechanical": 33, "ebike": 1, "is_renting": "OUI", "is_returning": "OUI", "duedate": "2024-05-15T13:51:24+00:00", "coordonnees_geo": {"lon": 2.385534569621086, "lat": 48.8351212784276}, "nom_arrondissement_communes": "Paris", "code_insee_commune": null}, {"stationcode": "9106", "name": "Boudreau - Auber", "is_installed": "OUI", "capacity": 14, "numdocksavailable": 10, "numbikesavailable": 4, "mechanical": 3, "ebike": 1, "is_renting": "OUI", "is_returning": "OUI", "duedate": "2024-05-15T13:46:53+00:00", "coordonnees_geo": {"lon": 2.329423, "lat": 48.87219}, "nom_arrondissement_communes": "Paris", "code_insee_commune": null}, {"stationcode": "21323", "name": "Charlot - Stade Gabriel Voisin", "is_installed": "OUI", "capacity": 31, "numdocksavailable": 8, "numbikesavailable": 23, "mechanical": 15, "ebike": 8, "is_renting": "OUI", "is_returning": "OUI", "duedate": "2024-05-15T13:51:03+00:00", "coordonnees_geo": {"lon": 2.268122527474, "lat": 48.827228120536}, "nom_arrondissement_communes": "Issy-les-Moulineaux", "code_insee_commune": null}, {"stationcode": "17040", "name": "Pereire - Ternes", "is_installed": "OUI", "capacity": 48, "numdocksavailable": 46, "numbikesavailable": 1, "mechanical": 1, "ebike": 0, "is_renting": "OUI", "is_returning": "OUI", "duedate": "2024-05-15T13:50:40+00:00", "coordonnees_geo": {"lon": 2.288012132048607, "lat": 48.87973954830735}, "nom_arrondissement_communes": "Paris", "code_insee_commune": null}, {"stationcode": "9038", "name": "Douai - Bruxelles", "is_installed": "OUI", "capacity": 27, "numdocksavailable": 26, "numbikesavailable": 1, "mechanical": 0, "ebike": 1, "is_renting": "OUI", "is_returning": "OUI", "duedate": "2024-05-15T13:43:33+00:00", "coordonnees_geo": {"lon": 2.3308449949028507, "lat": 48.88320784122797}, "nom_arrondissement_communes": "Paris", "code_insee_commune": null}, {"stationcode": "1001", "name": "Quai de l'Horloge - Pont Neuf", "is_installed": "OUI", "capacity": 17, "numdocksavailable": 1, "numbikesavailable": 15, "mechanical": 9, "ebike": 6, "is_renting": "OUI", "is_returning": "OUI", "duedate": "2024-05-15T13:50:50+00:00", "coordonnees_geo": {"lon": 2.3417982839439, "lat": 48.857058739111}, "nom_arrondissement_communes": "Paris", "code_insee_commune": null}, {"stationcode": "6001", "name": "Institut de France", "is_installed": "OUI", "capacity": 17, "numdocksavailable": 3, "numbikesavailable": 14, "mechanical": 9, "ebike": 5, "is_renting": "OUI", "is_returning": "OUI", "duedate": "2024-05-15T13:50:53+00:00", "coordonnees_geo": {"lon": 2.3358313530377, "lat": 48.857615678565}, "nom_arrondissement_communes": "Paris", "code_insee_commune": null}, {"stationcode": "19105", "name": "Ambroise Rendu - Porte Brunet", "is_installed": "OUI", "capacity": 17, "numdocksavailable": 16, "numbikesavailable": 1, "mechanical": 0, "ebike": 1, "is_renting": "OUI", "is_returning": "OUI", "duedate": "2024-05-15T13:43:57+00:00", "coordonnees_geo": {"lon": 2.395733, "lat": 48.883667}, "nom_arrondissement_communes": "Paris", "code_insee_commune": null}, {"stationcode": "22409", "name": "Henri Barbusse - Stalingrad", "is_installed": "OUI", "capacity": 16, "numdocksavailable": 15, "numbikesavailable": 1, "mechanical": 0, "ebike": 1, "is_renting": "OUI", "is_returning": "OUI", "duedate": "2024-05-15T13:49:18+00:00", "coordonnees_geo": {"lon": 2.2872862592339516, "lat": 48.814183748660554}, "nom_arrondissement_communes": "Malakoff", "code_insee_commune": null}, {"stationcode": "19015", "name": "Thionville - Ourcq", "is_installed": "OUI", "capacity": 24, "numdocksavailable": 15, "numbikesavailable": 8, "mechanical": 2, "ebike": 6, "is_renting": "OUI", "is_returning": "OUI", "duedate": "2024-05-15T13:51:31+00:00", "coordonnees_geo": {"lon": 2.3833653330802917, "lat": 48.88917613743794}, "nom_arrondissement_communes": "Paris", "code_insee_commune": null}, {"stationcode": "9022", "name": "Rossini - Laffitte", "is_installed": "OUI", "capacity": 33, "numdocksavailable": 4, "numbikesavailable": 29, "mechanical": 22, "ebike": 7, "is_renting": "OUI", "is_returning": "OUI", "duedate": "2024-05-15T13:51:45+00:00", "coordonnees_geo": {"lon": 2.337980867701675, "lat": 48.87334627510507}, "nom_arrondissement_communes": "Paris", "code_insee_commune": null}, {"stationcode": "26003", "name": "Argenteuil - Voltaire", "is_installed": "OUI", "capacity": 16, "numdocksavailable": 13, "numbikesavailable": 2, "mechanical": 2, "ebike": 0, "is_renting": "OUI", "is_returning": "OUI", "duedate": "2024-05-15T13:44:28+00:00", "coordonnees_geo": {"lon": 2.2814112156629562, "lat": 48.91864865955558}, "nom_arrondissement_communes": "Asni\u00e8res-sur-Seine", "code_insee_commune": null}, {"stationcode": "8036", "name": "Lisbonne - Monceau", "is_installed": "OUI", "capacity": 33, "numdocksavailable": 9, "numbikesavailable": 24, "mechanical": 14, "ebike": 10, "is_renting": "OUI", "is_returning": "OUI", "duedate": "2024-05-15T13:50:03+00:00", "coordonnees_geo": {"lon": 2.309694221419506, "lat": 48.87745567681383}, "nom_arrondissement_communes": "Paris", "code_insee_commune": null}, {"stationcode": "12151", "name": "Gare de Lyon - Place Louis Armand", "is_installed": "OUI", "capacity": 60, "numdocksavailable": 22, "numbikesavailable": 38, "mechanical": 31, "ebike": 7, "is_renting": "OUI", "is_returning": "OUI", "duedate": "2024-05-15T13:51:08+00:00", "coordonnees_geo": {"lon": 2.3726498446286, "lat": 48.845515089794}, "nom_arrondissement_communes": "Paris", "code_insee_commune": null}, {"stationcode": "9028", "name": "Moncey - Blanche", "is_installed": "OUI", "capacity": 17, "numdocksavailable": 14, "numbikesavailable": 2, "mechanical": 1, "ebike": 1, "is_renting": "OUI", "is_returning": "OUI", "duedate": "2024-05-15T13:50:55+00:00", "coordonnees_geo": {"lon": 2.3310810327529907, "lat": 48.88006587474148}, "nom_arrondissement_communes": "Paris", "code_insee_commune": null}, {"stationcode": "26002", "name": "Redoute - Les Courtilles", "is_installed": "OUI", "capacity": 40, "numdocksavailable": 6, "numbikesavailable": 31, "mechanical": 22, "ebike": 9, "is_renting": "OUI", "is_returning": "OUI", "duedate": "2024-05-15T13:51:14+00:00", "coordonnees_geo": {"lon": 2.2836696356535, "lat": 48.929867194519}, "nom_arrondissement_communes": "Asni\u00e8res-sur-Seine", "code_insee_commune": null}, {"stationcode": "17043", "name": "Belidor - Gouvion-Saint-Cyr", "is_installed": "OUI", "capacity": 39, "numdocksavailable": 32, "numbikesavailable": 7, "mechanical": 3, "ebike": 4, "is_renting": "OUI", "is_returning": "OUI", "duedate": "2024-05-15T13:51:20+00:00", "coordonnees_geo": {"lon": 2.2854680567979813, "lat": 48.88022154052015}, "nom_arrondissement_communes": "Paris", "code_insee_commune": null}, {"stationcode": "11023", "name": "Saint-Maur - Roquette", "is_installed": "OUI", "capacity": 46, "numdocksavailable": 32, "numbikesavailable": 12, "mechanical": 10, "ebike": 2, "is_renting": "OUI", "is_returning": "OUI", "duedate": "2024-05-15T13:51:33+00:00", "coordonnees_geo": {"lon": 2.383553994571467, "lat": 48.858688774062955}, "nom_arrondissement_communes": "Paris", "code_insee_commune": null}, {"stationcode": "45003", "name": "11 Novembre 1918 - 8 Mai 1945", "is_installed": "OUI", "capacity": 36, "numdocksavailable": 26, "numbikesavailable": 10, "mechanical": 3, "ebike": 7, "is_renting": "OUI", "is_returning": "OUI", "duedate": "2024-05-15T13:44:35+00:00", "coordonnees_geo": {"lon": 2.5382421165704727, "lat": 48.80889533774377}, "nom_arrondissement_communes": "Champigny-sur-Marne", "code_insee_commune": null}, {"stationcode": "11002", "name": "Roquette - Thi\u00e9r\u00e9", "is_installed": "OUI", "capacity": 23, "numdocksavailable": 2, "numbikesavailable": 19, "mechanical": 18, "ebike": 1, "is_renting": "OUI", "is_returning": "OUI", "duedate": "2024-05-15T13:46:36+00:00", "coordonnees_geo": {"lon": 2.3733686318721463, "lat": 48.85507930579506}, "nom_arrondissement_communes": "Paris", "code_insee_commune": null}, {"stationcode": "19043", "name": "Delphine Seyrig - G\u00e9n\u00e9ral Leclerc", "is_installed": "OUI", "capacity": 53, "numdocksavailable": 3, "numbikesavailable": 48, "mechanical": 47, "ebike": 1, "is_renting": "OUI", "is_returning": "OUI", "duedate": "2024-05-15T13:50:40+00:00", "coordonnees_geo": {"lon": 2.39790290594101, "lat": 48.893923963057865}, "nom_arrondissement_communes": "Pantin", "code_insee_commune": null}, {"stationcode": "43401", "name": "Gare RER - Canadiens", "is_installed": "OUI", "capacity": 45, "numdocksavailable": 23, "numbikesavailable": 22, "mechanical": 15, "ebike": 7, "is_renting": "OUI", "is_returning": "OUI", "duedate": "2024-05-15T13:51:41+00:00", "coordonnees_geo": {"lon": 2.464176752459464, "lat": 48.81995307955795}, "nom_arrondissement_communes": "Joinville-le-Pont", "code_insee_commune": null}, {"stationcode": "17030", "name": "Pereire - Rennequin", "is_installed": "OUI", "capacity": 23, "numdocksavailable": 14, "numbikesavailable": 5, "mechanical": 1, "ebike": 4, "is_renting": "OUI", "is_returning": "OUI", "duedate": "2024-05-15T13:50:04+00:00", "coordonnees_geo": {"lon": 2.2952447086572647, "lat": 48.88364782887555}, "nom_arrondissement_communes": "Paris", "code_insee_commune": null}, {"stationcode": "6006", "name": "Notre-Dame-des-Champs - Stanislas", "is_installed": "OUI", "capacity": 19, "numdocksavailable": 18, "numbikesavailable": 0, "mechanical": 0, "ebike": 0, "is_renting": "OUI", "is_returning": "OUI", "duedate": "2024-05-15T13:51:22+00:00", "coordonnees_geo": {"lon": 2.329337755887181, "lat": 48.84479928858768}, "nom_arrondissement_communes": "Paris", "code_insee_commune": null}, {"stationcode": "12128", "name": "Pyramide - Ecole du Breuil", "is_installed": "OUI", "capacity": 34, "numdocksavailable": 27, "numbikesavailable": 7, "mechanical": 5, "ebike": 2, "is_renting": "OUI", "is_returning": "OUI", "duedate": "2024-05-15T13:48:30+00:00", "coordonnees_geo": {"lon": 2.4586871266365056, "lat": 48.82237977153955}, "nom_arrondissement_communes": "Paris", "code_insee_commune": null}, {"stationcode": "8010", "name": "Li\u00e8ge - Moscou", "is_installed": "OUI", "capacity": 17, "numdocksavailable": 11, "numbikesavailable": 6, "mechanical": 2, "ebike": 4, "is_renting": "OUI", "is_returning": "OUI", "duedate": "2024-05-15T13:50:05+00:00", "coordonnees_geo": {"lon": 2.3264628, "lat": 48.8795431}, "nom_arrondissement_communes": "Paris", "code_insee_commune": null}, {"stationcode": "31022", "name": "Mairie de Montreuil", "is_installed": "OUI", "capacity": 52, "numdocksavailable": 49, "numbikesavailable": 3, "mechanical": 1, "ebike": 2, "is_renting": "OUI", "is_returning": "OUI", "duedate": "2024-05-15T13:50:54+00:00", "coordonnees_geo": {"lon": 2.440614402294159, "lat": 48.86131452758348}, "nom_arrondissement_communes": "Montreuil", "code_insee_commune": null}, {"stationcode": "46002", "name": "Rouget de Lisle", "is_installed": "OUI", "capacity": 35, "numdocksavailable": 8, "numbikesavailable": 26, "mechanical": 19, "ebike": 7, "is_renting": "OUI", "is_returning": "OUI", "duedate": "2024-05-15T13:48:10+00:00", "coordonnees_geo": {"lon": 2.4071189761161804, "lat": 48.764615483395254}, "nom_arrondissement_communes": "Choisy-le-Roi", "code_insee_commune": null}, {"stationcode": "31009", "name": "Place Du G\u00e9n\u00e9ral De Gaulle", "is_installed": "OUI", "capacity": 26, "numdocksavailable": 23, "numbikesavailable": 3, "mechanical": 0, "ebike": 3, "is_renting": "OUI", "is_returning": "OUI", "duedate": "2024-05-15T13:48:56+00:00", "coordonnees_geo": {"lon": 2.4329931, "lat": 48.8687591}, "nom_arrondissement_communes": "Montreuil", "code_insee_commune": null}, {"stationcode": "41302", "name": "Charles de Gaulle - Beaut\u00e9", "is_installed": "OUI", "capacity": 49, "numdocksavailable": 48, "numbikesavailable": 1, "mechanical": 0, "ebike": 1, "is_renting": "OUI", "is_returning": "OUI", "duedate": "2024-05-15T13:48:07+00:00", "coordonnees_geo": {"lon": 2.479562651149885, "lat": 48.83649602312711}, "nom_arrondissement_communes": "Nogent-sur-Marne", "code_insee_commune": null}, {"stationcode": "14020", "name": "Cimeti\u00e8re de Montrouge", "is_installed": "OUI", "capacity": 58, "numdocksavailable": 54, "numbikesavailable": 4, "mechanical": 1, "ebike": 3, "is_renting": "OUI", "is_returning": "OUI", "duedate": "2024-05-15T13:51:24+00:00", "coordonnees_geo": {"lon": 2.3215785772007, "lat": 48.821466904768}, "nom_arrondissement_communes": "Paris", "code_insee_commune": null}, {"stationcode": "33017", "name": "Anatole France - President Roosevelt", "is_installed": "OUI", "capacity": 29, "numdocksavailable": 15, "numbikesavailable": 13, "mechanical": 9, "ebike": 4, "is_renting": "OUI", "is_returning": "OUI", "duedate": "2024-05-15T13:48:21+00:00", "coordonnees_geo": {"lon": 2.3814103, "lat": 48.9155156}, "nom_arrondissement_communes": "Aubervilliers", "code_insee_commune": null}, {"stationcode": "20112", "name": "Jourdain - Place des Grandes Rigoles", "is_installed": "OUI", "capacity": 22, "numdocksavailable": 17, "numbikesavailable": 4, "mechanical": 0, "ebike": 4, "is_renting": "OUI", "is_returning": "OUI", "duedate": "2024-05-15T13:51:45+00:00", "coordonnees_geo": {"lon": 2.38959476351738, "lat": 48.87403113727167}, "nom_arrondissement_communes": "Paris", "code_insee_commune": null}, {"stationcode": "21212", "name": "Marne - Germain Dardan", "is_installed": "OUI", "capacity": 22, "numdocksavailable": 21, "numbikesavailable": 1, "mechanical": 0, "ebike": 1, "is_renting": "OUI", "is_returning": "OUI", "duedate": "2024-05-15T13:46:24+00:00", "coordonnees_geo": {"lon": 2.3035024699104, "lat": 48.81217465201}, "nom_arrondissement_communes": "Montrouge", "code_insee_commune": null}, {"stationcode": "44006", "name": "Concorde - Stalingrad", "is_installed": "OUI", "capacity": 35, "numdocksavailable": 27, "numbikesavailable": 6, "mechanical": 1, "ebike": 5, "is_renting": "OUI", "is_returning": "OUI", "duedate": "2024-05-15T13:48:10+00:00", "coordonnees_geo": {"lon": 2.3821302, "lat": 48.7985844}, "nom_arrondissement_communes": "Vitry-sur-Seine", "code_insee_commune": null}, {"stationcode": "19120", "name": "Carducci - Place Hannah Arendt", "is_installed": "OUI", "capacity": 27, "numdocksavailable": 26, "numbikesavailable": 0, "mechanical": 0, "ebike": 0, "is_renting": "OUI", "is_returning": "OUI", "duedate": "2024-05-15T13:51:43+00:00", "coordonnees_geo": {"lon": 2.3860743641853337, "lat": 48.877436681515796}, "nom_arrondissement_communes": "Paris", "code_insee_commune": null}, {"stationcode": "18003", "name": "Cimeti\u00e8re de Montmartre", "is_installed": "OUI", "capacity": 43, "numdocksavailable": 37, "numbikesavailable": 6, "mechanical": 0, "ebike": 6, "is_renting": "OUI", "is_returning": "OUI", "duedate": "2024-05-15T13:49:29+00:00", "coordonnees_geo": {"lon": 2.3328901827335, "lat": 48.886472466142}, "nom_arrondissement_communes": "Paris", "code_insee_commune": null}, {"stationcode": "51005", "name": "Yves Farges - Route d'Enghein", "is_installed": "NON", "capacity": 0, "numdocksavailable": 0, "numbikesavailable": 0, "mechanical": 0, "ebike": 0, "is_renting": "NON", "is_returning": "NON", "duedate": "2024-02-06T11:04:01+00:00", "coordonnees_geo": {"lon": 2.2834496977978, "lat": 48.95756799268}, "nom_arrondissement_communes": "Argenteuil", "code_insee_commune": null}, {"stationcode": "5004", "name": "Saint-Jacques - Val de Gr\u00e2ce", "is_installed": "OUI", "capacity": 19, "numdocksavailable": 15, "numbikesavailable": 4, "mechanical": 0, "ebike": 4, "is_renting": "OUI", "is_returning": "OUI", "duedate": "2024-05-15T13:47:33+00:00", "coordonnees_geo": {"lon": 2.3413893, "lat": 48.8417514}, "nom_arrondissement_communes": "Paris", "code_insee_commune": null}, {"stationcode": "19103", "name": "Manin - Carri\u00e8res d'Am\u00e9rique", "is_installed": "OUI", "capacity": 20, "numdocksavailable": 17, "numbikesavailable": 3, "mechanical": 2, "ebike": 1, "is_renting": "OUI", "is_returning": "OUI", "duedate": "2024-05-15T13:47:25+00:00", "coordonnees_geo": {"lon": 2.3919698596000676, "lat": 48.88467214209463}, "nom_arrondissement_communes": "Paris", "code_insee_commune": null}, {"stationcode": "12114", "name": "Victor Hugo - Jeanne Jugan", "is_installed": "OUI", "capacity": 28, "numdocksavailable": 26, "numbikesavailable": 1, "mechanical": 0, "ebike": 1, "is_renting": "OUI", "is_returning": "OUI", "duedate": "2024-05-15T13:50:59+00:00", "coordonnees_geo": {"lon": 2.415081394834419, "lat": 48.843949064031825}, "nom_arrondissement_communes": "Paris", "code_insee_commune": null}, {"stationcode": "41209", "name": "Cimeti\u00e8re de Fontenay-sous-Bois", "is_installed": "OUI", "capacity": 15, "numdocksavailable": 15, "numbikesavailable": 0, "mechanical": 0, "ebike": 0, "is_renting": "OUI", "is_returning": "OUI", "duedate": "2024-05-15T13:47:32+00:00", "coordonnees_geo": {"lon": 2.4787822365760808, "lat": 48.84706173362218}, "nom_arrondissement_communes": "Fontenay-sous-Bois", "code_insee_commune": null}, {"stationcode": "21312", "name": "Lucie Aubrac - Fort", "is_installed": "OUI", "capacity": 30, "numdocksavailable": 29, "numbikesavailable": 1, "mechanical": 0, "ebike": 1, "is_renting": "OUI", "is_returning": "OUI", "duedate": "2024-05-15T13:48:51+00:00", "coordonnees_geo": {"lon": 2.271184623241425, "lat": 48.818144834008976}, "nom_arrondissement_communes": "Issy-les-Moulineaux", "code_insee_commune": null}, {"stationcode": "8045", "name": "Place de la Reine Astrid", "is_installed": "OUI", "capacity": 58, "numdocksavailable": 13, "numbikesavailable": 45, "mechanical": 31, "ebike": 14, "is_renting": "OUI", "is_returning": "OUI", "duedate": "2024-05-15T13:51:38+00:00", "coordonnees_geo": {"lon": 2.3025491823859, "lat": 48.864920982538}, "nom_arrondissement_communes": "Paris", "code_insee_commune": null}, {"stationcode": "42014", "name": "Place Marcel Cachin", "is_installed": "OUI", "capacity": 32, "numdocksavailable": 11, "numbikesavailable": 20, "mechanical": 19, "ebike": 1, "is_renting": "OUI", "is_returning": "OUI", "duedate": "2024-05-15T13:51:32+00:00", "coordonnees_geo": {"lon": 2.39090770483017, "lat": 48.81411442356866}, "nom_arrondissement_communes": "Ivry-sur-Seine", "code_insee_commune": null}, {"stationcode": "15054", "name": "Lecourbe - Jean Maridor", "is_installed": "OUI", "capacity": 19, "numdocksavailable": 13, "numbikesavailable": 6, "mechanical": 6, "ebike": 0, "is_renting": "OUI", "is_returning": "OUI", "duedate": "2024-05-15T13:50:21+00:00", "coordonnees_geo": {"lon": 2.2877392172813416, "lat": 48.83796366147599}, "nom_arrondissement_communes": "Paris", "code_insee_commune": null}, {"stationcode": "5124", "name": "Erasme - Ulm", "is_installed": "OUI", "capacity": 24, "numdocksavailable": 16, "numbikesavailable": 8, "mechanical": 2, "ebike": 6, "is_renting": "OUI", "is_returning": "OUI", "duedate": "2024-05-15T13:50:20+00:00", "coordonnees_geo": {"lon": 2.3445946723222733, "lat": 48.84264375274712}, "nom_arrondissement_communes": "Paris", "code_insee_commune": null}, {"stationcode": "14106", "name": "Marc Sangnier - Porte de Vanves", "is_installed": "OUI", "capacity": 21, "numdocksavailable": 20, "numbikesavailable": 1, "mechanical": 0, "ebike": 1, "is_renting": "OUI", "is_returning": "OUI", "duedate": "2024-05-15T13:51:31+00:00", "coordonnees_geo": {"lon": 2.3107116669416428, "lat": 48.825218683556734}, "nom_arrondissement_communes": "Paris", "code_insee_commune": null}, {"stationcode": "22406", "name": "Guy M\u00f4quet - Etienne Dolet", "is_installed": "OUI", "capacity": 23, "numdocksavailable": 20, "numbikesavailable": 3, "mechanical": 1, "ebike": 2, "is_renting": "OUI", "is_returning": "OUI", "duedate": "2024-05-15T13:45:28+00:00", "coordonnees_geo": {"lon": 2.298078276995073, "lat": 48.81527009991819}, "nom_arrondissement_communes": "Malakoff", "code_insee_commune": null}, {"stationcode": "31102", "name": "Boissi\u00e8re - Etienne Dolet", "is_installed": "OUI", "capacity": 21, "numdocksavailable": 19, "numbikesavailable": 2, "mechanical": 0, "ebike": 2, "is_renting": "OUI", "is_returning": "OUI", "duedate": "2024-05-15T13:49:21+00:00", "coordonnees_geo": {"lon": 2.4677312, "lat": 48.876111}, "nom_arrondissement_communes": "Montreuil", "code_insee_commune": null}, {"stationcode": "2111", "name": "Chabanais - Petits Champs", "is_installed": "OUI", "capacity": 30, "numdocksavailable": 3, "numbikesavailable": 26, "mechanical": 12, "ebike": 14, "is_renting": "OUI", "is_returning": "OUI", "duedate": "2024-05-15T13:50:52+00:00", "coordonnees_geo": {"lon": 2.336716018617153, "lat": 48.86703740186721}, "nom_arrondissement_communes": "Paris", "code_insee_commune": null}, {"stationcode": "8054", "name": "Bertie Albrecht - Hoche", "is_installed": "OUI", "capacity": 32, "numdocksavailable": 18, "numbikesavailable": 14, "mechanical": 4, "ebike": 10, "is_renting": "OUI", "is_returning": "OUI", "duedate": "2024-05-15T13:49:59+00:00", "coordonnees_geo": {"lon": 2.301303138307601, "lat": 48.87614039826388}, "nom_arrondissement_communes": "Paris", "code_insee_commune": null}, {"stationcode": "21209", "name": "Moli\u00e8re - R\u00e9publique", "is_installed": "OUI", "capacity": 30, "numdocksavailable": 27, "numbikesavailable": 2, "mechanical": 1, "ebike": 1, "is_renting": "OUI", "is_returning": "OUI", "duedate": "2024-05-15T13:51:25+00:00", "coordonnees_geo": {"lon": 2.3145738624448158, "lat": 48.81111581390707}, "nom_arrondissement_communes": "Montrouge", "code_insee_commune": null}, {"stationcode": "35010", "name": "Hoche - Jean Lolive", "is_installed": "OUI", "capacity": 24, "numdocksavailable": 20, "numbikesavailable": 3, "mechanical": 2, "ebike": 1, "is_renting": "OUI", "is_returning": "OUI", "duedate": "2024-05-15T13:49:10+00:00", "coordonnees_geo": {"lon": 2.402843534946442, "lat": 48.89110239200789}, "nom_arrondissement_communes": "Pantin", "code_insee_commune": null}, {"stationcode": "10042", "name": "Enghien - Faubourg Poissonni\u00e8re", "is_installed": "OUI", "capacity": 33, "numdocksavailable": 6, "numbikesavailable": 26, "mechanical": 19, "ebike": 7, "is_renting": "OUI", "is_returning": "OUI", "duedate": "2024-05-15T13:51:17+00:00", "coordonnees_geo": {"lon": 2.3483952362828, "lat": 48.872420063053}, "nom_arrondissement_communes": "Paris", "code_insee_commune": null}, {"stationcode": "14124", "name": "David Weill - Parc Montsouris", "is_installed": "OUI", "capacity": 22, "numdocksavailable": 19, "numbikesavailable": 3, "mechanical": 0, "ebike": 3, "is_renting": "OUI", "is_returning": "OUI", "duedate": "2024-05-15T13:50:59+00:00", "coordonnees_geo": {"lon": 2.333725690841675, "lat": 48.821092374256104}, "nom_arrondissement_communes": "Paris", "code_insee_commune": null}, {"stationcode": "15110", "name": "Place Robert Guillemard", "is_installed": "OUI", "capacity": 24, "numdocksavailable": 2, "numbikesavailable": 22, "mechanical": 20, "ebike": 2, "is_renting": "OUI", "is_returning": "OUI", "duedate": "2024-05-15T13:51:18+00:00", "coordonnees_geo": {"lon": 2.2811267160086417, "lat": 48.836191728066666}, "nom_arrondissement_communes": "Paris", "code_insee_commune": null}, {"stationcode": "21006", "name": "Marcelin Berthelot", "is_installed": "OUI", "capacity": 27, "numdocksavailable": 20, "numbikesavailable": 4, "mechanical": 1, "ebike": 3, "is_renting": "OUI", "is_returning": "OUI", "duedate": "2024-05-15T13:51:32+00:00", "coordonnees_geo": {"lon": 2.233161628246308, "lat": 48.8415473058801}, "nom_arrondissement_communes": "Boulogne-Billancourt", "code_insee_commune": null}, {"stationcode": "20131", "name": "Repos - Cimeti\u00e8re du P\u00e8re Lachaise", "is_installed": "OUI", "capacity": 33, "numdocksavailable": 31, "numbikesavailable": 2, "mechanical": 1, "ebike": 1, "is_renting": "OUI", "is_returning": "OUI", "duedate": "2024-05-15T13:50:43+00:00", "coordonnees_geo": {"lon": 2.3896131366845, "lat": 48.859358523593}, "nom_arrondissement_communes": "Paris", "code_insee_commune": null}, {"stationcode": "6025", "name": "Assas - Rennes", "is_installed": "OUI", "capacity": 32, "numdocksavailable": 23, "numbikesavailable": 9, "mechanical": 9, "ebike": 0, "is_renting": "OUI", "is_returning": "OUI", "duedate": "2024-05-15T13:51:34+00:00", "coordonnees_geo": {"lon": 2.32851454623001, "lat": 48.8492084999386}, "nom_arrondissement_communes": "Paris", "code_insee_commune": null}, {"stationcode": "21015", "name": "Nationale - Place Jules Guesde", "is_installed": "OUI", "capacity": 23, "numdocksavailable": 12, "numbikesavailable": 10, "mechanical": 10, "ebike": 0, "is_renting": "OUI", "is_returning": "OUI", "duedate": "2024-05-15T13:50:49+00:00", "coordonnees_geo": {"lon": 2.2416052222251897, "lat": 48.82753962462998}, "nom_arrondissement_communes": "Boulogne-Billancourt", "code_insee_commune": null}]}