{"total_count": 1464, "results": [{"stationcode": "31104", "name": "Mairie de Rosny-sous-Bois", "is_installed": "OUI", "capacity": 30, "numdocksavailable": 4, "numbikesavailable": 24, "mechanical": 8, "ebike": 16, "is_renting": "OUI", "is_returning": "OUI", "duedate": "2024-03-02T04:19:22+00:00", "coordonnees_geo": {"lon": 2.4865807592869, "lat": 48.871256519012}, "nom_arrondissement_communes": "Rosny-sous-Bois", "code_insee_commune": null}, {"stationcode": "9020", "name": "Toudouze - Clauzel", "is_installed": "OUI", "capacity": 21, "numdocksavailable": 20, "numbikesavailable": 1, "mechanical": 0, "ebike": 1, "is_renting": "OUI", "is_returning": "OUI", "duedate": "2024-03-02T04:14:53+00:00", "coordonnees_geo": {"lon": 2.3373600840568547, "lat": 48.87929591733507}, "nom_arrondissement_communes": "Paris", "code_insee_commune": null}, {"stationcode": "12109", "name": "Mairie du 12\u00e8me", "is_installed": "OUI", "capacity": 30, "numdocksavailable": 1, "numbikesavailable": 28, "mechanical": 20, "ebike": 8, "is_renting": "OUI", "is_returning": "OUI", "duedate": "2024-03-02T04:20:03+00:00", "coordonnees_geo": {"lon": 2.3875549435616, "lat": 48.840855311763}, "nom_arrondissement_communes": "Paris", "code_insee_commune": null}, {"stationcode": "14111", "name": "Cassini - Denfert-Rochereau", "is_installed": "OUI", "capacity": 25, "numdocksavailable": 22, "numbikesavailable": 3, "mechanical": 2, "ebike": 1, "is_renting": "OUI", "is_returning": "OUI", "duedate": "2024-03-02T04:15:22+00:00", "coordonnees_geo": {"lon": 2.3360354080796, "lat": 48.837525839067}, "nom_arrondissement_communes": "Paris", "code_insee_commune": null}, {"stationcode": "8026", "name": "Messine - Place Du P\u00e9rou", "is_installed": "OUI", "capacity": 12, "numdocksavailable": 1, "numbikesavailable": 10, "mechanical": 7, "ebike": 3, "is_renting": "OUI", "is_returning": "OUI", "duedate": "2024-03-02T04:21:38+00:00", "coordonnees_geo": {"lon": 2.315508019010038, "lat": 48.875448033960744}, "nom_arrondissement_communes": "Paris", "code_insee_commune": null}, {"stationcode": "13007", "name": "Le Brun - Gobelins", "is_installed": "OUI", "capacity": 48, "numdocksavailable": 35, "numbikesavailable": 12, "mechanical": 7, "ebike": 5, "is_renting": "OUI", "is_returning": "OUI", "duedate": "2024-03-02T04:18:19+00:00", "coordonnees_geo": {"lon": 2.3534681351338, "lat": 48.835092787824}, "nom_arrondissement_communes": "Paris", "code_insee_commune": null}, {"stationcode": "5110", "name": "Lac\u00e9p\u00e8de - Monge", "is_installed": "OUI", "capacity": 23, "numdocksavailable": 23, "numbikesavailable": 0, "mechanical": 0, "ebike": 0, "is_renting": "OUI", "is_returning": "OUI", "duedate": "2024-03-02T04:18:19+00:00", "coordonnees_geo": {"lon": 2.3519663885235786, "lat": 48.84389286531899}, "nom_arrondissement_communes": "Paris", "code_insee_commune": null}, {"stationcode": "33006", "name": "Andr\u00e9 Karman - R\u00e9publique", "is_installed": "OUI", "capacity": 31, "numdocksavailable": 17, "numbikesavailable": 14, "mechanical": 5, "ebike": 9, "is_renting": "OUI", "is_returning": "OUI", "duedate": "2024-03-02T04:21:05+00:00", "coordonnees_geo": {"lon": 2.3851355910301213, "lat": 48.91039875761846}, "nom_arrondissement_communes": "Aubervilliers", "code_insee_commune": null}, {"stationcode": "6021", "name": "Beaux-Arts - Bonaparte", "is_installed": "OUI", "capacity": 20, "numdocksavailable": 16, "numbikesavailable": 2, "mechanical": 1, "ebike": 1, "is_renting": "OUI", "is_returning": "OUI", "duedate": "2024-03-02T04:16:25+00:00", "coordonnees_geo": {"lon": 2.334851883351803, "lat": 48.856451985395786}, "nom_arrondissement_communes": "Paris", "code_insee_commune": null}, {"stationcode": "25006", "name": "Place Nelson Mandela", "is_installed": "OUI", "capacity": 22, "numdocksavailable": 17, "numbikesavailable": 5, "mechanical": 1, "ebike": 4, "is_renting": "OUI", "is_returning": "OUI", "duedate": "2024-03-02T04:16:48+00:00", "coordonnees_geo": {"lon": 2.1961666225454, "lat": 48.862453313908}, "nom_arrondissement_communes": "Rueil-Malmaison", "code_insee_commune": null}, {"stationcode": "17038", "name": "Grande Arm\u00e9e - Brunel", "is_installed": "OUI", "capacity": 62, "numdocksavailable": 52, "numbikesavailable": 7, "mechanical": 4, "ebike": 3, "is_renting": "OUI", "is_returning": "OUI", "duedate": "2024-03-02T04:22:16+00:00", "coordonnees_geo": {"lon": 2.288124, "lat": 48.876116}, "nom_arrondissement_communes": "Paris", "code_insee_commune": null}, {"stationcode": "17041", "name": "Guersant - Gouvion-Saint-Cyr", "is_installed": "OUI", "capacity": 36, "numdocksavailable": 22, "numbikesavailable": 13, "mechanical": 5, "ebike": 8, "is_renting": "OUI", "is_returning": "OUI", "duedate": "2024-03-02T04:22:03+00:00", "coordonnees_geo": {"lon": 2.287667370814871, "lat": 48.88287775178599}, "nom_arrondissement_communes": "Paris", "code_insee_commune": null}, {"stationcode": "5016", "name": "Thouin - Cardinal Lemoine", "is_installed": "OUI", "capacity": 17, "numdocksavailable": 15, "numbikesavailable": 2, "mechanical": 0, "ebike": 2, "is_renting": "OUI", "is_returning": "OUI", "duedate": "2024-03-02T04:18:18+00:00", "coordonnees_geo": {"lon": 2.3494647851273465, "lat": 48.84504716661511}, "nom_arrondissement_communes": "Paris", "code_insee_commune": null}, {"stationcode": "11025", "name": "Froment - Br\u00e9guet", "is_installed": "OUI", "capacity": 43, "numdocksavailable": 2, "numbikesavailable": 37, "mechanical": 35, "ebike": 2, "is_renting": "OUI", "is_returning": "OUI", "duedate": "2024-03-02T04:22:16+00:00", "coordonnees_geo": {"lon": 2.37289470306807, "lat": 48.8570414504784}, "nom_arrondissement_communes": "Paris", "code_insee_commune": null}, {"stationcode": "15047", "name": "Morillons - Dantzig", "is_installed": "OUI", "capacity": 52, "numdocksavailable": 39, "numbikesavailable": 13, "mechanical": 3, "ebike": 10, "is_renting": "OUI", "is_returning": "OUI", "duedate": "2024-03-02T04:21:44+00:00", "coordonnees_geo": {"lon": 2.299380004405976, "lat": 48.83310149953933}, "nom_arrondissement_communes": "Paris", "code_insee_commune": null}, {"stationcode": "13101", "name": "Croulebarde - Corvisart", "is_installed": "OUI", "capacity": 34, "numdocksavailable": 13, "numbikesavailable": 20, "mechanical": 18, "ebike": 2, "is_renting": "OUI", "is_returning": "OUI", "duedate": "2024-03-02T04:20:55+00:00", "coordonnees_geo": {"lon": 2.3481646925210953, "lat": 48.830981659316855}, "nom_arrondissement_communes": "Paris", "code_insee_commune": null}, {"stationcode": "14108", "name": "Le Brix et Mesmin - Jourdan", "is_installed": "OUI", "capacity": 21, "numdocksavailable": 13, "numbikesavailable": 8, "mechanical": 1, "ebike": 7, "is_renting": "OUI", "is_returning": "OUI", "duedate": "2024-03-02T04:17:22+00:00", "coordonnees_geo": {"lon": 2.327861653302471, "lat": 48.82234096593411}, "nom_arrondissement_communes": "Paris", "code_insee_commune": null}, {"stationcode": "15026", "name": "Bir Hakeim", "is_installed": "OUI", "capacity": 33, "numdocksavailable": 20, "numbikesavailable": 12, "mechanical": 4, "ebike": 8, "is_renting": "OUI", "is_returning": "OUI", "duedate": "2024-03-02T04:19:17+00:00", "coordonnees_geo": {"lon": 2.289705348222022, "lat": 48.853844054333514}, "nom_arrondissement_communes": "Paris", "code_insee_commune": null}, {"stationcode": "17025", "name": "Chazelles - Courcelles", "is_installed": "OUI", "capacity": 35, "numdocksavailable": 21, "numbikesavailable": 12, "mechanical": 9, "ebike": 3, "is_renting": "OUI", "is_returning": "OUI", "duedate": "2024-03-02T04:19:07+00:00", "coordonnees_geo": {"lon": 2.3034455627202988, "lat": 48.879406604954}, "nom_arrondissement_communes": "Paris", "code_insee_commune": null}, {"stationcode": "20143", "name": "Ramponeau - Belleville", "is_installed": "OUI", "capacity": 44, "numdocksavailable": 32, "numbikesavailable": 11, "mechanical": 2, "ebike": 9, "is_renting": "OUI", "is_returning": "OUI", "duedate": "2024-03-02T04:18:04+00:00", "coordonnees_geo": {"lon": 2.379056852114, "lat": 48.871031137596}, "nom_arrondissement_communes": "Paris", "code_insee_commune": null}, {"stationcode": "16138", "name": "Saint-Cloud - Hippodrome", "is_installed": "OUI", "capacity": 30, "numdocksavailable": 27, "numbikesavailable": 3, "mechanical": 2, "ebike": 1, "is_renting": "OUI", "is_returning": "OUI", "duedate": "2024-03-02T04:16:59+00:00", "coordonnees_geo": {"lon": 2.2549109905958176, "lat": 48.85772148887421}, "nom_arrondissement_communes": "Paris", "code_insee_commune": null}, {"stationcode": "15068", "name": "G\u00e9n\u00e9ral Martial Valin - Pont du Garigliano", "is_installed": "OUI", "capacity": 16, "numdocksavailable": 14, "numbikesavailable": 2, "mechanical": 0, "ebike": 2, "is_renting": "OUI", "is_returning": "OUI", "duedate": "2024-03-02T04:22:13+00:00", "coordonnees_geo": {"lon": 2.270506024360657, "lat": 48.83823094269141}, "nom_arrondissement_communes": "Paris", "code_insee_commune": null}, {"stationcode": "19027", "name": "Serrurier", "is_installed": "OUI", "capacity": 18, "numdocksavailable": 16, "numbikesavailable": 2, "mechanical": 0, "ebike": 2, "is_renting": "OUI", "is_returning": "OUI", "duedate": "2024-03-02T04:17:20+00:00", "coordonnees_geo": {"lon": 2.39806417375803, "lat": 48.8804934032465}, "nom_arrondissement_communes": "Paris", "code_insee_commune": null}, {"stationcode": "31028", "name": "Raspail Barb\u00e8s", "is_installed": "OUI", "capacity": 28, "numdocksavailable": 19, "numbikesavailable": 9, "mechanical": 3, "ebike": 6, "is_renting": "OUI", "is_returning": "OUI", "duedate": "2024-03-02T04:18:50+00:00", "coordonnees_geo": {"lon": 2.4247387, "lat": 48.8529945}, "nom_arrondissement_communes": "Montreuil", "code_insee_commune": null}, {"stationcode": "44017", "name": "Jules Guesde - Pont du Port \u00e0 l'Anglais", "is_installed": "OUI", "capacity": 30, "numdocksavailable": 15, "numbikesavailable": 14, "mechanical": 10, "ebike": 4, "is_renting": "OUI", "is_returning": "OUI", "duedate": "2024-03-02T04:22:06+00:00", "coordonnees_geo": {"lon": 2.417212128639221, "lat": 48.79628807093802}, "nom_arrondissement_communes": "Vitry-sur-Seine", "code_insee_commune": null}, {"stationcode": "2017", "name": "Caire - Dussoubs", "is_installed": "OUI", "capacity": 40, "numdocksavailable": 14, "numbikesavailable": 26, "mechanical": 22, "ebike": 4, "is_renting": "OUI", "is_returning": "OUI", "duedate": "2024-03-02T04:22:12+00:00", "coordonnees_geo": {"lon": 2.349364310503006, "lat": 48.86785342111862}, "nom_arrondissement_communes": "Paris", "code_insee_commune": null}, {"stationcode": "14013", "name": "Liard - Amiral Mouchez", "is_installed": "OUI", "capacity": 14, "numdocksavailable": 0, "numbikesavailable": 14, "mechanical": 2, "ebike": 12, "is_renting": "OUI", "is_returning": "OUI", "duedate": "2024-03-02T04:21:21+00:00", "coordonnees_geo": {"lon": 2.342167, "lat": 48.8214169}, "nom_arrondissement_communes": "Paris", "code_insee_commune": null}, {"stationcode": "13118", "name": "Regnault - Patay", "is_installed": "OUI", "capacity": 63, "numdocksavailable": 26, "numbikesavailable": 36, "mechanical": 29, "ebike": 7, "is_renting": "OUI", "is_returning": "OUI", "duedate": "2024-03-02T04:21:49+00:00", "coordonnees_geo": {"lon": 2.377065159380436, "lat": 48.82435782216384}, "nom_arrondissement_communes": "Paris", "code_insee_commune": null}, {"stationcode": "15112", "name": "Vig\u00e9e-Lebrun - Anselme Payen", "is_installed": "OUI", "capacity": 24, "numdocksavailable": 9, "numbikesavailable": 15, "mechanical": 2, "ebike": 13, "is_renting": "OUI", "is_returning": "OUI", "duedate": "2024-03-02T04:17:31+00:00", "coordonnees_geo": {"lon": 2.3110422492027287, "lat": 48.838683941628375}, "nom_arrondissement_communes": "Paris", "code_insee_commune": null}, {"stationcode": "18111", "name": "F\u00e9lix Ziem - Armand Gauthier", "is_installed": "OUI", "capacity": 25, "numdocksavailable": 17, "numbikesavailable": 7, "mechanical": 0, "ebike": 7, "is_renting": "OUI", "is_returning": "OUI", "duedate": "2024-03-02T04:13:58+00:00", "coordonnees_geo": {"lon": 2.333393658804396, "lat": 48.88949630486821}, "nom_arrondissement_communes": "Paris", "code_insee_commune": null}, {"stationcode": "9002", "name": "Abbeville - Faubourg Poissonni\u00e8re", "is_installed": "OUI", "capacity": 14, "numdocksavailable": 7, "numbikesavailable": 6, "mechanical": 2, "ebike": 4, "is_renting": "OUI", "is_returning": "OUI", "duedate": "2024-03-02T04:20:24+00:00", "coordonnees_geo": {"lon": 2.349147, "lat": 48.879223}, "nom_arrondissement_communes": "Paris", "code_insee_commune": null}, {"stationcode": "16110", "name": "Octave Feuillet - Alb\u00e9ric Magnard", "is_installed": "OUI", "capacity": 21, "numdocksavailable": 19, "numbikesavailable": 1, "mechanical": 0, "ebike": 1, "is_renting": "OUI", "is_returning": "OUI", "duedate": "2024-03-02T04:21:49+00:00", "coordonnees_geo": {"lon": 2.2730283066630363, "lat": 48.86106902949534}, "nom_arrondissement_communes": "Paris", "code_insee_commune": null}, {"stationcode": "5005", "name": "Gay Lussac - Saint-Jacques", "is_installed": "OUI", "capacity": 24, "numdocksavailable": 23, "numbikesavailable": 0, "mechanical": 0, "ebike": 0, "is_renting": "OUI", "is_returning": "OUI", "duedate": "2024-03-02T04:21:10+00:00", "coordonnees_geo": {"lon": 2.341923944866407, "lat": 48.844730256132095}, "nom_arrondissement_communes": "Paris", "code_insee_commune": null}, {"stationcode": "10161", "name": "Gare de l'Est - Faubourg-Saint-Martin", "is_installed": "OUI", "capacity": 32, "numdocksavailable": 24, "numbikesavailable": 7, "mechanical": 3, "ebike": 4, "is_renting": "OUI", "is_returning": "OUI", "duedate": "2024-03-02T04:18:58+00:00", "coordonnees_geo": {"lon": 2.3594588041306, "lat": 48.875642647477}, "nom_arrondissement_communes": "Paris", "code_insee_commune": null}, {"stationcode": "12031", "name": "Gabriel Lam\u00e9", "is_installed": "OUI", "capacity": 36, "numdocksavailable": 1, "numbikesavailable": 34, "mechanical": 34, "ebike": 0, "is_renting": "OUI", "is_returning": "OUI", "duedate": "2024-03-02T04:21:33+00:00", "coordonnees_geo": {"lon": 2.385534569621086, "lat": 48.8351212784276}, "nom_arrondissement_communes": "Paris", "code_insee_commune": null}, {"stationcode": "9106", "name": "Boudreau - Auber", "is_installed": "OUI", "capacity": 14, "numdocksavailable": 9, "numbikesavailable": 4, "mechanical": 3, "ebike": 1, "is_renting": "OUI", "is_returning": "OUI", "duedate": "2024-03-02T04:20:03+00:00", "coordonnees_geo": {"lon": 2.329423, "lat": 48.87219}, "nom_arrondissement_communes": "Paris", "code_insee_commune": null}, {"stationcode": "21328", "name": "Verger - Colonel Guichard", "is_installed": "OUI", "capacity": 29, "numdocksavailable": 22, "numbikesavailable": 7, "mechanical": 1, "ebike": 6, "is_renting": "OUI", "is_returning": "OUI", "duedate": "2024-03-02T04:15:13+00:00", "coordonnees_geo": {"lon": 2.2670380088932, "lat": 48.816376985087}, "nom_arrondissement_communes": "Issy-les-Moulineaux", "code_insee_commune": null}, {"stationcode": "17040", "name": "Pereire - Ternes", "is_installed": "OUI", "capacity": 48, "numdocksavailable": 45, "numbikesavailable": 3, "mechanical": 1, "ebike": 2, "is_renting": "OUI", "is_returning": "OUI", "duedate": "2024-03-02T04:21:00+00:00", "coordonnees_geo": {"lon": 2.288012132048607, "lat": 48.87973954830735}, "nom_arrondissement_communes": "Paris", "code_insee_commune": null}, {"stationcode": "9038", "name": "Douai - Bruxelles", "is_installed": "OUI", "capacity": 27, "numdocksavailable": 27, "numbikesavailable": 0, "mechanical": 0, "ebike": 0, "is_renting": "OUI", "is_returning": "OUI", "duedate": "2024-03-02T04:14:00+00:00", "coordonnees_geo": {"lon": 2.3308449949028507, "lat": 48.88320784122797}, "nom_arrondissement_communes": "Paris", "code_insee_commune": null}, {"stationcode": "17008", "name": "Porte Pouchet-Bessi\u00e8res", "is_installed": "OUI", "capacity": 23, "numdocksavailable": 15, "numbikesavailable": 4, "mechanical": 0, "ebike": 4, "is_renting": "OUI", "is_returning": "OUI", "duedate": "2024-03-02T04:22:13+00:00", "coordonnees_geo": {"lon": 2.3230632, "lat": 48.8978765}, "nom_arrondissement_communes": "Paris", "code_insee_commune": null}, {"stationcode": "19015", "name": "Thionville - Ourcq", "is_installed": "OUI", "capacity": 24, "numdocksavailable": 18, "numbikesavailable": 3, "mechanical": 2, "ebike": 1, "is_renting": "OUI", "is_returning": "OUI", "duedate": "2024-03-02T04:22:13+00:00", "coordonnees_geo": {"lon": 2.3833653330802917, "lat": 48.88917613743794}, "nom_arrondissement_communes": "Paris", "code_insee_commune": null}, {"stationcode": "9022", "name": "Rossini - Laffitte", "is_installed": "OUI", "capacity": 33, "numdocksavailable": 18, "numbikesavailable": 14, "mechanical": 13, "ebike": 1, "is_renting": "OUI", "is_returning": "OUI", "duedate": "2024-03-02T04:21:47+00:00", "coordonnees_geo": {"lon": 2.337980867701675, "lat": 48.87334627510507}, "nom_arrondissement_communes": "Paris", "code_insee_commune": null}, {"stationcode": "17004", "name": "Legendre - Clichy", "is_installed": "OUI", "capacity": 40, "numdocksavailable": 26, "numbikesavailable": 13, "mechanical": 4, "ebike": 9, "is_renting": "OUI", "is_returning": "OUI", "duedate": "2024-03-02T04:19:42+00:00", "coordonnees_geo": {"lon": 2.322528975094376, "lat": 48.88896161855884}, "nom_arrondissement_communes": "Paris", "code_insee_commune": null}, {"stationcode": "18107", "name": "Chartres - La Charbonni\u00e8re", "is_installed": "OUI", "capacity": 34, "numdocksavailable": 28, "numbikesavailable": 5, "mechanical": 1, "ebike": 4, "is_renting": "OUI", "is_returning": "OUI", "duedate": "2024-03-02T04:18:19+00:00", "coordonnees_geo": {"lon": 2.3534657, "lat": 48.8847601}, "nom_arrondissement_communes": "Paris", "code_insee_commune": null}, {"stationcode": "16026", "name": "Ranelagh - Mozart", "is_installed": "OUI", "capacity": 23, "numdocksavailable": 19, "numbikesavailable": 4, "mechanical": 0, "ebike": 4, "is_renting": "OUI", "is_returning": "OUI", "duedate": "2024-03-02T04:19:23+00:00", "coordonnees_geo": {"lon": 2.2704418, "lat": 48.8554439}, "nom_arrondissement_communes": "Paris", "code_insee_commune": null}, {"stationcode": "9028", "name": "Moncey - Blanche", "is_installed": "OUI", "capacity": 17, "numdocksavailable": 12, "numbikesavailable": 3, "mechanical": 1, "ebike": 2, "is_renting": "OUI", "is_returning": "OUI", "duedate": "2024-03-02T04:19:21+00:00", "coordonnees_geo": {"lon": 2.3310810327529907, "lat": 48.88006587474148}, "nom_arrondissement_communes": "Paris", "code_insee_commune": null}, {"stationcode": "10107", "name": "Gare du Nord - H\u00f4pital Lariboisi\u00e8re", "is_installed": "OUI", "capacity": 49, "numdocksavailable": 27, "numbikesavailable": 22, "mechanical": 17, "ebike": 5, "is_renting": "OUI", "is_returning": "OUI", "duedate": "2024-03-02T04:20:10+00:00", "coordonnees_geo": {"lon": 2.352339, "lat": 48.881949}, "nom_arrondissement_communes": "Paris", "code_insee_commune": null}, {"stationcode": "26002", "name": "Redoute - Les Courtilles", "is_installed": "OUI", "capacity": 40, "numdocksavailable": 9, "numbikesavailable": 29, "mechanical": 14, "ebike": 15, "is_renting": "OUI", "is_returning": "OUI", "duedate": "2024-03-02T04:22:08+00:00", "coordonnees_geo": {"lon": 2.2836696356535, "lat": 48.929867194519}, "nom_arrondissement_communes": "Asni\u00e8res-sur-Seine", "code_insee_commune": null}, {"stationcode": "16039", "name": "Exelmans - Versailles", "is_installed": "OUI", "capacity": 49, "numdocksavailable": 34, "numbikesavailable": 14, "mechanical": 5, "ebike": 9, "is_renting": "OUI", "is_returning": "OUI", "duedate": "2024-03-02T04:14:37+00:00", "coordonnees_geo": {"lon": 2.264390252530575, "lat": 48.84097491091973}, "nom_arrondissement_communes": "Paris", "code_insee_commune": null}, {"stationcode": "8034", "name": "Berri - Haussmann", "is_installed": "OUI", "capacity": 35, "numdocksavailable": 27, "numbikesavailable": 5, "mechanical": 1, "ebike": 4, "is_renting": "OUI", "is_returning": "OUI", "duedate": "2024-03-02T04:19:17+00:00", "coordonnees_geo": {"lon": 2.3082953318953514, "lat": 48.874746047357135}, "nom_arrondissement_communes": "Paris", "code_insee_commune": null}, {"stationcode": "20042", "name": "Pyr\u00e9n\u00e9es - Emmery", "is_installed": "OUI", "capacity": 40, "numdocksavailable": 38, "numbikesavailable": 1, "mechanical": 0, "ebike": 1, "is_renting": "OUI", "is_returning": "OUI", "duedate": "2024-03-02T04:21:26+00:00", "coordonnees_geo": {"lon": 2.392039597034455, "lat": 48.872010281270974}, "nom_arrondissement_communes": "Paris", "code_insee_commune": null}, {"stationcode": "15067", "name": "Desaix - Edgar Faure", "is_installed": "OUI", "capacity": 12, "numdocksavailable": 10, "numbikesavailable": 2, "mechanical": 0, "ebike": 2, "is_renting": "OUI", "is_returning": "OUI", "duedate": "2024-03-02T04:20:41+00:00", "coordonnees_geo": {"lon": 2.293077029857222, "lat": 48.852804604940296}, "nom_arrondissement_communes": "Paris", "code_insee_commune": null}, {"stationcode": "17030", "name": "Pereire - Rennequin", "is_installed": "OUI", "capacity": 23, "numdocksavailable": 14, "numbikesavailable": 7, "mechanical": 5, "ebike": 2, "is_renting": "OUI", "is_returning": "OUI", "duedate": "2024-03-02T04:20:19+00:00", "coordonnees_geo": {"lon": 2.2952447086572647, "lat": 48.88364782887555}, "nom_arrondissement_communes": "Paris", "code_insee_commune": null}, {"stationcode": "19101", "name": "Square Simon Bolivar", "is_installed": "OUI", "capacity": 24, "numdocksavailable": 14, "numbikesavailable": 9, "mechanical": 1, "ebike": 8, "is_renting": "OUI", "is_returning": "OUI", "duedate": "2024-03-02T04:20:55+00:00", "coordonnees_geo": {"lon": 2.3826304078102116, "lat": 48.8750898883217}, "nom_arrondissement_communes": "Paris", "code_insee_commune": null}, {"stationcode": "10016", "name": "R\u00e9collets - Square Villemin", "is_installed": "OUI", "capacity": 17, "numdocksavailable": 14, "numbikesavailable": 3, "mechanical": 1, "ebike": 2, "is_renting": "OUI", "is_returning": "OUI", "duedate": "2024-03-02T04:20:06+00:00", "coordonnees_geo": {"lon": 2.359801238597928, "lat": 48.875034655883944}, "nom_arrondissement_communes": "Paris", "code_insee_commune": null}, {"stationcode": "31009", "name": "Place Du G\u00e9n\u00e9ral De Gaulle", "is_installed": "OUI", "capacity": 26, "numdocksavailable": 17, "numbikesavailable": 8, "mechanical": 0, "ebike": 8, "is_renting": "OUI", "is_returning": "OUI", "duedate": "2024-03-02T04:22:14+00:00", "coordonnees_geo": {"lon": 2.4329931, "lat": 48.8687591}, "nom_arrondissement_communes": "Montreuil", "code_insee_commune": null}, {"stationcode": "14020", "name": "Cimeti\u00e8re de Montrouge", "is_installed": "OUI", "capacity": 58, "numdocksavailable": 46, "numbikesavailable": 10, "mechanical": 4, "ebike": 6, "is_renting": "OUI", "is_returning": "OUI", "duedate": "2024-03-02T04:17:26+00:00", "coordonnees_geo": {"lon": 2.3215785772007, "lat": 48.821466904768}, "nom_arrondissement_communes": "Paris", "code_insee_commune": null}, {"stationcode": "5018", "name": "Mutualit\u00e9", "is_installed": "OUI", "capacity": 37, "numdocksavailable": 14, "numbikesavailable": 22, "mechanical": 19, "ebike": 3, "is_renting": "OUI", "is_returning": "OUI", "duedate": "2024-03-02T04:20:24+00:00", "coordonnees_geo": {"lon": 2.3502873256803, "lat": 48.848225572724}, "nom_arrondissement_communes": "Paris", "code_insee_commune": null}, {"stationcode": "18011", "name": "Pajol - Place Herbert", "is_installed": "OUI", "capacity": 39, "numdocksavailable": 12, "numbikesavailable": 26, "mechanical": 10, "ebike": 16, "is_renting": "OUI", "is_returning": "OUI", "duedate": "2024-03-02T04:21:39+00:00", "coordonnees_geo": {"lon": 2.3635598, "lat": 48.8927825}, "nom_arrondissement_communes": "Paris", "code_insee_commune": null}, {"stationcode": "42706", "name": "Roger Salengro - Fontainebleau", "is_installed": "OUI", "capacity": 25, "numdocksavailable": 11, "numbikesavailable": 14, "mechanical": 5, "ebike": 9, "is_renting": "OUI", "is_returning": "OUI", "duedate": "2024-03-02T04:19:49+00:00", "coordonnees_geo": {"lon": 2.3611663654447, "lat": 48.814548697325}, "nom_arrondissement_communes": "Le Kremlin-Bic\u00eatre", "code_insee_commune": null}, {"stationcode": "15104", "name": "H\u00f4pital Europ\u00e9en Georges Pompidou", "is_installed": "OUI", "capacity": 64, "numdocksavailable": 33, "numbikesavailable": 31, "mechanical": 30, "ebike": 1, "is_renting": "OUI", "is_returning": "OUI", "duedate": "2024-03-02T04:22:14+00:00", "coordonnees_geo": {"lon": 2.275374233722687, "lat": 48.83769531916335}, "nom_arrondissement_communes": "Paris", "code_insee_commune": null}, {"stationcode": "44006", "name": "Concorde - Stalingrad", "is_installed": "OUI", "capacity": 35, "numdocksavailable": 12, "numbikesavailable": 23, "mechanical": 7, "ebike": 16, "is_renting": "OUI", "is_returning": "OUI", "duedate": "2024-03-02T04:20:00+00:00", "coordonnees_geo": {"lon": 2.3821302, "lat": 48.7985844}, "nom_arrondissement_communes": "Vitry-sur-Seine", "code_insee_commune": null}, {"stationcode": "51005", "name": "Yves Farges - Route d'Enghein", "is_installed": "NON", "capacity": 0, "numdocksavailable": 0, "numbikesavailable": 0, "mechanical": 0, "ebike": 0, "is_renting": "NON", "is_returning": "NON", "duedate": "2024-02-06T11:04:01+00:00", "coordonnees_geo": {"lon": 2.2834496977978, "lat": 48.95756799268}, "nom_arrondissement_communes": "Argenteuil", "code_insee_commune": null}, {"stationcode": "19120", "name": "Carducci - Place Hannah Arendt", "is_installed": "OUI", "capacity": 27, "numdocksavailable": 17, "numbikesavailable": 10, "mechanical": 0, "ebike": 10, "is_renting": "OUI", "is_returning": "OUI", "duedate": "2024-03-02T04:21:35+00:00", "coordonnees_geo": {"lon": 2.3860743641853337, "lat": 48.877436681515796}, "nom_arrondissement_communes": "Paris", "code_insee_commune": null}, {"stationcode": "19103", "name": "Manin - Carri\u00e8res d'Am\u00e9rique", "is_installed": "OUI", "capacity": 20, "numdocksavailable": 3, "numbikesavailable": 17, "mechanical": 2, "ebike": 15, "is_renting": "OUI", "is_returning": "OUI", "duedate": "2024-03-02T04:17:46+00:00", "coordonnees_geo": {"lon": 2.3919698596000676, "lat": 48.88467214209463}, "nom_arrondissement_communes": "Paris", "code_insee_commune": null}, {"stationcode": "14138", "name": "Porte de Vanves", "is_installed": "OUI", "capacity": 32, "numdocksavailable": 23, "numbikesavailable": 8, "mechanical": 2, "ebike": 6, "is_renting": "OUI", "is_returning": "OUI", "duedate": "2024-03-02T04:20:19+00:00", "coordonnees_geo": {"lon": 2.3056878894567, "lat": 48.828012849445}, "nom_arrondissement_communes": "Paris", "code_insee_commune": null}, {"stationcode": "46003", "name": "Conservatoire de Musique", "is_installed": "OUI", "capacity": 25, "numdocksavailable": 21, "numbikesavailable": 4, "mechanical": 3, "ebike": 1, "is_renting": "OUI", "is_returning": "OUI", "duedate": "2024-03-02T04:16:19+00:00", "coordonnees_geo": {"lon": 2.4034014344215398, "lat": 48.77093586667601}, "nom_arrondissement_communes": "Choisy-le-Roi", "code_insee_commune": null}, {"stationcode": "41209", "name": "Cimeti\u00e8re de Fontenay-sous-Bois", "is_installed": "OUI", "capacity": 15, "numdocksavailable": 10, "numbikesavailable": 5, "mechanical": 1, "ebike": 4, "is_renting": "OUI", "is_returning": "OUI", "duedate": "2024-03-02T04:22:16+00:00", "coordonnees_geo": {"lon": 2.4787822365760808, "lat": 48.84706173362218}, "nom_arrondissement_communes": "Fontenay-sous-Bois", "code_insee_commune": null}, {"stationcode": "13001", "name": "Port-Royal - H\u00f4pital du Val-de-Gr\u00e2ce", "is_installed": "OUI", "capacity": 18, "numdocksavailable": 4, "numbikesavailable": 13, "mechanical": 10, "ebike": 3, "is_renting": "OUI", "is_returning": "OUI", "duedate": "2024-03-02T04:18:48+00:00", "coordonnees_geo": {"lon": 2.3448138346607, "lat": 48.837668272811}, "nom_arrondissement_communes": "Paris", "code_insee_commune": null}, {"stationcode": "18028", "name": "Championnet - Vauvenargues", "is_installed": "OUI", "capacity": 33, "numdocksavailable": 15, "numbikesavailable": 13, "mechanical": 4, "ebike": 9, "is_renting": "OUI", "is_returning": "OUI", "duedate": "2024-03-02T04:20:20+00:00", "coordonnees_geo": {"lon": 2.3319872841238976, "lat": 48.89401874744574}, "nom_arrondissement_communes": "Paris", "code_insee_commune": null}, {"stationcode": "8017", "name": "Rocher - Laborde", "is_installed": "OUI", "capacity": 65, "numdocksavailable": 29, "numbikesavailable": 36, "mechanical": 35, "ebike": 1, "is_renting": "OUI", "is_returning": "OUI", "duedate": "2024-03-02T04:22:10+00:00", "coordonnees_geo": {"lon": 2.322616316378116, "lat": 48.87590240712654}, "nom_arrondissement_communes": "Paris", "code_insee_commune": null}, {"stationcode": "5124", "name": "Erasme - Ulm", "is_installed": "OUI", "capacity": 24, "numdocksavailable": 24, "numbikesavailable": 0, "mechanical": 0, "ebike": 0, "is_renting": "OUI", "is_returning": "OUI", "duedate": "2024-03-02T04:18:44+00:00", "coordonnees_geo": {"lon": 2.3445946723222733, "lat": 48.84264375274712}, "nom_arrondissement_communes": "Paris", "code_insee_commune": null}, {"stationcode": "14106", "name": "Marc Sangnier - Porte de Vanves", "is_installed": "OUI", "capacity": 21, "numdocksavailable": 16, "numbikesavailable": 4, "mechanical": 0, "ebike": 4, "is_renting": "OUI", "is_returning": "OUI", "duedate": "2024-03-02T04:14:04+00:00", "coordonnees_geo": {"lon": 2.3107116669416428, "lat": 48.825218683556734}, "nom_arrondissement_communes": "Paris", "code_insee_commune": null}, {"stationcode": "18046", "name": "Etienne Jodelle - Saint Ouen", "is_installed": "OUI", "capacity": 33, "numdocksavailable": 30, "numbikesavailable": 2, "mechanical": 0, "ebike": 2, "is_renting": "OUI", "is_returning": "OUI", "duedate": "2024-03-02T04:20:50+00:00", "coordonnees_geo": {"lon": 2.326124420314341, "lat": 48.88794016394694}, "nom_arrondissement_communes": "Paris", "code_insee_commune": null}, {"stationcode": "31102", "name": "Boissi\u00e8re - Etienne Dolet", "is_installed": "OUI", "capacity": 21, "numdocksavailable": 4, "numbikesavailable": 16, "mechanical": 1, "ebike": 15, "is_renting": "OUI", "is_returning": "OUI", "duedate": "2024-03-02T04:18:54+00:00", "coordonnees_geo": {"lon": 2.4677312, "lat": 48.876111}, "nom_arrondissement_communes": "Montreuil", "code_insee_commune": null}, {"stationcode": "18022", "name": "Marcadet - Barb\u00e8s", "is_installed": "OUI", "capacity": 37, "numdocksavailable": 26, "numbikesavailable": 6, "mechanical": 3, "ebike": 3, "is_renting": "OUI", "is_returning": "OUI", "duedate": "2024-03-02T04:20:29+00:00", "coordonnees_geo": {"lon": 2.3490573929687, "lat": 48.890451120965}, "nom_arrondissement_communes": "Paris", "code_insee_commune": null}, {"stationcode": "8054", "name": "Bertie Albrecht - Hoche", "is_installed": "OUI", "capacity": 32, "numdocksavailable": 27, "numbikesavailable": 2, "mechanical": 1, "ebike": 1, "is_renting": "OUI", "is_returning": "OUI", "duedate": "2024-03-02T04:18:56+00:00", "coordonnees_geo": {"lon": 2.301303138307601, "lat": 48.87614039826388}, "nom_arrondissement_communes": "Paris", "code_insee_commune": null}, {"stationcode": "21005", "name": "H\u00f4tel de Ville de Boulogne Billancourt", "is_installed": "OUI", "capacity": 26, "numdocksavailable": 2, "numbikesavailable": 24, "mechanical": 21, "ebike": 3, "is_renting": "OUI", "is_returning": "OUI", "duedate": "2024-03-02T04:20:51+00:00", "coordonnees_geo": {"lon": 2.2416803240776066, "lat": 48.83495885166784}, "nom_arrondissement_communes": "Boulogne-Billancourt", "code_insee_commune": null}, {"stationcode": "17203", "name": "Place de la Porte de Champeret", "is_installed": "OUI", "capacity": 28, "numdocksavailable": 19, "numbikesavailable": 8, "mechanical": 1, "ebike": 7, "is_renting": "OUI", "is_returning": "OUI", "duedate": "2024-03-02T04:20:50+00:00", "coordonnees_geo": {"lon": 2.2917001576821, "lat": 48.886062068226}, "nom_arrondissement_communes": "Paris", "code_insee_commune": null}, {"stationcode": "15133", "name": "Saint Lambert - Blomet", "is_installed": "OUI", "capacity": 27, "numdocksavailable": 3, "numbikesavailable": 22, "mechanical": 14, "ebike": 8, "is_renting": "OUI", "is_returning": "OUI", "duedate": "2024-03-02T04:21:54+00:00", "coordonnees_geo": {"lon": 2.2930556908249855, "lat": 48.83659148147257}, "nom_arrondissement_communes": "Paris", "code_insee_commune": null}, {"stationcode": "21006", "name": "Marcelin Berthelot", "is_installed": "OUI", "capacity": 27, "numdocksavailable": 19, "numbikesavailable": 8, "mechanical": 2, "ebike": 6, "is_renting": "OUI", "is_returning": "OUI", "duedate": "2024-03-02T04:18:21+00:00", "coordonnees_geo": {"lon": 2.233161628246308, "lat": 48.8415473058801}, "nom_arrondissement_communes": "Boulogne-Billancourt", "code_insee_commune": null}, {"stationcode": "44013", "name": "Edouard Tremblay - Julian Grimaux", "is_installed": "OUI", "capacity": 30, "numdocksavailable": 6, "numbikesavailable": 24, "mechanical": 10, "ebike": 14, "is_renting": "OUI", "is_returning": "OUI", "duedate": "2024-03-02T04:19:17+00:00", "coordonnees_geo": {"lon": 2.3723508417606, "lat": 48.781383825117}, "nom_arrondissement_communes": "Vitry-sur-Seine", "code_insee_commune": null}, {"stationcode": "20131", "name": "Repos - Cimeti\u00e8re du P\u00e8re Lachaise", "is_installed": "OUI", "capacity": 33, "numdocksavailable": 29, "numbikesavailable": 4, "mechanical": 3, "ebike": 1, "is_renting": "OUI", "is_returning": "OUI", "duedate": "2024-03-02T04:12:52+00:00", "coordonnees_geo": {"lon": 2.3896131366845, "lat": 48.859358523593}, "nom_arrondissement_communes": "Paris", "code_insee_commune": null}, {"stationcode": "41404", "name": "Carnot - P\u00e2querettes", "is_installed": "OUI", "capacity": 26, "numdocksavailable": 9, "numbikesavailable": 17, "mechanical": 10, "ebike": 7, "is_renting": "OUI", "is_returning": "OUI", "duedate": "2024-03-02T04:21:42+00:00", "coordonnees_geo": {"lon": 2.4261841177940373, "lat": 48.79592939432515}, "nom_arrondissement_communes": "Alfortville", "code_insee_commune": null}, {"stationcode": "41202", "name": "Gare Rer de Fontenay sous Bois", "is_installed": "OUI", "capacity": 61, "numdocksavailable": 59, "numbikesavailable": 2, "mechanical": 0, "ebike": 2, "is_renting": "OUI", "is_returning": "OUI", "duedate": "2024-03-02T04:15:47+00:00", "coordonnees_geo": {"lon": 2.4630465, "lat": 48.8436279}, "nom_arrondissement_communes": "Fontenay-sous-Bois", "code_insee_commune": null}, {"stationcode": "42021", "name": "Raspail - Manufacture des Oeillets", "is_installed": "OUI", "capacity": 32, "numdocksavailable": 3, "numbikesavailable": 29, "mechanical": 19, "ebike": 10, "is_renting": "OUI", "is_returning": "OUI", "duedate": "2024-03-02T04:17:06+00:00", "coordonnees_geo": {"lon": 2.3903009, "lat": 48.8094458}, "nom_arrondissement_communes": "Ivry-sur-Seine", "code_insee_commune": null}, {"stationcode": "25003", "name": "Henri Ste-Claire D\u00e9ville - Paul H\u00e9roult", "is_installed": "OUI", "capacity": 24, "numdocksavailable": 18, "numbikesavailable": 3, "mechanical": 3, "ebike": 0, "is_renting": "OUI", "is_returning": "OUI", "duedate": "2024-03-02T04:13:14+00:00", "coordonnees_geo": {"lon": 2.172411, "lat": 48.892663}, "nom_arrondissement_communes": "Rueil-Malmaison", "code_insee_commune": null}, {"stationcode": "20115", "name": "Louis Lumi\u00e8re - Porte de Bagnolet", "is_installed": "OUI", "capacity": 20, "numdocksavailable": 18, "numbikesavailable": 1, "mechanical": 1, "ebike": 0, "is_renting": "OUI", "is_returning": "OUI", "duedate": "2024-03-02T04:19:38+00:00", "coordonnees_geo": {"lon": 2.4105210229754443, "lat": 48.86431136000005}, "nom_arrondissement_communes": "Paris", "code_insee_commune": null}, {"stationcode": "31003", "name": "Paris - Emile Zola", "is_installed": "OUI", "capacity": 30, "numdocksavailable": 15, "numbikesavailable": 13, "mechanical": 1, "ebike": 12, "is_renting": "OUI", "is_returning": "OUI", "duedate": "2024-03-02T04:17:14+00:00", "coordonnees_geo": {"lon": 2.4186685681343083, "lat": 48.854898095789295}, "nom_arrondissement_communes": "Montreuil", "code_insee_commune": null}, {"stationcode": "21008", "name": "Victor Hugo - Galli\u00e9ni", "is_installed": "OUI", "capacity": 34, "numdocksavailable": 23, "numbikesavailable": 10, "mechanical": 0, "ebike": 10, "is_renting": "OUI", "is_returning": "OUI", "duedate": "2024-03-02T04:19:39+00:00", "coordonnees_geo": {"lon": 2.2460845112800603, "lat": 48.83802015441127}, "nom_arrondissement_communes": "Boulogne-Billancourt", "code_insee_commune": null}, {"stationcode": "11039", "name": "Richard Lenoir - Jean-Pierre Timbaud", "is_installed": "OUI", "capacity": 36, "numdocksavailable": 6, "numbikesavailable": 29, "mechanical": 28, "ebike": 1, "is_renting": "OUI", "is_returning": "OUI", "duedate": "2024-03-02T04:22:08+00:00", "coordonnees_geo": {"lon": 2.3693370749669, "lat": 48.865804276686}, "nom_arrondissement_communes": "Paris", "code_insee_commune": null}, {"stationcode": "17013", "name": "Legendre - Dulong", "is_installed": "OUI", "capacity": 23, "numdocksavailable": 12, "numbikesavailable": 10, "mechanical": 6, "ebike": 4, "is_renting": "OUI", "is_returning": "OUI", "duedate": "2024-03-02T04:13:43+00:00", "coordonnees_geo": {"lon": 2.316423766314984, "lat": 48.885325169402904}, "nom_arrondissement_communes": "Paris", "code_insee_commune": null}, {"stationcode": "16008", "name": "Galil\u00e9e - Kl\u00e9ber", "is_installed": "OUI", "capacity": 32, "numdocksavailable": 32, "numbikesavailable": 0, "mechanical": 0, "ebike": 0, "is_renting": "OUI", "is_returning": "OUI", "duedate": "2024-03-02T04:13:21+00:00", "coordonnees_geo": {"lon": 2.290781380114821, "lat": 48.86741186571367}, "nom_arrondissement_communes": "Paris", "code_insee_commune": null}, {"stationcode": "18009", "name": "Jean-Fran\u00e7ois L\u00e9pine - Stephenson", "is_installed": "OUI", "capacity": 22, "numdocksavailable": 2, "numbikesavailable": 17, "mechanical": 5, "ebike": 12, "is_renting": "OUI", "is_returning": "OUI", "duedate": "2024-03-02T04:20:45+00:00", "coordonnees_geo": {"lon": 2.356855627529275, "lat": 48.88611466796807}, "nom_arrondissement_communes": "Paris", "code_insee_commune": null}, {"stationcode": "14110", "name": "Abb\u00e9 Carton - Plantes", "is_installed": "OUI", "capacity": 25, "numdocksavailable": 20, "numbikesavailable": 5, "mechanical": 1, "ebike": 4, "is_renting": "OUI", "is_returning": "OUI", "duedate": "2024-03-02T04:19:41+00:00", "coordonnees_geo": {"lon": 2.320918142795563, "lat": 48.827673823165846}, "nom_arrondissement_communes": "Paris", "code_insee_commune": null}, {"stationcode": "16108", "name": "Sablons - Georges Mandel", "is_installed": "OUI", "capacity": 38, "numdocksavailable": 33, "numbikesavailable": 4, "mechanical": 0, "ebike": 4, "is_renting": "OUI", "is_returning": "OUI", "duedate": "2024-03-02T04:19:58+00:00", "coordonnees_geo": {"lon": 2.28189, "lat": 48.863875}, "nom_arrondissement_communes": "Paris", "code_insee_commune": null}, {"stationcode": "43005", "name": "Gare RER de Vincennes", "is_installed": "OUI", "capacity": 51, "numdocksavailable": 42, "numbikesavailable": 8, "mechanical": 3, "ebike": 5, "is_renting": "OUI", "is_returning": "OUI", "duedate": "2024-03-02T04:21:38+00:00", "coordonnees_geo": {"lon": 2.433383166790009, "lat": 48.847563015126106}, "nom_arrondissement_communes": "Vincennes", "code_insee_commune": null}, {"stationcode": "19032", "name": "Villette - Belleville", "is_installed": "OUI", "capacity": 48, "numdocksavailable": 38, "numbikesavailable": 8, "mechanical": 3, "ebike": 5, "is_renting": "OUI", "is_returning": "OUI", "duedate": "2024-03-02T04:22:18+00:00", "coordonnees_geo": {"lon": 2.376461327076, "lat": 48.8726877314}, "nom_arrondissement_communes": "Paris", "code_insee_commune": null}, {"stationcode": "19022", "name": "March\u00e9 Secr\u00e9tan", "is_installed": "OUI", "capacity": 26, "numdocksavailable": 6, "numbikesavailable": 17, "mechanical": 6, "ebike": 11, "is_renting": "OUI", "is_returning": "OUI", "duedate": "2024-03-02T04:21:50+00:00", "coordonnees_geo": {"lon": 2.373463287949562, "lat": 48.88125496379482}, "nom_arrondissement_communes": "Paris", "code_insee_commune": null}, {"stationcode": "21701", "name": "Larmeroux - Baudelaire", "is_installed": "OUI", "capacity": 29, "numdocksavailable": 9, "numbikesavailable": 20, "mechanical": 4, "ebike": 16, "is_renting": "OUI", "is_returning": "OUI", "duedate": "2024-03-02T04:19:52+00:00", "coordonnees_geo": {"lon": 2.2809894804846, "lat": 48.816939911292}, "nom_arrondissement_communes": "Vanves", "code_insee_commune": null}]}