{"total_count": 1470, "results": [{"stationcode": "16107", "name": "Benjamin Godard - Victor Hugo", "is_installed": "OUI", "capacity": 35, "numdocksavailable": 31, "numbikesavailable": 4, "mechanical": 2, "ebike": 2, "is_renting": "OUI", "is_returning": "OUI", "duedate": "2024-01-12T12:28:04+00:00", "coordonnees_geo": {"lon": 2.275725, "lat": 48.865983}, "nom_arrondissement_communes": "Paris", "code_insee_commune": null}, {"stationcode": "9020", "name": "Toudouze - Clauzel", "is_installed": "OUI", "capacity": 21, "numdocksavailable": 18, "numbikesavailable": 2, "mechanical": 0, "ebike": 2, "is_renting": "OUI", "is_returning": "OUI", "duedate": "2024-01-12T12:21:56+00:00", "coordonnees_geo": {"lon": 2.3373600840568547, "lat": 48.87929591733507}, "nom_arrondissement_communes": "Paris", "code_insee_commune": null}, {"stationcode": "12109", "name": "Mairie du 12\u00e8me", "is_installed": "OUI", "capacity": 30, "numdocksavailable": 24, "numbikesavailable": 5, "mechanical": 4, "ebike": 1, "is_renting": "OUI", "is_returning": "OUI", "duedate": "2024-01-12T12:28:46+00:00", "coordonnees_geo": {"lon": 2.3875549435616, "lat": 48.840855311763}, "nom_arrondissement_communes": "Paris", "code_insee_commune": null}, {"stationcode": "14111", "name": "Cassini - Denfert-Rochereau", "is_installed": "OUI", "capacity": 25, "numdocksavailable": 18, "numbikesavailable": 5, "mechanical": 1, "ebike": 4, "is_renting": "OUI", "is_returning": "OUI", "duedate": "2024-01-12T12:29:45+00:00", "coordonnees_geo": {"lon": 2.3360354080796, "lat": 48.837525839067}, "nom_arrondissement_communes": "Paris", "code_insee_commune": null}, {"stationcode": "11104", "name": "Charonne - Robert et Sonia Delaunay", "is_installed": "OUI", "capacity": 20, "numdocksavailable": 17, "numbikesavailable": 2, "mechanical": 2, "ebike": 0, "is_renting": "OUI", "is_returning": "OUI", "duedate": "2024-01-12T12:29:14+00:00", "coordonnees_geo": {"lon": 2.3925706744194, "lat": 48.855907555969}, "nom_arrondissement_communes": "Paris", "code_insee_commune": null}, {"stationcode": "6108", "name": "Saint-Romain - Cherche-Midi", "is_installed": "OUI", "capacity": 17, "numdocksavailable": 14, "numbikesavailable": 3, "mechanical": 0, "ebike": 3, "is_renting": "OUI", "is_returning": "OUI", "duedate": "2024-01-12T12:28:09+00:00", "coordonnees_geo": {"lon": 2.321374788880348, "lat": 48.84708159081946}, "nom_arrondissement_communes": "Paris", "code_insee_commune": null}, {"stationcode": "33006", "name": "Andr\u00e9 Karman - R\u00e9publique", "is_installed": "OUI", "capacity": 31, "numdocksavailable": 29, "numbikesavailable": 2, "mechanical": 1, "ebike": 1, "is_renting": "OUI", "is_returning": "OUI", "duedate": "2024-01-12T12:24:43+00:00", "coordonnees_geo": {"lon": 2.3851355910301213, "lat": 48.91039875761846}, "nom_arrondissement_communes": "Aubervilliers", "code_insee_commune": null}, {"stationcode": "42016", "name": "Pierre et Marie Curie - Maurice Thorez", "is_installed": "OUI", "capacity": 27, "numdocksavailable": 27, "numbikesavailable": 0, "mechanical": 0, "ebike": 0, "is_renting": "OUI", "is_returning": "OUI", "duedate": "2024-01-12T12:22:57+00:00", "coordonnees_geo": {"lon": 2.376804985105991, "lat": 48.81580226360801}, "nom_arrondissement_communes": "Ivry-sur-Seine", "code_insee_commune": null}, {"stationcode": "17038", "name": "Grande Arm\u00e9e - Brunel", "is_installed": "OUI", "capacity": 62, "numdocksavailable": 42, "numbikesavailable": 17, "mechanical": 0, "ebike": 17, "is_renting": "OUI", "is_returning": "OUI", "duedate": "2024-01-12T12:28:12+00:00", "coordonnees_geo": {"lon": 2.288124, "lat": 48.876116}, "nom_arrondissement_communes": "Paris", "code_insee_commune": null}, {"stationcode": "15202", "name": "Bracion - P\u00e9riph\u00e9rique", "is_installed": "OUI", "capacity": 30, "numdocksavailable": 28, "numbikesavailable": 2, "mechanical": 0, "ebike": 2, "is_renting": "OUI", "is_returning": "OUI", "duedate": "2024-01-12T12:26:47+00:00", "coordonnees_geo": {"lon": 2.3004549373748, "lat": 48.826103771275}, "nom_arrondissement_communes": "Paris", "code_insee_commune": null}, {"stationcode": "17041", "name": "Guersant - Gouvion-Saint-Cyr", "is_installed": "OUI", "capacity": 36, "numdocksavailable": 25, "numbikesavailable": 6, "mechanical": 5, "ebike": 1, "is_renting": "OUI", "is_returning": "OUI", "duedate": "2024-01-12T12:27:13+00:00", "coordonnees_geo": {"lon": 2.287667370814871, "lat": 48.88287775178599}, "nom_arrondissement_communes": "Paris", "code_insee_commune": null}, {"stationcode": "17026", "name": "Jouffroy d'Abbans - Wagram", "is_installed": "OUI", "capacity": 40, "numdocksavailable": 25, "numbikesavailable": 12, "mechanical": 9, "ebike": 3, "is_renting": "OUI", "is_returning": "OUI", "duedate": "2024-01-12T12:26:59+00:00", "coordonnees_geo": {"lon": 2.301132157445, "lat": 48.881973298352}, "nom_arrondissement_communes": "Paris", "code_insee_commune": null}, {"stationcode": "5016", "name": "Thouin - Cardinal Lemoine", "is_installed": "OUI", "capacity": 17, "numdocksavailable": 9, "numbikesavailable": 8, "mechanical": 0, "ebike": 8, "is_renting": "OUI", "is_returning": "OUI", "duedate": "2024-01-12T12:28:12+00:00", "coordonnees_geo": {"lon": 2.3494647851273465, "lat": 48.84504716661511}, "nom_arrondissement_communes": "Paris", "code_insee_commune": null}, {"stationcode": "11025", "name": "Froment - Br\u00e9guet", "is_installed": "OUI", "capacity": 43, "numdocksavailable": 20, "numbikesavailable": 20, "mechanical": 12, "ebike": 8, "is_renting": "OUI", "is_returning": "OUI", "duedate": "2024-01-12T12:27:34+00:00", "coordonnees_geo": {"lon": 2.37289470306807, "lat": 48.8570414504784}, "nom_arrondissement_communes": "Paris", "code_insee_commune": null}, {"stationcode": "15047", "name": "Morillons - Dantzig", "is_installed": "OUI", "capacity": 52, "numdocksavailable": 51, "numbikesavailable": 0, "mechanical": 0, "ebike": 0, "is_renting": "OUI", "is_returning": "OUI", "duedate": "2024-01-12T12:26:59+00:00", "coordonnees_geo": {"lon": 2.299380004405976, "lat": 48.83310149953933}, "nom_arrondissement_communes": "Paris", "code_insee_commune": null}, {"stationcode": "8050", "name": "Bo\u00e9tie - Ponthieu", "is_installed": "OUI", "capacity": 33, "numdocksavailable": 5, "numbikesavailable": 25, "mechanical": 8, "ebike": 17, "is_renting": "OUI", "is_returning": "OUI", "duedate": "2024-01-12T12:29:46+00:00", "coordonnees_geo": {"lon": 2.3076787590981, "lat": 48.871417284355}, "nom_arrondissement_communes": "Paris", "code_insee_commune": null}, {"stationcode": "14108", "name": "Le Brix et Mesmin - Jourdan", "is_installed": "OUI", "capacity": 21, "numdocksavailable": 17, "numbikesavailable": 4, "mechanical": 2, "ebike": 2, "is_renting": "OUI", "is_returning": "OUI", "duedate": "2024-01-12T12:29:41+00:00", "coordonnees_geo": {"lon": 2.327861653302471, "lat": 48.82234096593411}, "nom_arrondissement_communes": "Paris", "code_insee_commune": null}, {"stationcode": "31024", "name": "Romainville - Vaillant-Couturier", "is_installed": "OUI", "capacity": 38, "numdocksavailable": 36, "numbikesavailable": 1, "mechanical": 0, "ebike": 1, "is_renting": "OUI", "is_returning": "OUI", "duedate": "2024-01-12T12:27:34+00:00", "coordonnees_geo": {"lon": 2.446748, "lat": 48.86785}, "nom_arrondissement_communes": "Montreuil", "code_insee_commune": null}, {"stationcode": "15026", "name": "Bir Hakeim", "is_installed": "OUI", "capacity": 33, "numdocksavailable": 9, "numbikesavailable": 22, "mechanical": 19, "ebike": 3, "is_renting": "OUI", "is_returning": "OUI", "duedate": "2024-01-12T12:29:50+00:00", "coordonnees_geo": {"lon": 2.289705348222022, "lat": 48.853844054333514}, "nom_arrondissement_communes": "Paris", "code_insee_commune": null}, {"stationcode": "17044", "name": "Porte de Saint-Ouen - Bessi\u00e8res", "is_installed": "OUI", "capacity": 42, "numdocksavailable": 21, "numbikesavailable": 8, "mechanical": 4, "ebike": 4, "is_renting": "OUI", "is_returning": "OUI", "duedate": "2024-01-12T12:30:10+00:00", "coordonnees_geo": {"lon": 2.32851451022192, "lat": 48.89792240854517}, "nom_arrondissement_communes": "Paris", "code_insee_commune": null}, {"stationcode": "19033", "name": "Cambrai - Benjamin Constant", "is_installed": "OUI", "capacity": 43, "numdocksavailable": 41, "numbikesavailable": 1, "mechanical": 1, "ebike": 0, "is_renting": "OUI", "is_returning": "OUI", "duedate": "2024-01-12T12:28:47+00:00", "coordonnees_geo": {"lon": 2.381133802246315, "lat": 48.89594736851349}, "nom_arrondissement_communes": "Paris", "code_insee_commune": null}, {"stationcode": "20143", "name": "Ramponeau - Belleville", "is_installed": "OUI", "capacity": 44, "numdocksavailable": 39, "numbikesavailable": 3, "mechanical": 1, "ebike": 2, "is_renting": "OUI", "is_returning": "OUI", "duedate": "2024-01-12T12:29:49+00:00", "coordonnees_geo": {"lon": 2.379056852114, "lat": 48.871031137596}, "nom_arrondissement_communes": "Paris", "code_insee_commune": null}, {"stationcode": "16138", "name": "Saint-Cloud - Hippodrome", "is_installed": "OUI", "capacity": 30, "numdocksavailable": 28, "numbikesavailable": 1, "mechanical": 0, "ebike": 1, "is_renting": "OUI", "is_returning": "OUI", "duedate": "2024-01-12T12:29:23+00:00", "coordonnees_geo": {"lon": 2.2549109905958176, "lat": 48.85772148887421}, "nom_arrondissement_communes": "Paris", "code_insee_commune": null}, {"stationcode": "21216", "name": "Louis Lejeune - Barb\u00e8s", "is_installed": "OUI", "capacity": 25, "numdocksavailable": 23, "numbikesavailable": 2, "mechanical": 1, "ebike": 1, "is_renting": "OUI", "is_returning": "OUI", "duedate": "2024-01-12T12:27:41+00:00", "coordonnees_geo": {"lon": 2.3267009854316716, "lat": 48.81807418981508}, "nom_arrondissement_communes": "Montrouge", "code_insee_commune": null}, {"stationcode": "15068", "name": "G\u00e9n\u00e9ral Martial Valin - Pont du Garigliano", "is_installed": "OUI", "capacity": 16, "numdocksavailable": 3, "numbikesavailable": 13, "mechanical": 5, "ebike": 8, "is_renting": "OUI", "is_returning": "OUI", "duedate": "2024-01-12T12:27:03+00:00", "coordonnees_geo": {"lon": 2.270506024360657, "lat": 48.83823094269141}, "nom_arrondissement_communes": "Paris", "code_insee_commune": null}, {"stationcode": "7004", "name": "Raspail - Varenne", "is_installed": "OUI", "capacity": 18, "numdocksavailable": 0, "numbikesavailable": 18, "mechanical": 13, "ebike": 5, "is_renting": "OUI", "is_returning": "OUI", "duedate": "2024-01-12T12:29:42+00:00", "coordonnees_geo": {"lon": 2.3263905197382, "lat": 48.853147816545}, "nom_arrondissement_communes": "Paris", "code_insee_commune": null}, {"stationcode": "92002", "name": "Th\u00e9\u00e2tre des Amandiers - Palais des sports", "is_installed": "OUI", "capacity": 23, "numdocksavailable": 5, "numbikesavailable": 18, "mechanical": 8, "ebike": 10, "is_renting": "OUI", "is_returning": "OUI", "duedate": "2024-01-12T12:24:23+00:00", "coordonnees_geo": {"lon": 2.2136941552162, "lat": 48.892648526839}, "nom_arrondissement_communes": "Nanterre", "code_insee_commune": null}, {"stationcode": "13030", "name": "Italie - Tolbiac", "is_installed": "OUI", "capacity": 21, "numdocksavailable": 17, "numbikesavailable": 4, "mechanical": 0, "ebike": 4, "is_renting": "OUI", "is_returning": "OUI", "duedate": "2024-01-12T12:29:06+00:00", "coordonnees_geo": {"lon": 2.3576171323657036, "lat": 48.82557229464416}, "nom_arrondissement_communes": "Paris", "code_insee_commune": null}, {"stationcode": "19027", "name": "Serrurier", "is_installed": "OUI", "capacity": 18, "numdocksavailable": 14, "numbikesavailable": 3, "mechanical": 0, "ebike": 3, "is_renting": "OUI", "is_returning": "OUI", "duedate": "2024-01-12T12:22:43+00:00", "coordonnees_geo": {"lon": 2.39806417375803, "lat": 48.8804934032465}, "nom_arrondissement_communes": "Paris", "code_insee_commune": null}, {"stationcode": "31028", "name": "Raspail Barb\u00e8s", "is_installed": "OUI", "capacity": 28, "numdocksavailable": 27, "numbikesavailable": 1, "mechanical": 0, "ebike": 1, "is_renting": "OUI", "is_returning": "OUI", "duedate": "2024-01-12T12:27:12+00:00", "coordonnees_geo": {"lon": 2.4247387, "lat": 48.8529945}, "nom_arrondissement_communes": "Montreuil", "code_insee_commune": null}, {"stationcode": "17048", "name": "De Toqueville - Terrasse", "is_installed": "OUI", "capacity": 30, "numdocksavailable": 24, "numbikesavailable": 3, "mechanical": 0, "ebike": 3, "is_renting": "OUI", "is_returning": "OUI", "duedate": "2024-01-12T12:27:36+00:00", "coordonnees_geo": {"lon": 2.314002, "lat": 48.882428}, "nom_arrondissement_communes": "Paris", "code_insee_commune": null}, {"stationcode": "8048", "name": "Marceau - Chaillot", "is_installed": "OUI", "capacity": 21, "numdocksavailable": 9, "numbikesavailable": 9, "mechanical": 2, "ebike": 7, "is_renting": "OUI", "is_returning": "OUI", "duedate": "2024-01-12T12:29:13+00:00", "coordonnees_geo": {"lon": 2.2986030816809, "lat": 48.868834023334}, "nom_arrondissement_communes": "Paris", "code_insee_commune": null}, {"stationcode": "14013", "name": "Liard - Amiral Mouchez", "is_installed": "OUI", "capacity": 14, "numdocksavailable": 10, "numbikesavailable": 4, "mechanical": 1, "ebike": 3, "is_renting": "OUI", "is_returning": "OUI", "duedate": "2024-01-12T12:28:17+00:00", "coordonnees_geo": {"lon": 2.342167, "lat": 48.8214169}, "nom_arrondissement_communes": "Paris", "code_insee_commune": null}, {"stationcode": "13118", "name": "Regnault - Patay", "is_installed": "OUI", "capacity": 63, "numdocksavailable": 24, "numbikesavailable": 38, "mechanical": 34, "ebike": 4, "is_renting": "OUI", "is_returning": "OUI", "duedate": "2024-01-12T12:27:59+00:00", "coordonnees_geo": {"lon": 2.377065159380436, "lat": 48.82435782216384}, "nom_arrondissement_communes": "Paris", "code_insee_commune": null}, {"stationcode": "14002", "name": "Edgar Quinet - Raspail", "is_installed": "OUI", "capacity": 46, "numdocksavailable": 36, "numbikesavailable": 9, "mechanical": 3, "ebike": 6, "is_renting": "OUI", "is_returning": "OUI", "duedate": "2024-01-12T12:28:35+00:00", "coordonnees_geo": {"lon": 2.32971478253603, "lat": 48.83940266673835}, "nom_arrondissement_communes": "Paris", "code_insee_commune": null}, {"stationcode": "8053", "name": "Place Georges Guillaumin", "is_installed": "OUI", "capacity": 29, "numdocksavailable": 6, "numbikesavailable": 17, "mechanical": 5, "ebike": 12, "is_renting": "OUI", "is_returning": "OUI", "duedate": "2024-01-12T12:28:35+00:00", "coordonnees_geo": {"lon": 2.301771435325988, "lat": 48.874750203956566}, "nom_arrondissement_communes": "Paris", "code_insee_commune": null}, {"stationcode": "10162", "name": "Alexandre Parodi - Quai de Valmy", "is_installed": "OUI", "capacity": 24, "numdocksavailable": 20, "numbikesavailable": 4, "mechanical": 0, "ebike": 4, "is_renting": "OUI", "is_returning": "OUI", "duedate": "2024-01-12T12:28:04+00:00", "coordonnees_geo": {"lon": 2.366596162319184, "lat": 48.87935941942529}, "nom_arrondissement_communes": "Paris", "code_insee_commune": null}, {"stationcode": "10115", "name": "Granges aux Belles", "is_installed": "OUI", "capacity": 27, "numdocksavailable": 21, "numbikesavailable": 3, "mechanical": 1, "ebike": 2, "is_renting": "OUI", "is_returning": "OUI", "duedate": "2024-01-12T12:25:15+00:00", "coordonnees_geo": {"lon": 2.3680844979417, "lat": 48.8761373390584}, "nom_arrondissement_communes": "Paris", "code_insee_commune": null}, {"stationcode": "5005", "name": "Gay Lussac - Saint-Jacques", "is_installed": "OUI", "capacity": 24, "numdocksavailable": 3, "numbikesavailable": 21, "mechanical": 4, "ebike": 17, "is_renting": "OUI", "is_returning": "OUI", "duedate": "2024-01-12T12:30:07+00:00", "coordonnees_geo": {"lon": 2.341923944866407, "lat": 48.844730256132095}, "nom_arrondissement_communes": "Paris", "code_insee_commune": null}, {"stationcode": "10161", "name": "Gare de l'Est - Faubourg-Saint-Martin", "is_installed": "OUI", "capacity": 32, "numdocksavailable": 30, "numbikesavailable": 1, "mechanical": 1, "ebike": 0, "is_renting": "OUI", "is_returning": "OUI", "duedate": "2024-01-12T12:25:11+00:00", "coordonnees_geo": {"lon": 2.3594588041306, "lat": 48.875642647477}, "nom_arrondissement_communes": "Paris", "code_insee_commune": null}, {"stationcode": "41303", "name": "Gare de Nogent-le-Perreux", "is_installed": "OUI", "capacity": 32, "numdocksavailable": 17, "numbikesavailable": 14, "mechanical": 2, "ebike": 12, "is_renting": "OUI", "is_returning": "OUI", "duedate": "2024-01-12T12:29:20+00:00", "coordonnees_geo": {"lon": 2.493693307042122, "lat": 48.83842553348809}, "nom_arrondissement_communes": "Nogent-sur-Marne", "code_insee_commune": null}, {"stationcode": "12031", "name": "Gabriel Lam\u00e9", "is_installed": "OUI", "capacity": 36, "numdocksavailable": 5, "numbikesavailable": 31, "mechanical": 29, "ebike": 2, "is_renting": "OUI", "is_returning": "OUI", "duedate": "2024-01-12T12:28:46+00:00", "coordonnees_geo": {"lon": 2.385534569621086, "lat": 48.8351212784276}, "nom_arrondissement_communes": "Paris", "code_insee_commune": null}, {"stationcode": "7011", "name": "Las Cases - Bourgogne", "is_installed": "OUI", "capacity": 22, "numdocksavailable": 6, "numbikesavailable": 14, "mechanical": 4, "ebike": 10, "is_renting": "OUI", "is_returning": "OUI", "duedate": "2024-01-12T12:24:57+00:00", "coordonnees_geo": {"lon": 2.3185685276985, "lat": 48.859091104741}, "nom_arrondissement_communes": "Paris", "code_insee_commune": null}, {"stationcode": "5022", "name": "Boulangers - Cardinal Lemoine", "is_installed": "OUI", "capacity": 20, "numdocksavailable": 2, "numbikesavailable": 15, "mechanical": 8, "ebike": 7, "is_renting": "OUI", "is_returning": "OUI", "duedate": "2024-01-12T12:29:58+00:00", "coordonnees_geo": {"lon": 2.3521495, "lat": 48.8462904}, "nom_arrondissement_communes": "Paris", "code_insee_commune": null}, {"stationcode": "21323", "name": "Charlot - Stade Gabriel Voisin", "is_installed": "OUI", "capacity": 31, "numdocksavailable": 6, "numbikesavailable": 24, "mechanical": 19, "ebike": 5, "is_renting": "OUI", "is_returning": "OUI", "duedate": "2024-01-12T12:27:56+00:00", "coordonnees_geo": {"lon": 2.268122527474, "lat": 48.827228120536}, "nom_arrondissement_communes": "Issy-les-Moulineaux", "code_insee_commune": null}, {"stationcode": "9038", "name": "Douai - Bruxelles", "is_installed": "OUI", "capacity": 27, "numdocksavailable": 21, "numbikesavailable": 5, "mechanical": 1, "ebike": 4, "is_renting": "OUI", "is_returning": "OUI", "duedate": "2024-01-12T12:26:00+00:00", "coordonnees_geo": {"lon": 2.3308449949028507, "lat": 48.88320784122797}, "nom_arrondissement_communes": "Paris", "code_insee_commune": null}, {"stationcode": "17008", "name": "Porte Pouchet-Bessi\u00e8res", "is_installed": "OUI", "capacity": 23, "numdocksavailable": 18, "numbikesavailable": 3, "mechanical": 0, "ebike": 3, "is_renting": "OUI", "is_returning": "OUI", "duedate": "2024-01-12T12:23:04+00:00", "coordonnees_geo": {"lon": 2.3230632, "lat": 48.8978765}, "nom_arrondissement_communes": "Paris", "code_insee_commune": null}, {"stationcode": "19003", "name": "Quai de la Seine", "is_installed": "OUI", "capacity": 24, "numdocksavailable": 21, "numbikesavailable": 2, "mechanical": 1, "ebike": 1, "is_renting": "OUI", "is_returning": "OUI", "duedate": "2024-01-12T12:27:47+00:00", "coordonnees_geo": {"lon": 2.3703941702842717, "lat": 48.884492238407525}, "nom_arrondissement_communes": "Paris", "code_insee_commune": null}, {"stationcode": "12151", "name": "Gare de Lyon - Place Louis Armand", "is_installed": "OUI", "capacity": 60, "numdocksavailable": 5, "numbikesavailable": 52, "mechanical": 19, "ebike": 33, "is_renting": "OUI", "is_returning": "OUI", "duedate": "2024-01-12T12:29:50+00:00", "coordonnees_geo": {"lon": 2.3726498446286, "lat": 48.845515089794}, "nom_arrondissement_communes": "Paris", "code_insee_commune": null}, {"stationcode": "18107", "name": "Chartres - La Charbonni\u00e8re", "is_installed": "OUI", "capacity": 34, "numdocksavailable": 33, "numbikesavailable": 1, "mechanical": 1, "ebike": 0, "is_renting": "OUI", "is_returning": "OUI", "duedate": "2024-01-12T12:22:13+00:00", "coordonnees_geo": {"lon": 2.3534657, "lat": 48.8847601}, "nom_arrondissement_communes": "Paris", "code_insee_commune": null}, {"stationcode": "9028", "name": "Moncey - Blanche", "is_installed": "OUI", "capacity": 17, "numdocksavailable": 13, "numbikesavailable": 3, "mechanical": 0, "ebike": 3, "is_renting": "OUI", "is_returning": "OUI", "duedate": "2024-01-12T12:30:12+00:00", "coordonnees_geo": {"lon": 2.3310810327529907, "lat": 48.88006587474148}, "nom_arrondissement_communes": "Paris", "code_insee_commune": null}, {"stationcode": "10107", "name": "Gare du Nord - H\u00f4pital Lariboisi\u00e8re", "is_installed": "OUI", "capacity": 49, "numdocksavailable": 44, "numbikesavailable": 2, "mechanical": 1, "ebike": 1, "is_renting": "OUI", "is_returning": "OUI", "duedate": "2024-01-12T12:27:14+00:00", "coordonnees_geo": {"lon": 2.352339, "lat": 48.881949}, "nom_arrondissement_communes": "Paris", "code_insee_commune": null}, {"stationcode": "26002", "name": "Redoute - Les Courtilles", "is_installed": "OUI", "capacity": 40, "numdocksavailable": 9, "numbikesavailable": 30, "mechanical": 11, "ebike": 19, "is_renting": "OUI", "is_returning": "OUI", "duedate": "2024-01-12T12:30:08+00:00", "coordonnees_geo": {"lon": 2.2836696356535, "lat": 48.929867194519}, "nom_arrondissement_communes": "Asni\u00e8res-sur-Seine", "code_insee_commune": null}, {"stationcode": "17043", "name": "Belidor - Gouvion-Saint-Cyr", "is_installed": "OUI", "capacity": 39, "numdocksavailable": 31, "numbikesavailable": 6, "mechanical": 2, "ebike": 4, "is_renting": "OUI", "is_returning": "OUI", "duedate": "2024-01-12T12:29:58+00:00", "coordonnees_geo": {"lon": 2.2854680567979813, "lat": 48.88022154052015}, "nom_arrondissement_communes": "Paris", "code_insee_commune": null}, {"stationcode": "11002", "name": "Roquette - Thi\u00e9r\u00e9", "is_installed": "OUI", "capacity": 23, "numdocksavailable": 4, "numbikesavailable": 19, "mechanical": 17, "ebike": 2, "is_renting": "OUI", "is_returning": "OUI", "duedate": "2024-01-12T12:30:12+00:00", "coordonnees_geo": {"lon": 2.3733686318721463, "lat": 48.85507930579506}, "nom_arrondissement_communes": "Paris", "code_insee_commune": null}, {"stationcode": "12111", "name": "Claude Decaen - Cannebi\u00e8re", "is_installed": "OUI", "capacity": 27, "numdocksavailable": 20, "numbikesavailable": 7, "mechanical": 3, "ebike": 4, "is_renting": "OUI", "is_returning": "OUI", "duedate": "2024-01-12T12:21:49+00:00", "coordonnees_geo": {"lon": 2.397253782195704, "lat": 48.83761417037952}, "nom_arrondissement_communes": "Paris", "code_insee_commune": null}, {"stationcode": "8034", "name": "Berri - Haussmann", "is_installed": "OUI", "capacity": 35, "numdocksavailable": 4, "numbikesavailable": 30, "mechanical": 13, "ebike": 17, "is_renting": "OUI", "is_returning": "OUI", "duedate": "2024-01-12T12:27:27+00:00", "coordonnees_geo": {"lon": 2.3082953318953514, "lat": 48.874746047357135}, "nom_arrondissement_communes": "Paris", "code_insee_commune": null}, {"stationcode": "11047", "name": "Amelot - Saint-S\u00e9bastien", "is_installed": "OUI", "capacity": 30, "numdocksavailable": 2, "numbikesavailable": 26, "mechanical": 20, "ebike": 6, "is_renting": "OUI", "is_returning": "OUI", "duedate": "2024-01-12T12:30:09+00:00", "coordonnees_geo": {"lon": 2.3677996181077, "lat": 48.861142162761}, "nom_arrondissement_communes": "Paris", "code_insee_commune": null}, {"stationcode": "43401", "name": "Gare RER - Canadiens", "is_installed": "OUI", "capacity": 45, "numdocksavailable": 36, "numbikesavailable": 7, "mechanical": 2, "ebike": 5, "is_renting": "OUI", "is_returning": "OUI", "duedate": "2024-01-12T12:26:07+00:00", "coordonnees_geo": {"lon": 2.464176752459464, "lat": 48.81995307955795}, "nom_arrondissement_communes": "Joinville-le-Pont", "code_insee_commune": null}, {"stationcode": "17030", "name": "Pereire - Rennequin", "is_installed": "OUI", "capacity": 23, "numdocksavailable": 20, "numbikesavailable": 2, "mechanical": 0, "ebike": 2, "is_renting": "OUI", "is_returning": "OUI", "duedate": "2024-01-12T12:28:34+00:00", "coordonnees_geo": {"lon": 2.2952447086572647, "lat": 48.88364782887555}, "nom_arrondissement_communes": "Paris", "code_insee_commune": null}, {"stationcode": "11027", "name": "Saint-Ambroise - Parmentier", "is_installed": "OUI", "capacity": 38, "numdocksavailable": 36, "numbikesavailable": 0, "mechanical": 0, "ebike": 0, "is_renting": "OUI", "is_returning": "OUI", "duedate": "2024-01-12T12:28:31+00:00", "coordonnees_geo": {"lon": 2.3772348091006, "lat": 48.862147844548}, "nom_arrondissement_communes": "Paris", "code_insee_commune": null}, {"stationcode": "31022", "name": "Mairie de Montreuil", "is_installed": "OUI", "capacity": 52, "numdocksavailable": 46, "numbikesavailable": 6, "mechanical": 2, "ebike": 4, "is_renting": "OUI", "is_returning": "OUI", "duedate": "2024-01-12T12:29:33+00:00", "coordonnees_geo": {"lon": 2.440614402294159, "lat": 48.86131452758348}, "nom_arrondissement_communes": "Montreuil", "code_insee_commune": null}, {"stationcode": "19101", "name": "Square Simon Bolivar", "is_installed": "OUI", "capacity": 24, "numdocksavailable": 21, "numbikesavailable": 2, "mechanical": 0, "ebike": 2, "is_renting": "OUI", "is_returning": "OUI", "duedate": "2024-01-12T12:29:42+00:00", "coordonnees_geo": {"lon": 2.3826304078102116, "lat": 48.8750898883217}, "nom_arrondissement_communes": "Paris", "code_insee_commune": null}, {"stationcode": "46002", "name": "Rouget de Lisle", "is_installed": "OUI", "capacity": 35, "numdocksavailable": 4, "numbikesavailable": 30, "mechanical": 8, "ebike": 22, "is_renting": "OUI", "is_returning": "OUI", "duedate": "2024-01-12T12:28:34+00:00", "coordonnees_geo": {"lon": 2.4071189761161804, "lat": 48.764615483395254}, "nom_arrondissement_communes": "Choisy-le-Roi", "code_insee_commune": null}, {"stationcode": "18003", "name": "Cimeti\u00e8re de Montmartre", "is_installed": "OUI", "capacity": 43, "numdocksavailable": 34, "numbikesavailable": 4, "mechanical": 3, "ebike": 1, "is_renting": "OUI", "is_returning": "OUI", "duedate": "2024-01-12T12:27:28+00:00", "coordonnees_geo": {"lon": 2.3328901827335, "lat": 48.886472466142}, "nom_arrondissement_communes": "Paris", "code_insee_commune": null}, {"stationcode": "11113", "name": "Richard Lenoir - Republique", "is_installed": "OUI", "capacity": 58, "numdocksavailable": 53, "numbikesavailable": 4, "mechanical": 2, "ebike": 2, "is_renting": "OUI", "is_returning": "OUI", "duedate": "2024-01-12T12:30:04+00:00", "coordonnees_geo": {"lon": 2.3692541, "lat": 48.8667175}, "nom_arrondissement_communes": "Paris", "code_insee_commune": null}, {"stationcode": "10016", "name": "R\u00e9collets - Square Villemin", "is_installed": "OUI", "capacity": 17, "numdocksavailable": 15, "numbikesavailable": 2, "mechanical": 1, "ebike": 1, "is_renting": "OUI", "is_returning": "OUI", "duedate": "2024-01-12T12:24:44+00:00", "coordonnees_geo": {"lon": 2.359801238597928, "lat": 48.875034655883944}, "nom_arrondissement_communes": "Paris", "code_insee_commune": null}, {"stationcode": "31009", "name": "Place Du G\u00e9n\u00e9ral De Gaulle", "is_installed": "OUI", "capacity": 26, "numdocksavailable": 21, "numbikesavailable": 5, "mechanical": 0, "ebike": 5, "is_renting": "OUI", "is_returning": "OUI", "duedate": "2024-01-12T12:26:19+00:00", "coordonnees_geo": {"lon": 2.4329931, "lat": 48.8687591}, "nom_arrondissement_communes": "Montreuil", "code_insee_commune": null}, {"stationcode": "5018", "name": "Mutualit\u00e9", "is_installed": "OUI", "capacity": 37, "numdocksavailable": 3, "numbikesavailable": 33, "mechanical": 29, "ebike": 4, "is_renting": "OUI", "is_returning": "OUI", "duedate": "2024-01-12T12:29:36+00:00", "coordonnees_geo": {"lon": 2.3502873256803, "lat": 48.848225572724}, "nom_arrondissement_communes": "Paris", "code_insee_commune": null}, {"stationcode": "33017", "name": "Anatole France - President Roosevelt", "is_installed": "OUI", "capacity": 29, "numdocksavailable": 26, "numbikesavailable": 1, "mechanical": 0, "ebike": 1, "is_renting": "OUI", "is_returning": "OUI", "duedate": "2024-01-12T12:24:51+00:00", "coordonnees_geo": {"lon": 2.3814103, "lat": 48.9155156}, "nom_arrondissement_communes": "Aubervilliers", "code_insee_commune": null}, {"stationcode": "15042", "name": "Henry Farman", "is_installed": "OUI", "capacity": 16, "numdocksavailable": 1, "numbikesavailable": 15, "mechanical": 10, "ebike": 5, "is_renting": "OUI", "is_returning": "OUI", "duedate": "2024-01-12T12:26:31+00:00", "coordonnees_geo": {"lon": 2.2713854536414146, "lat": 48.83372430280548}, "nom_arrondissement_communes": "Paris", "code_insee_commune": null}, {"stationcode": "18011", "name": "Pajol - Place Herbert", "is_installed": "OUI", "capacity": 39, "numdocksavailable": 15, "numbikesavailable": 21, "mechanical": 10, "ebike": 11, "is_renting": "OUI", "is_returning": "OUI", "duedate": "2024-01-12T12:29:47+00:00", "coordonnees_geo": {"lon": 2.3635598, "lat": 48.8927825}, "nom_arrondissement_communes": "Paris", "code_insee_commune": null}, {"stationcode": "33102", "name": "Gabriel P\u00e9ri - Francisco Ferrer", "is_installed": "OUI", "capacity": 18, "numdocksavailable": 16, "numbikesavailable": 2, "mechanical": 1, "ebike": 1, "is_renting": "OUI", "is_returning": "OUI", "duedate": "2024-01-12T12:22:18+00:00", "coordonnees_geo": {"lon": 2.407338917255402, "lat": 48.88633710236977}, "nom_arrondissement_communes": "Le Pr\u00e9-Saint-Gervais", "code_insee_commune": null}, {"stationcode": "42706", "name": "Roger Salengro - Fontainebleau", "is_installed": "OUI", "capacity": 25, "numdocksavailable": 10, "numbikesavailable": 15, "mechanical": 2, "ebike": 13, "is_renting": "OUI", "is_returning": "OUI", "duedate": "2024-01-12T12:20:29+00:00", "coordonnees_geo": {"lon": 2.3611663654447, "lat": 48.814548697325}, "nom_arrondissement_communes": "Le Kremlin-Bic\u00eatre", "code_insee_commune": null}, {"stationcode": "21212", "name": "Marne - Germain Dardan", "is_installed": "OUI", "capacity": 22, "numdocksavailable": 19, "numbikesavailable": 2, "mechanical": 1, "ebike": 1, "is_renting": "OUI", "is_returning": "OUI", "duedate": "2024-01-12T12:23:32+00:00", "coordonnees_geo": {"lon": 2.3035024699104, "lat": 48.81217465201}, "nom_arrondissement_communes": "Montrouge", "code_insee_commune": null}, {"stationcode": "15104", "name": "H\u00f4pital Europ\u00e9en Georges Pompidou", "is_installed": "OUI", "capacity": 64, "numdocksavailable": 13, "numbikesavailable": 50, "mechanical": 39, "ebike": 11, "is_renting": "OUI", "is_returning": "OUI", "duedate": "2024-01-12T12:27:33+00:00", "coordonnees_geo": {"lon": 2.275374233722687, "lat": 48.83769531916335}, "nom_arrondissement_communes": "Paris", "code_insee_commune": null}, {"stationcode": "14138", "name": "Porte de Vanves", "is_installed": "OUI", "capacity": 32, "numdocksavailable": 31, "numbikesavailable": 0, "mechanical": 0, "ebike": 0, "is_renting": "OUI", "is_returning": "OUI", "duedate": "2024-01-12T12:29:44+00:00", "coordonnees_geo": {"lon": 2.3056878894567, "lat": 48.828012849445}, "nom_arrondissement_communes": "Paris", "code_insee_commune": null}, {"stationcode": "12114", "name": "Victor Hugo - Jeanne Jugan", "is_installed": "OUI", "capacity": 28, "numdocksavailable": 21, "numbikesavailable": 6, "mechanical": 2, "ebike": 4, "is_renting": "OUI", "is_returning": "OUI", "duedate": "2024-01-12T12:28:07+00:00", "coordonnees_geo": {"lon": 2.415081394834419, "lat": 48.843949064031825}, "nom_arrondissement_communes": "Paris", "code_insee_commune": null}, {"stationcode": "41209", "name": "Cimeti\u00e8re de Fontenay-sous-Bois", "is_installed": "OUI", "capacity": 15, "numdocksavailable": 15, "numbikesavailable": 0, "mechanical": 0, "ebike": 0, "is_renting": "OUI", "is_returning": "OUI", "duedate": "2024-01-12T12:20:56+00:00", "coordonnees_geo": {"lon": 2.4787822365760808, "lat": 48.84706173362218}, "nom_arrondissement_communes": "Fontenay-sous-Bois", "code_insee_commune": null}, {"stationcode": "13001", "name": "Port-Royal - H\u00f4pital du Val-de-Gr\u00e2ce", "is_installed": "OUI", "capacity": 18, "numdocksavailable": 5, "numbikesavailable": 12, "mechanical": 6, "ebike": 6, "is_renting": "OUI", "is_returning": "OUI", "duedate": "2024-01-12T12:30:10+00:00", "coordonnees_geo": {"lon": 2.3448138346607, "lat": 48.837668272811}, "nom_arrondissement_communes": "Paris", "code_insee_commune": null}, {"stationcode": "18028", "name": "Championnet - Vauvenargues", "is_installed": "OUI", "capacity": 33, "numdocksavailable": 32, "numbikesavailable": 0, "mechanical": 0, "ebike": 0, "is_renting": "OUI", "is_returning": "OUI", "duedate": "2024-01-12T12:29:05+00:00", "coordonnees_geo": {"lon": 2.3319872841238976, "lat": 48.89401874744574}, "nom_arrondissement_communes": "Paris", "code_insee_commune": null}, {"stationcode": "42014", "name": "Place Marcel Cachin", "is_installed": "OUI", "capacity": 32, "numdocksavailable": 26, "numbikesavailable": 6, "mechanical": 6, "ebike": 0, "is_renting": "OUI", "is_returning": "OUI", "duedate": "2024-01-12T12:26:16+00:00", "coordonnees_geo": {"lon": 2.39090770483017, "lat": 48.81411442356866}, "nom_arrondissement_communes": "Ivry-sur-Seine", "code_insee_commune": null}, {"stationcode": "8017", "name": "Rocher - Laborde", "is_installed": "OUI", "capacity": 65, "numdocksavailable": 27, "numbikesavailable": 37, "mechanical": 22, "ebike": 15, "is_renting": "OUI", "is_returning": "OUI", "duedate": "2024-01-12T12:29:13+00:00", "coordonnees_geo": {"lon": 2.322616316378116, "lat": 48.87590240712654}, "nom_arrondissement_communes": "Paris", "code_insee_commune": null}, {"stationcode": "15054", "name": "Lecourbe - Jean Maridor", "is_installed": "OUI", "capacity": 19, "numdocksavailable": 10, "numbikesavailable": 9, "mechanical": 6, "ebike": 3, "is_renting": "OUI", "is_returning": "OUI", "duedate": "2024-01-12T12:25:22+00:00", "coordonnees_geo": {"lon": 2.2877392172813416, "lat": 48.83796366147599}, "nom_arrondissement_communes": "Paris", "code_insee_commune": null}, {"stationcode": "15106", "name": "Grenelle - Violet", "is_installed": "OUI", "capacity": 35, "numdocksavailable": 15, "numbikesavailable": 17, "mechanical": 16, "ebike": 1, "is_renting": "OUI", "is_returning": "OUI", "duedate": "2024-01-12T12:29:39+00:00", "coordonnees_geo": {"lon": 2.294612042605877, "lat": 48.84993035512154}, "nom_arrondissement_communes": "Paris", "code_insee_commune": null}, {"stationcode": "14008", "name": "Mouton Duvernet - G\u00e9n\u00e9ral Leclerc", "is_installed": "OUI", "capacity": 39, "numdocksavailable": 39, "numbikesavailable": 0, "mechanical": 0, "ebike": 0, "is_renting": "OUI", "is_returning": "OUI", "duedate": "2024-01-12T12:29:06+00:00", "coordonnees_geo": {"lon": 2.3293121159076686, "lat": 48.831632518292565}, "nom_arrondissement_communes": "Paris", "code_insee_commune": null}, {"stationcode": "14106", "name": "Marc Sangnier - Porte de Vanves", "is_installed": "OUI", "capacity": 21, "numdocksavailable": 20, "numbikesavailable": 1, "mechanical": 0, "ebike": 1, "is_renting": "OUI", "is_returning": "OUI", "duedate": "2024-01-12T12:22:49+00:00", "coordonnees_geo": {"lon": 2.3107116669416428, "lat": 48.825218683556734}, "nom_arrondissement_communes": "Paris", "code_insee_commune": null}, {"stationcode": "18046", "name": "Etienne Jodelle - Saint Ouen", "is_installed": "OUI", "capacity": 33, "numdocksavailable": 26, "numbikesavailable": 7, "mechanical": 3, "ebike": 4, "is_renting": "OUI", "is_returning": "OUI", "duedate": "2024-01-12T12:26:14+00:00", "coordonnees_geo": {"lon": 2.326124420314341, "lat": 48.88794016394694}, "nom_arrondissement_communes": "Paris", "code_insee_commune": null}, {"stationcode": "31102", "name": "Boissi\u00e8re - Etienne Dolet", "is_installed": "OUI", "capacity": 21, "numdocksavailable": 21, "numbikesavailable": 0, "mechanical": 0, "ebike": 0, "is_renting": "OUI", "is_returning": "OUI", "duedate": "2024-01-12T12:28:53+00:00", "coordonnees_geo": {"lon": 2.4677312, "lat": 48.876111}, "nom_arrondissement_communes": "Montreuil", "code_insee_commune": null}, {"stationcode": "2111", "name": "Chabanais - Petits Champs", "is_installed": "OUI", "capacity": 30, "numdocksavailable": 3, "numbikesavailable": 27, "mechanical": 14, "ebike": 13, "is_renting": "OUI", "is_returning": "OUI", "duedate": "2024-01-12T12:28:29+00:00", "coordonnees_geo": {"lon": 2.336716018617153, "lat": 48.86703740186721}, "nom_arrondissement_communes": "Paris", "code_insee_commune": null}, {"stationcode": "8054", "name": "Bertie Albrecht - Hoche", "is_installed": "OUI", "capacity": 32, "numdocksavailable": 12, "numbikesavailable": 18, "mechanical": 7, "ebike": 11, "is_renting": "OUI", "is_returning": "OUI", "duedate": "2024-01-12T12:30:11+00:00", "coordonnees_geo": {"lon": 2.301303138307601, "lat": 48.87614039826388}, "nom_arrondissement_communes": "Paris", "code_insee_commune": null}, {"stationcode": "15109", "name": "Cevennes - Bergers", "is_installed": "OUI", "capacity": 29, "numdocksavailable": 16, "numbikesavailable": 13, "mechanical": 11, "ebike": 2, "is_renting": "OUI", "is_returning": "OUI", "duedate": "2024-01-12T12:29:56+00:00", "coordonnees_geo": {"lon": 2.281037718057633, "lat": 48.84240765130395}, "nom_arrondissement_communes": "Paris", "code_insee_commune": null}, {"stationcode": "21209", "name": "Moli\u00e8re - R\u00e9publique", "is_installed": "OUI", "capacity": 30, "numdocksavailable": 26, "numbikesavailable": 3, "mechanical": 2, "ebike": 1, "is_renting": "OUI", "is_returning": "OUI", "duedate": "2024-01-12T12:26:51+00:00", "coordonnees_geo": {"lon": 2.3145738624448158, "lat": 48.81111581390707}, "nom_arrondissement_communes": "Montrouge", "code_insee_commune": null}, {"stationcode": "35010", "name": "Hoche - Jean Lolive", "is_installed": "OUI", "capacity": 24, "numdocksavailable": 21, "numbikesavailable": 3, "mechanical": 1, "ebike": 2, "is_renting": "OUI", "is_returning": "OUI", "duedate": "2024-01-12T12:27:16+00:00", "coordonnees_geo": {"lon": 2.402843534946442, "lat": 48.89110239200789}, "nom_arrondissement_communes": "Pantin", "code_insee_commune": null}, {"stationcode": "10042", "name": "Enghien - Faubourg Poissonni\u00e8re", "is_installed": "OUI", "capacity": 33, "numdocksavailable": 23, "numbikesavailable": 9, "mechanical": 8, "ebike": 1, "is_renting": "OUI", "is_returning": "OUI", "duedate": "2024-01-12T12:28:17+00:00", "coordonnees_geo": {"lon": 2.3483952362828, "lat": 48.872420063053}, "nom_arrondissement_communes": "Paris", "code_insee_commune": null}, {"stationcode": "17203", "name": "Place de la Porte de Champeret", "is_installed": "NON", "capacity": 0, "numdocksavailable": 0, "numbikesavailable": 0, "mechanical": 0, "ebike": 0, "is_renting": "NON", "is_returning": "NON", "duedate": "2023-07-25T10:08:24+00:00", "coordonnees_geo": {"lon": 2.2917001576821, "lat": 48.886062068226}, "nom_arrondissement_communes": "Paris", "code_insee_commune": null}, {"stationcode": "14124", "name": "David Weill - Parc Montsouris", "is_installed": "OUI", "capacity": 22, "numdocksavailable": 21, "numbikesavailable": 1, "mechanical": 0, "ebike": 1, "is_renting": "OUI", "is_returning": "OUI", "duedate": "2024-01-12T12:27:52+00:00", "coordonnees_geo": {"lon": 2.333725690841675, "lat": 48.821092374256104}, "nom_arrondissement_communes": "Paris", "code_insee_commune": null}, {"stationcode": "15133", "name": "Saint Lambert - Blomet", "is_installed": "OUI", "capacity": 27, "numdocksavailable": 20, "numbikesavailable": 5, "mechanical": 3, "ebike": 2, "is_renting": "OUI", "is_returning": "OUI", "duedate": "2024-01-12T12:28:43+00:00", "coordonnees_geo": {"lon": 2.2930556908249855, "lat": 48.83659148147257}, "nom_arrondissement_communes": "Paris", "code_insee_commune": null}, {"stationcode": "15110", "name": "Place Robert Guillemard", "is_installed": "OUI", "capacity": 24, "numdocksavailable": 1, "numbikesavailable": 22, "mechanical": 16, "ebike": 6, "is_renting": "OUI", "is_returning": "OUI", "duedate": "2024-01-12T12:28:13+00:00", "coordonnees_geo": {"lon": 2.2811267160086417, "lat": 48.836191728066666}, "nom_arrondissement_communes": "Paris", "code_insee_commune": null}, {"stationcode": "44013", "name": "Edouard Tremblay - Julian Grimaux", "is_installed": "OUI", "capacity": 30, "numdocksavailable": 23, "numbikesavailable": 4, "mechanical": 1, "ebike": 3, "is_renting": "OUI", "is_returning": "OUI", "duedate": "2024-01-12T12:28:43+00:00", "coordonnees_geo": {"lon": 2.3723508417606, "lat": 48.781383825117}, "nom_arrondissement_communes": "Vitry-sur-Seine", "code_insee_commune": null}]}