{"total_count": 1464, "results": [{"stationcode": "16107", "name": "Benjamin Godard - Victor Hugo", "is_installed": "OUI", "capacity": 35, "numdocksavailable": 16, "numbikesavailable": 19, "mechanical": 5, "ebike": 14, "is_renting": "OUI", "is_returning": "OUI", "duedate": "2024-03-01T11:20:45+00:00", "coordonnees_geo": {"lon": 2.275725, "lat": 48.865983}, "nom_arrondissement_communes": "Paris", "code_insee_commune": null}, {"stationcode": "31104", "name": "Mairie de Rosny-sous-Bois", "is_installed": "OUI", "capacity": 30, "numdocksavailable": 3, "numbikesavailable": 25, "mechanical": 8, "ebike": 17, "is_renting": "OUI", "is_returning": "OUI", "duedate": "2024-03-01T11:20:54+00:00", "coordonnees_geo": {"lon": 2.4865807592869, "lat": 48.871256519012}, "nom_arrondissement_communes": "Rosny-sous-Bois", "code_insee_commune": null}, {"stationcode": "9020", "name": "Toudouze - Clauzel", "is_installed": "OUI", "capacity": 21, "numdocksavailable": 17, "numbikesavailable": 4, "mechanical": 2, "ebike": 2, "is_renting": "OUI", "is_returning": "OUI", "duedate": "2024-03-01T11:18:17+00:00", "coordonnees_geo": {"lon": 2.3373600840568547, "lat": 48.87929591733507}, "nom_arrondissement_communes": "Paris", "code_insee_commune": null}, {"stationcode": "12109", "name": "Mairie du 12\u00e8me", "is_installed": "OUI", "capacity": 30, "numdocksavailable": 21, "numbikesavailable": 7, "mechanical": 4, "ebike": 3, "is_renting": "OUI", "is_returning": "OUI", "duedate": "2024-03-01T11:21:31+00:00", "coordonnees_geo": {"lon": 2.3875549435616, "lat": 48.840855311763}, "nom_arrondissement_communes": "Paris", "code_insee_commune": null}, {"stationcode": "14014", "name": "Jourdan - Stade Charl\u00e9ty", "is_installed": "OUI", "capacity": 60, "numdocksavailable": 30, "numbikesavailable": 23, "mechanical": 14, "ebike": 9, "is_renting": "OUI", "is_returning": "OUI", "duedate": "2024-03-01T11:21:09+00:00", "coordonnees_geo": {"lon": 2.3433353751898, "lat": 48.819428333369}, "nom_arrondissement_communes": "Paris", "code_insee_commune": null}, {"stationcode": "11104", "name": "Charonne - Robert et Sonia Delaunay", "is_installed": "OUI", "capacity": 20, "numdocksavailable": 19, "numbikesavailable": 0, "mechanical": 0, "ebike": 0, "is_renting": "OUI", "is_returning": "OUI", "duedate": "2024-03-01T11:20:13+00:00", "coordonnees_geo": {"lon": 2.3925706744194, "lat": 48.855907555969}, "nom_arrondissement_communes": "Paris", "code_insee_commune": null}, {"stationcode": "8026", "name": "Messine - Place Du P\u00e9rou", "is_installed": "OUI", "capacity": 12, "numdocksavailable": 7, "numbikesavailable": 5, "mechanical": 3, "ebike": 2, "is_renting": "OUI", "is_returning": "OUI", "duedate": "2024-03-01T11:20:57+00:00", "coordonnees_geo": {"lon": 2.315508019010038, "lat": 48.875448033960744}, "nom_arrondissement_communes": "Paris", "code_insee_commune": null}, {"stationcode": "13007", "name": "Le Brun - Gobelins", "is_installed": "OUI", "capacity": 48, "numdocksavailable": 45, "numbikesavailable": 3, "mechanical": 2, "ebike": 1, "is_renting": "OUI", "is_returning": "OUI", "duedate": "2024-03-01T11:21:12+00:00", "coordonnees_geo": {"lon": 2.3534681351338, "lat": 48.835092787824}, "nom_arrondissement_communes": "Paris", "code_insee_commune": null}, {"stationcode": "6003", "name": "Saint-Sulpice", "is_installed": "OUI", "capacity": 21, "numdocksavailable": 0, "numbikesavailable": 21, "mechanical": 5, "ebike": 16, "is_renting": "OUI", "is_returning": "OUI", "duedate": "2024-03-01T11:20:09+00:00", "coordonnees_geo": {"lon": 2.3308077827095985, "lat": 48.85165383178419}, "nom_arrondissement_communes": "Paris", "code_insee_commune": null}, {"stationcode": "7002", "name": "Vaneau - S\u00e8vres", "is_installed": "OUI", "capacity": 35, "numdocksavailable": 16, "numbikesavailable": 18, "mechanical": 8, "ebike": 10, "is_renting": "OUI", "is_returning": "OUI", "duedate": "2024-03-01T11:21:30+00:00", "coordonnees_geo": {"lon": 2.3204218259346, "lat": 48.848563233059}, "nom_arrondissement_communes": "Paris", "code_insee_commune": null}, {"stationcode": "5110", "name": "Lac\u00e9p\u00e8de - Monge", "is_installed": "OUI", "capacity": 23, "numdocksavailable": 21, "numbikesavailable": 2, "mechanical": 0, "ebike": 2, "is_renting": "OUI", "is_returning": "OUI", "duedate": "2024-03-01T11:20:53+00:00", "coordonnees_geo": {"lon": 2.3519663885235786, "lat": 48.84389286531899}, "nom_arrondissement_communes": "Paris", "code_insee_commune": null}, {"stationcode": "42016", "name": "Pierre et Marie Curie - Maurice Thorez", "is_installed": "OUI", "capacity": 27, "numdocksavailable": 25, "numbikesavailable": 1, "mechanical": 0, "ebike": 1, "is_renting": "OUI", "is_returning": "OUI", "duedate": "2024-03-01T11:13:16+00:00", "coordonnees_geo": {"lon": 2.376804985105991, "lat": 48.81580226360801}, "nom_arrondissement_communes": "Ivry-sur-Seine", "code_insee_commune": null}, {"stationcode": "6021", "name": "Beaux-Arts - Bonaparte", "is_installed": "OUI", "capacity": 20, "numdocksavailable": 2, "numbikesavailable": 17, "mechanical": 8, "ebike": 9, "is_renting": "OUI", "is_returning": "OUI", "duedate": "2024-03-01T11:20:37+00:00", "coordonnees_geo": {"lon": 2.334851883351803, "lat": 48.856451985395786}, "nom_arrondissement_communes": "Paris", "code_insee_commune": null}, {"stationcode": "21010", "name": "Silly - Galli\u00e9ni", "is_installed": "OUI", "capacity": 25, "numdocksavailable": 19, "numbikesavailable": 6, "mechanical": 3, "ebike": 3, "is_renting": "OUI", "is_returning": "OUI", "duedate": "2024-03-01T11:20:46+00:00", "coordonnees_geo": {"lon": 2.2325500845909, "lat": 48.835583838706}, "nom_arrondissement_communes": "Boulogne-Billancourt", "code_insee_commune": null}, {"stationcode": "25006", "name": "Place Nelson Mandela", "is_installed": "OUI", "capacity": 22, "numdocksavailable": 17, "numbikesavailable": 5, "mechanical": 2, "ebike": 3, "is_renting": "OUI", "is_returning": "OUI", "duedate": "2024-03-01T11:18:00+00:00", "coordonnees_geo": {"lon": 2.1961666225454, "lat": 48.862453313908}, "nom_arrondissement_communes": "Rueil-Malmaison", "code_insee_commune": null}, {"stationcode": "30002", "name": "Jean Rostand - Paul Vaillant Couturier", "is_installed": "OUI", "capacity": 40, "numdocksavailable": 19, "numbikesavailable": 19, "mechanical": 2, "ebike": 17, "is_renting": "OUI", "is_returning": "OUI", "duedate": "2024-03-01T11:19:15+00:00", "coordonnees_geo": {"lon": 2.4530601033354, "lat": 48.908168131015}, "nom_arrondissement_communes": "Bobigny", "code_insee_commune": null}, {"stationcode": "7003", "name": "Square Boucicaut", "is_installed": "OUI", "capacity": 60, "numdocksavailable": 0, "numbikesavailable": 59, "mechanical": 30, "ebike": 29, "is_renting": "OUI", "is_returning": "OUI", "duedate": "2024-03-01T11:19:32+00:00", "coordonnees_geo": {"lon": 2.325061820447445, "lat": 48.851296433665276}, "nom_arrondissement_communes": "Paris", "code_insee_commune": null}, {"stationcode": "17026", "name": "Jouffroy d'Abbans - Wagram", "is_installed": "OUI", "capacity": 40, "numdocksavailable": 31, "numbikesavailable": 7, "mechanical": 5, "ebike": 2, "is_renting": "OUI", "is_returning": "OUI", "duedate": "2024-03-01T11:16:06+00:00", "coordonnees_geo": {"lon": 2.301132157445, "lat": 48.881973298352}, "nom_arrondissement_communes": "Paris", "code_insee_commune": null}, {"stationcode": "11025", "name": "Froment - Br\u00e9guet", "is_installed": "OUI", "capacity": 43, "numdocksavailable": 6, "numbikesavailable": 33, "mechanical": 22, "ebike": 11, "is_renting": "OUI", "is_returning": "OUI", "duedate": "2024-03-01T11:19:47+00:00", "coordonnees_geo": {"lon": 2.37289470306807, "lat": 48.8570414504784}, "nom_arrondissement_communes": "Paris", "code_insee_commune": null}, {"stationcode": "31024", "name": "Romainville - Vaillant-Couturier", "is_installed": "OUI", "capacity": 38, "numdocksavailable": 35, "numbikesavailable": 0, "mechanical": 0, "ebike": 0, "is_renting": "OUI", "is_returning": "OUI", "duedate": "2024-03-01T11:15:44+00:00", "coordonnees_geo": {"lon": 2.446748, "lat": 48.86785}, "nom_arrondissement_communes": "Montreuil", "code_insee_commune": null}, {"stationcode": "19033", "name": "Cambrai - Benjamin Constant", "is_installed": "OUI", "capacity": 43, "numdocksavailable": 26, "numbikesavailable": 13, "mechanical": 8, "ebike": 5, "is_renting": "OUI", "is_returning": "OUI", "duedate": "2024-03-01T11:19:08+00:00", "coordonnees_geo": {"lon": 2.381133802246315, "lat": 48.89594736851349}, "nom_arrondissement_communes": "Paris", "code_insee_commune": null}, {"stationcode": "17025", "name": "Chazelles - Courcelles", "is_installed": "OUI", "capacity": 35, "numdocksavailable": 28, "numbikesavailable": 6, "mechanical": 3, "ebike": 3, "is_renting": "OUI", "is_returning": "OUI", "duedate": "2024-03-01T11:19:32+00:00", "coordonnees_geo": {"lon": 2.3034455627202988, "lat": 48.879406604954}, "nom_arrondissement_communes": "Paris", "code_insee_commune": null}, {"stationcode": "21216", "name": "Louis Lejeune - Barb\u00e8s", "is_installed": "OUI", "capacity": 25, "numdocksavailable": 24, "numbikesavailable": 0, "mechanical": 0, "ebike": 0, "is_renting": "OUI", "is_returning": "OUI", "duedate": "2024-03-01T11:17:24+00:00", "coordonnees_geo": {"lon": 2.3267009854316716, "lat": 48.81807418981508}, "nom_arrondissement_communes": "Montrouge", "code_insee_commune": null}, {"stationcode": "22207", "name": "Rond-point du Dr Albert Schweitzer", "is_installed": "OUI", "capacity": 22, "numdocksavailable": 16, "numbikesavailable": 5, "mechanical": 0, "ebike": 5, "is_renting": "OUI", "is_returning": "OUI", "duedate": "2024-03-01T11:20:43+00:00", "coordonnees_geo": {"lon": 2.3143940046429634, "lat": 48.78980918988166}, "nom_arrondissement_communes": "Bagneux", "code_insee_commune": null}, {"stationcode": "13030", "name": "Italie - Tolbiac", "is_installed": "OUI", "capacity": 21, "numdocksavailable": 20, "numbikesavailable": 1, "mechanical": 1, "ebike": 0, "is_renting": "OUI", "is_returning": "OUI", "duedate": "2024-03-01T11:18:23+00:00", "coordonnees_geo": {"lon": 2.3576171323657036, "lat": 48.82557229464416}, "nom_arrondissement_communes": "Paris", "code_insee_commune": null}, {"stationcode": "44017", "name": "Jules Guesde - Pont du Port \u00e0 l'Anglais", "is_installed": "OUI", "capacity": 30, "numdocksavailable": 13, "numbikesavailable": 16, "mechanical": 9, "ebike": 7, "is_renting": "OUI", "is_returning": "OUI", "duedate": "2024-03-01T11:19:38+00:00", "coordonnees_geo": {"lon": 2.417212128639221, "lat": 48.79628807093802}, "nom_arrondissement_communes": "Vitry-sur-Seine", "code_insee_commune": null}, {"stationcode": "8103", "name": "Artois - Berri", "is_installed": "OUI", "capacity": 23, "numdocksavailable": 9, "numbikesavailable": 14, "mechanical": 4, "ebike": 10, "is_renting": "OUI", "is_returning": "OUI", "duedate": "2024-03-01T11:21:32+00:00", "coordonnees_geo": {"lon": 2.3064258322119713, "lat": 48.87393521240818}, "nom_arrondissement_communes": "Paris", "code_insee_commune": null}, {"stationcode": "8048", "name": "Marceau - Chaillot", "is_installed": "OUI", "capacity": 21, "numdocksavailable": 1, "numbikesavailable": 20, "mechanical": 3, "ebike": 17, "is_renting": "OUI", "is_returning": "OUI", "duedate": "2024-03-01T11:19:32+00:00", "coordonnees_geo": {"lon": 2.2986030816809, "lat": 48.868834023334}, "nom_arrondissement_communes": "Paris", "code_insee_commune": null}, {"stationcode": "14013", "name": "Liard - Amiral Mouchez", "is_installed": "OUI", "capacity": 14, "numdocksavailable": 12, "numbikesavailable": 2, "mechanical": 2, "ebike": 0, "is_renting": "OUI", "is_returning": "OUI", "duedate": "2024-03-01T11:19:05+00:00", "coordonnees_geo": {"lon": 2.342167, "lat": 48.8214169}, "nom_arrondissement_communes": "Paris", "code_insee_commune": null}, {"stationcode": "13118", "name": "Regnault - Patay", "is_installed": "OUI", "capacity": 63, "numdocksavailable": 19, "numbikesavailable": 44, "mechanical": 32, "ebike": 12, "is_renting": "OUI", "is_returning": "OUI", "duedate": "2024-03-01T11:20:27+00:00", "coordonnees_geo": {"lon": 2.377065159380436, "lat": 48.82435782216384}, "nom_arrondissement_communes": "Paris", "code_insee_commune": null}, {"stationcode": "18111", "name": "F\u00e9lix Ziem - Armand Gauthier", "is_installed": "OUI", "capacity": 25, "numdocksavailable": 23, "numbikesavailable": 1, "mechanical": 0, "ebike": 1, "is_renting": "OUI", "is_returning": "OUI", "duedate": "2024-03-01T11:20:27+00:00", "coordonnees_geo": {"lon": 2.333393658804396, "lat": 48.88949630486821}, "nom_arrondissement_communes": "Paris", "code_insee_commune": null}, {"stationcode": "9002", "name": "Abbeville - Faubourg Poissonni\u00e8re", "is_installed": "OUI", "capacity": 14, "numdocksavailable": 8, "numbikesavailable": 4, "mechanical": 3, "ebike": 1, "is_renting": "OUI", "is_returning": "OUI", "duedate": "2024-03-01T11:21:12+00:00", "coordonnees_geo": {"lon": 2.349147, "lat": 48.879223}, "nom_arrondissement_communes": "Paris", "code_insee_commune": null}, {"stationcode": "9014", "name": "Faubourg Montmartre - La Fayette", "is_installed": "OUI", "capacity": 35, "numdocksavailable": 5, "numbikesavailable": 30, "mechanical": 12, "ebike": 18, "is_renting": "OUI", "is_returning": "OUI", "duedate": "2024-03-01T11:20:01+00:00", "coordonnees_geo": {"lon": 2.340853661298752, "lat": 48.87525454905335}, "nom_arrondissement_communes": "Paris", "code_insee_commune": null}, {"stationcode": "9001", "name": "Bellefond - Poissonni\u00e8re", "is_installed": "OUI", "capacity": 17, "numdocksavailable": 10, "numbikesavailable": 6, "mechanical": 2, "ebike": 4, "is_renting": "OUI", "is_returning": "OUI", "duedate": "2024-03-01T11:19:38+00:00", "coordonnees_geo": {"lon": 2.348463758826256, "lat": 48.87759897050706}, "nom_arrondissement_communes": "Paris", "code_insee_commune": null}, {"stationcode": "8016", "name": "Square Louis XVI", "is_installed": "OUI", "capacity": 29, "numdocksavailable": 0, "numbikesavailable": 27, "mechanical": 14, "ebike": 13, "is_renting": "OUI", "is_returning": "OUI", "duedate": "2024-03-01T11:21:04+00:00", "coordonnees_geo": {"lon": 2.323658830743138, "lat": 48.87320440102894}, "nom_arrondissement_communes": "Paris", "code_insee_commune": null}, {"stationcode": "10162", "name": "Alexandre Parodi - Quai de Valmy", "is_installed": "OUI", "capacity": 24, "numdocksavailable": 20, "numbikesavailable": 3, "mechanical": 1, "ebike": 2, "is_renting": "OUI", "is_returning": "OUI", "duedate": "2024-03-01T11:20:43+00:00", "coordonnees_geo": {"lon": 2.366596162319184, "lat": 48.87935941942529}, "nom_arrondissement_communes": "Paris", "code_insee_commune": null}, {"stationcode": "10029", "name": "Dunkerque - Rocroy", "is_installed": "OUI", "capacity": 24, "numdocksavailable": 23, "numbikesavailable": 1, "mechanical": 0, "ebike": 1, "is_renting": "OUI", "is_returning": "OUI", "duedate": "2024-03-01T11:12:32+00:00", "coordonnees_geo": {"lon": 2.351464, "lat": 48.880726}, "nom_arrondissement_communes": "Paris", "code_insee_commune": null}, {"stationcode": "5005", "name": "Gay Lussac - Saint-Jacques", "is_installed": "OUI", "capacity": 24, "numdocksavailable": 0, "numbikesavailable": 23, "mechanical": 0, "ebike": 23, "is_renting": "OUI", "is_returning": "OUI", "duedate": "2024-03-01T11:19:39+00:00", "coordonnees_geo": {"lon": 2.341923944866407, "lat": 48.844730256132095}, "nom_arrondissement_communes": "Paris", "code_insee_commune": null}, {"stationcode": "7011", "name": "Las Cases - Bourgogne", "is_installed": "OUI", "capacity": 22, "numdocksavailable": 6, "numbikesavailable": 16, "mechanical": 11, "ebike": 5, "is_renting": "OUI", "is_returning": "OUI", "duedate": "2024-03-01T11:20:11+00:00", "coordonnees_geo": {"lon": 2.3185685276985, "lat": 48.859091104741}, "nom_arrondissement_communes": "Paris", "code_insee_commune": null}, {"stationcode": "9106", "name": "Boudreau - Auber", "is_installed": "OUI", "capacity": 14, "numdocksavailable": 3, "numbikesavailable": 10, "mechanical": 6, "ebike": 4, "is_renting": "OUI", "is_returning": "OUI", "duedate": "2024-03-01T11:21:01+00:00", "coordonnees_geo": {"lon": 2.329423, "lat": 48.87219}, "nom_arrondissement_communes": "Paris", "code_insee_commune": null}, {"stationcode": "17040", "name": "Pereire - Ternes", "is_installed": "OUI", "capacity": 48, "numdocksavailable": 45, "numbikesavailable": 3, "mechanical": 0, "ebike": 3, "is_renting": "OUI", "is_returning": "OUI", "duedate": "2024-03-01T11:21:00+00:00", "coordonnees_geo": {"lon": 2.288012132048607, "lat": 48.87973954830735}, "nom_arrondissement_communes": "Paris", "code_insee_commune": null}, {"stationcode": "1001", "name": "Quai de l'Horloge - Pont Neuf", "is_installed": "OUI", "capacity": 17, "numdocksavailable": 1, "numbikesavailable": 15, "mechanical": 14, "ebike": 1, "is_renting": "OUI", "is_returning": "OUI", "duedate": "2024-03-01T11:21:26+00:00", "coordonnees_geo": {"lon": 2.3417982839439, "lat": 48.857058739111}, "nom_arrondissement_communes": "Paris", "code_insee_commune": null}, {"stationcode": "31103", "name": "Gare Rosny-Bois-Perrier", "is_installed": "OUI", "capacity": 36, "numdocksavailable": 4, "numbikesavailable": 22, "mechanical": 6, "ebike": 16, "is_renting": "OUI", "is_returning": "OUI", "duedate": "2024-03-01T11:19:13+00:00", "coordonnees_geo": {"lon": 2.480436824262142, "lat": 48.88115023337061}, "nom_arrondissement_communes": "Rosny-sous-Bois", "code_insee_commune": null}, {"stationcode": "31706", "name": "Ch\u00e2teau - R\u00e9publique", "is_installed": "OUI", "capacity": 26, "numdocksavailable": 23, "numbikesavailable": 1, "mechanical": 0, "ebike": 1, "is_renting": "OUI", "is_returning": "OUI", "duedate": "2024-03-01T11:15:29+00:00", "coordonnees_geo": {"lon": 2.4155035614967, "lat": 48.862923800596}, "nom_arrondissement_communes": "Bagnolet", "code_insee_commune": null}, {"stationcode": "22409", "name": "Henri Barbusse - Stalingrad", "is_installed": "OUI", "capacity": 16, "numdocksavailable": 16, "numbikesavailable": 0, "mechanical": 0, "ebike": 0, "is_renting": "OUI", "is_returning": "OUI", "duedate": "2024-03-01T11:19:39+00:00", "coordonnees_geo": {"lon": 2.2872862592339516, "lat": 48.814183748660554}, "nom_arrondissement_communes": "Malakoff", "code_insee_commune": null}, {"stationcode": "5020", "name": "Institut du Monde Arabe - Saint-Germain", "is_installed": "OUI", "capacity": 40, "numdocksavailable": 6, "numbikesavailable": 34, "mechanical": 18, "ebike": 16, "is_renting": "OUI", "is_returning": "OUI", "duedate": "2024-03-01T11:21:06+00:00", "coordonnees_geo": {"lon": 2.3558086529374, "lat": 48.849063299501}, "nom_arrondissement_communes": "Paris", "code_insee_commune": null}, {"stationcode": "19015", "name": "Thionville - Ourcq", "is_installed": "OUI", "capacity": 24, "numdocksavailable": 18, "numbikesavailable": 4, "mechanical": 1, "ebike": 3, "is_renting": "OUI", "is_returning": "OUI", "duedate": "2024-03-01T11:21:30+00:00", "coordonnees_geo": {"lon": 2.3833653330802917, "lat": 48.88917613743794}, "nom_arrondissement_communes": "Paris", "code_insee_commune": null}, {"stationcode": "19003", "name": "Quai de la Seine", "is_installed": "OUI", "capacity": 24, "numdocksavailable": 22, "numbikesavailable": 1, "mechanical": 1, "ebike": 0, "is_renting": "OUI", "is_returning": "OUI", "duedate": "2024-03-01T11:15:43+00:00", "coordonnees_geo": {"lon": 2.3703941702842717, "lat": 48.884492238407525}, "nom_arrondissement_communes": "Paris", "code_insee_commune": null}, {"stationcode": "16026", "name": "Ranelagh - Mozart", "is_installed": "OUI", "capacity": 23, "numdocksavailable": 12, "numbikesavailable": 10, "mechanical": 5, "ebike": 5, "is_renting": "OUI", "is_returning": "OUI", "duedate": "2024-03-01T11:18:28+00:00", "coordonnees_geo": {"lon": 2.2704418, "lat": 48.8554439}, "nom_arrondissement_communes": "Paris", "code_insee_commune": null}, {"stationcode": "9028", "name": "Moncey - Blanche", "is_installed": "OUI", "capacity": 17, "numdocksavailable": 11, "numbikesavailable": 3, "mechanical": 1, "ebike": 2, "is_renting": "OUI", "is_returning": "OUI", "duedate": "2024-03-01T11:21:25+00:00", "coordonnees_geo": {"lon": 2.3310810327529907, "lat": 48.88006587474148}, "nom_arrondissement_communes": "Paris", "code_insee_commune": null}, {"stationcode": "26002", "name": "Redoute - Les Courtilles", "is_installed": "OUI", "capacity": 40, "numdocksavailable": 23, "numbikesavailable": 15, "mechanical": 11, "ebike": 4, "is_renting": "OUI", "is_returning": "OUI", "duedate": "2024-03-01T11:18:55+00:00", "coordonnees_geo": {"lon": 2.2836696356535, "lat": 48.929867194519}, "nom_arrondissement_communes": "Asni\u00e8res-sur-Seine", "code_insee_commune": null}, {"stationcode": "17043", "name": "Belidor - Gouvion-Saint-Cyr", "is_installed": "OUI", "capacity": 39, "numdocksavailable": 34, "numbikesavailable": 5, "mechanical": 4, "ebike": 1, "is_renting": "OUI", "is_returning": "OUI", "duedate": "2024-03-01T11:17:33+00:00", "coordonnees_geo": {"lon": 2.2854680567979813, "lat": 48.88022154052015}, "nom_arrondissement_communes": "Paris", "code_insee_commune": null}, {"stationcode": "19026", "name": "Place de Rhin et Danube", "is_installed": "OUI", "capacity": 17, "numdocksavailable": 17, "numbikesavailable": 0, "mechanical": 0, "ebike": 0, "is_renting": "OUI", "is_returning": "OUI", "duedate": "2024-03-01T11:16:43+00:00", "coordonnees_geo": {"lon": 2.392586767673493, "lat": 48.88192765861766}, "nom_arrondissement_communes": "Paris", "code_insee_commune": null}, {"stationcode": "16039", "name": "Exelmans - Versailles", "is_installed": "OUI", "capacity": 49, "numdocksavailable": 36, "numbikesavailable": 12, "mechanical": 7, "ebike": 5, "is_renting": "OUI", "is_returning": "OUI", "duedate": "2024-03-01T11:18:57+00:00", "coordonnees_geo": {"lon": 2.264390252530575, "lat": 48.84097491091973}, "nom_arrondissement_communes": "Paris", "code_insee_commune": null}, {"stationcode": "11002", "name": "Roquette - Thi\u00e9r\u00e9", "is_installed": "OUI", "capacity": 23, "numdocksavailable": 4, "numbikesavailable": 19, "mechanical": 12, "ebike": 7, "is_renting": "OUI", "is_returning": "OUI", "duedate": "2024-03-01T11:17:06+00:00", "coordonnees_geo": {"lon": 2.3733686318721463, "lat": 48.85507930579506}, "nom_arrondissement_communes": "Paris", "code_insee_commune": null}, {"stationcode": "11047", "name": "Amelot - Saint-S\u00e9bastien", "is_installed": "OUI", "capacity": 30, "numdocksavailable": 9, "numbikesavailable": 21, "mechanical": 13, "ebike": 8, "is_renting": "OUI", "is_returning": "OUI", "duedate": "2024-03-01T11:20:40+00:00", "coordonnees_geo": {"lon": 2.3677996181077, "lat": 48.861142162761}, "nom_arrondissement_communes": "Paris", "code_insee_commune": null}, {"stationcode": "5032", "name": "Panth\u00e9on - Valette", "is_installed": "OUI", "capacity": 39, "numdocksavailable": 7, "numbikesavailable": 31, "mechanical": 2, "ebike": 29, "is_renting": "OUI", "is_returning": "OUI", "duedate": "2024-03-01T11:21:26+00:00", "coordonnees_geo": {"lon": 2.3464982619671, "lat": 48.847020571652}, "nom_arrondissement_communes": "Paris", "code_insee_commune": null}, {"stationcode": "15067", "name": "Desaix - Edgar Faure", "is_installed": "OUI", "capacity": 12, "numdocksavailable": 7, "numbikesavailable": 5, "mechanical": 5, "ebike": 0, "is_renting": "OUI", "is_returning": "OUI", "duedate": "2024-03-01T11:19:41+00:00", "coordonnees_geo": {"lon": 2.293077029857222, "lat": 48.852804604940296}, "nom_arrondissement_communes": "Paris", "code_insee_commune": null}, {"stationcode": "43401", "name": "Gare RER - Canadiens", "is_installed": "OUI", "capacity": 45, "numdocksavailable": 44, "numbikesavailable": 0, "mechanical": 0, "ebike": 0, "is_renting": "OUI", "is_returning": "OUI", "duedate": "2024-03-01T11:21:11+00:00", "coordonnees_geo": {"lon": 2.464176752459464, "lat": 48.81995307955795}, "nom_arrondissement_communes": "Joinville-le-Pont", "code_insee_commune": null}, {"stationcode": "17030", "name": "Pereire - Rennequin", "is_installed": "OUI", "capacity": 23, "numdocksavailable": 17, "numbikesavailable": 5, "mechanical": 3, "ebike": 2, "is_renting": "OUI", "is_returning": "OUI", "duedate": "2024-03-01T11:16:36+00:00", "coordonnees_geo": {"lon": 2.2952447086572647, "lat": 48.88364782887555}, "nom_arrondissement_communes": "Paris", "code_insee_commune": null}, {"stationcode": "6006", "name": "Notre-Dame-des-Champs - Stanislas", "is_installed": "OUI", "capacity": 19, "numdocksavailable": 4, "numbikesavailable": 15, "mechanical": 11, "ebike": 4, "is_renting": "OUI", "is_returning": "OUI", "duedate": "2024-03-01T11:20:36+00:00", "coordonnees_geo": {"lon": 2.329337755887181, "lat": 48.84479928858768}, "nom_arrondissement_communes": "Paris", "code_insee_commune": null}, {"stationcode": "8010", "name": "Li\u00e8ge - Moscou", "is_installed": "OUI", "capacity": 17, "numdocksavailable": 8, "numbikesavailable": 6, "mechanical": 2, "ebike": 4, "is_renting": "OUI", "is_returning": "OUI", "duedate": "2024-03-01T11:20:15+00:00", "coordonnees_geo": {"lon": 2.3264628, "lat": 48.8795431}, "nom_arrondissement_communes": "Paris", "code_insee_commune": null}, {"stationcode": "46002", "name": "Rouget de Lisle", "is_installed": "OUI", "capacity": 35, "numdocksavailable": 14, "numbikesavailable": 21, "mechanical": 21, "ebike": 0, "is_renting": "OUI", "is_returning": "OUI", "duedate": "2024-03-01T11:21:07+00:00", "coordonnees_geo": {"lon": 2.4071189761161804, "lat": 48.764615483395254}, "nom_arrondissement_communes": "Choisy-le-Roi", "code_insee_commune": null}, {"stationcode": "11113", "name": "Richard Lenoir - Republique", "is_installed": "OUI", "capacity": 58, "numdocksavailable": 32, "numbikesavailable": 24, "mechanical": 22, "ebike": 2, "is_renting": "OUI", "is_returning": "OUI", "duedate": "2024-03-01T11:21:17+00:00", "coordonnees_geo": {"lon": 2.3692541, "lat": 48.8667175}, "nom_arrondissement_communes": "Paris", "code_insee_commune": null}, {"stationcode": "5018", "name": "Mutualit\u00e9", "is_installed": "OUI", "capacity": 37, "numdocksavailable": 3, "numbikesavailable": 33, "mechanical": 28, "ebike": 5, "is_renting": "OUI", "is_returning": "OUI", "duedate": "2024-03-01T11:19:49+00:00", "coordonnees_geo": {"lon": 2.3502873256803, "lat": 48.848225572724}, "nom_arrondissement_communes": "Paris", "code_insee_commune": null}, {"stationcode": "20112", "name": "Jourdain - Place des Grandes Rigoles", "is_installed": "OUI", "capacity": 22, "numdocksavailable": 22, "numbikesavailable": 0, "mechanical": 0, "ebike": 0, "is_renting": "OUI", "is_returning": "OUI", "duedate": "2024-03-01T11:15:13+00:00", "coordonnees_geo": {"lon": 2.38959476351738, "lat": 48.87403113727167}, "nom_arrondissement_communes": "Paris", "code_insee_commune": null}, {"stationcode": "18011", "name": "Pajol - Place Herbert", "is_installed": "OUI", "capacity": 39, "numdocksavailable": 35, "numbikesavailable": 2, "mechanical": 0, "ebike": 2, "is_renting": "OUI", "is_returning": "OUI", "duedate": "2024-03-01T11:20:38+00:00", "coordonnees_geo": {"lon": 2.3635598, "lat": 48.8927825}, "nom_arrondissement_communes": "Paris", "code_insee_commune": null}, {"stationcode": "43008", "name": "Fontenay - Lib\u00e9ration", "is_installed": "OUI", "capacity": 25, "numdocksavailable": 23, "numbikesavailable": 2, "mechanical": 1, "ebike": 1, "is_renting": "OUI", "is_returning": "OUI", "duedate": "2024-03-01T11:14:09+00:00", "coordonnees_geo": {"lon": 2.445141971111298, "lat": 48.84780306364685}, "nom_arrondissement_communes": "Vincennes", "code_insee_commune": null}, {"stationcode": "51005", "name": "Yves Farges - Route d'Enghein", "is_installed": "NON", "capacity": 0, "numdocksavailable": 0, "numbikesavailable": 0, "mechanical": 0, "ebike": 0, "is_renting": "NON", "is_returning": "NON", "duedate": "2024-02-06T11:04:01+00:00", "coordonnees_geo": {"lon": 2.2834496977978, "lat": 48.95756799268}, "nom_arrondissement_communes": "Argenteuil", "code_insee_commune": null}, {"stationcode": "19120", "name": "Carducci - Place Hannah Arendt", "is_installed": "OUI", "capacity": 27, "numdocksavailable": 24, "numbikesavailable": 3, "mechanical": 1, "ebike": 2, "is_renting": "OUI", "is_returning": "OUI", "duedate": "2024-03-01T11:15:01+00:00", "coordonnees_geo": {"lon": 2.3860743641853337, "lat": 48.877436681515796}, "nom_arrondissement_communes": "Paris", "code_insee_commune": null}, {"stationcode": "18003", "name": "Cimeti\u00e8re de Montmartre", "is_installed": "OUI", "capacity": 43, "numdocksavailable": 40, "numbikesavailable": 3, "mechanical": 0, "ebike": 3, "is_renting": "OUI", "is_returning": "OUI", "duedate": "2024-03-01T11:20:16+00:00", "coordonnees_geo": {"lon": 2.3328901827335, "lat": 48.886472466142}, "nom_arrondissement_communes": "Paris", "code_insee_commune": null}, {"stationcode": "5004", "name": "Saint-Jacques - Val de Gr\u00e2ce", "is_installed": "OUI", "capacity": 19, "numdocksavailable": 3, "numbikesavailable": 14, "mechanical": 2, "ebike": 12, "is_renting": "OUI", "is_returning": "OUI", "duedate": "2024-03-01T11:20:15+00:00", "coordonnees_geo": {"lon": 2.3413893, "lat": 48.8417514}, "nom_arrondissement_communes": "Paris", "code_insee_commune": null}, {"stationcode": "14138", "name": "Porte de Vanves", "is_installed": "OUI", "capacity": 32, "numdocksavailable": 27, "numbikesavailable": 4, "mechanical": 1, "ebike": 3, "is_renting": "OUI", "is_returning": "OUI", "duedate": "2024-03-01T11:21:26+00:00", "coordonnees_geo": {"lon": 2.3056878894567, "lat": 48.828012849445}, "nom_arrondissement_communes": "Paris", "code_insee_commune": null}, {"stationcode": "46003", "name": "Conservatoire de Musique", "is_installed": "OUI", "capacity": 25, "numdocksavailable": 20, "numbikesavailable": 5, "mechanical": 2, "ebike": 3, "is_renting": "OUI", "is_returning": "OUI", "duedate": "2024-03-01T11:20:23+00:00", "coordonnees_geo": {"lon": 2.4034014344215398, "lat": 48.77093586667601}, "nom_arrondissement_communes": "Choisy-le-Roi", "code_insee_commune": null}, {"stationcode": "21312", "name": "Lucie Aubrac - Fort", "is_installed": "OUI", "capacity": 30, "numdocksavailable": 30, "numbikesavailable": 0, "mechanical": 0, "ebike": 0, "is_renting": "OUI", "is_returning": "OUI", "duedate": "2024-03-01T11:13:13+00:00", "coordonnees_geo": {"lon": 2.271184623241425, "lat": 48.818144834008976}, "nom_arrondissement_communes": "Issy-les-Moulineaux", "code_insee_commune": null}, {"stationcode": "10024", "name": "Buisson Saint-Louis - Saint-Maur", "is_installed": "OUI", "capacity": 19, "numdocksavailable": 18, "numbikesavailable": 0, "mechanical": 0, "ebike": 0, "is_renting": "OUI", "is_returning": "OUI", "duedate": "2024-03-01T11:18:01+00:00", "coordonnees_geo": {"lon": 2.3722528328789854, "lat": 48.87174684930295}, "nom_arrondissement_communes": "Paris", "code_insee_commune": null}, {"stationcode": "8045", "name": "Place de la Reine Astrid", "is_installed": "OUI", "capacity": 54, "numdocksavailable": 1, "numbikesavailable": 51, "mechanical": 33, "ebike": 18, "is_renting": "OUI", "is_returning": "OUI", "duedate": "2024-03-01T11:19:55+00:00", "coordonnees_geo": {"lon": 2.3025491823859, "lat": 48.864920982538}, "nom_arrondissement_communes": "Paris", "code_insee_commune": null}, {"stationcode": "15054", "name": "Lecourbe - Jean Maridor", "is_installed": "OUI", "capacity": 19, "numdocksavailable": 16, "numbikesavailable": 3, "mechanical": 3, "ebike": 0, "is_renting": "OUI", "is_returning": "OUI", "duedate": "2024-03-01T11:20:48+00:00", "coordonnees_geo": {"lon": 2.2877392172813416, "lat": 48.83796366147599}, "nom_arrondissement_communes": "Paris", "code_insee_commune": null}, {"stationcode": "15106", "name": "Grenelle - Violet", "is_installed": "OUI", "capacity": 35, "numdocksavailable": 28, "numbikesavailable": 6, "mechanical": 3, "ebike": 3, "is_renting": "OUI", "is_returning": "OUI", "duedate": "2024-03-01T11:20:34+00:00", "coordonnees_geo": {"lon": 2.294612042605877, "lat": 48.84993035512154}, "nom_arrondissement_communes": "Paris", "code_insee_commune": null}, {"stationcode": "14008", "name": "Mouton Duvernet - G\u00e9n\u00e9ral Leclerc", "is_installed": "OUI", "capacity": 39, "numdocksavailable": 35, "numbikesavailable": 3, "mechanical": 0, "ebike": 3, "is_renting": "OUI", "is_returning": "OUI", "duedate": "2024-03-01T11:21:20+00:00", "coordonnees_geo": {"lon": 2.3293121159076686, "lat": 48.831632518292565}, "nom_arrondissement_communes": "Paris", "code_insee_commune": null}, {"stationcode": "5124", "name": "Erasme - Ulm", "is_installed": "OUI", "capacity": 24, "numdocksavailable": 3, "numbikesavailable": 20, "mechanical": 12, "ebike": 8, "is_renting": "OUI", "is_returning": "OUI", "duedate": "2024-03-01T11:21:10+00:00", "coordonnees_geo": {"lon": 2.3445946723222733, "lat": 48.84264375274712}, "nom_arrondissement_communes": "Paris", "code_insee_commune": null}, {"stationcode": "18022", "name": "Marcadet - Barb\u00e8s", "is_installed": "OUI", "capacity": 37, "numdocksavailable": 31, "numbikesavailable": 1, "mechanical": 0, "ebike": 1, "is_renting": "OUI", "is_returning": "OUI", "duedate": "2024-03-01T11:19:52+00:00", "coordonnees_geo": {"lon": 2.3490573929687, "lat": 48.890451120965}, "nom_arrondissement_communes": "Paris", "code_insee_commune": null}, {"stationcode": "15109", "name": "Cevennes - Bergers", "is_installed": "OUI", "capacity": 29, "numdocksavailable": 24, "numbikesavailable": 4, "mechanical": 2, "ebike": 2, "is_renting": "OUI", "is_returning": "OUI", "duedate": "2024-03-01T11:18:56+00:00", "coordonnees_geo": {"lon": 2.281037718057633, "lat": 48.84240765130395}, "nom_arrondissement_communes": "Paris", "code_insee_commune": null}, {"stationcode": "17203", "name": "Place de la Porte de Champeret", "is_installed": "OUI", "capacity": 28, "numdocksavailable": 26, "numbikesavailable": 1, "mechanical": 1, "ebike": 0, "is_renting": "OUI", "is_returning": "OUI", "duedate": "2024-03-01T11:20:38+00:00", "coordonnees_geo": {"lon": 2.2917001576821, "lat": 48.886062068226}, "nom_arrondissement_communes": "Paris", "code_insee_commune": null}, {"stationcode": "15133", "name": "Saint Lambert - Blomet", "is_installed": "OUI", "capacity": 27, "numdocksavailable": 18, "numbikesavailable": 8, "mechanical": 1, "ebike": 7, "is_renting": "OUI", "is_returning": "OUI", "duedate": "2024-03-01T11:14:33+00:00", "coordonnees_geo": {"lon": 2.2930556908249855, "lat": 48.83659148147257}, "nom_arrondissement_communes": "Paris", "code_insee_commune": null}, {"stationcode": "44013", "name": "Edouard Tremblay - Julian Grimaux", "is_installed": "OUI", "capacity": 30, "numdocksavailable": 30, "numbikesavailable": 0, "mechanical": 0, "ebike": 0, "is_renting": "OUI", "is_returning": "OUI", "duedate": "2024-03-01T11:12:39+00:00", "coordonnees_geo": {"lon": 2.3723508417606, "lat": 48.781383825117}, "nom_arrondissement_communes": "Vitry-sur-Seine", "code_insee_commune": null}, {"stationcode": "44003", "name": "Gabriel P\u00e9ri - Danielle Casanova", "is_installed": "OUI", "capacity": 20, "numdocksavailable": 11, "numbikesavailable": 9, "mechanical": 9, "ebike": 0, "is_renting": "OUI", "is_returning": "OUI", "duedate": "2024-03-01T11:20:33+00:00", "coordonnees_geo": {"lon": 2.4025777, "lat": 48.790114}, "nom_arrondissement_communes": "Vitry-sur-Seine", "code_insee_commune": null}, {"stationcode": "15034", "name": "Lakanal - Commerce", "is_installed": "OUI", "capacity": 53, "numdocksavailable": 29, "numbikesavailable": 24, "mechanical": 20, "ebike": 4, "is_renting": "OUI", "is_returning": "OUI", "duedate": "2024-03-01T11:20:24+00:00", "coordonnees_geo": {"lon": 2.294059172272682, "lat": 48.84442462786544}, "nom_arrondissement_communes": "Paris", "code_insee_commune": null}, {"stationcode": "48010", "name": "Karl Marx", "is_installed": "OUI", "capacity": 16, "numdocksavailable": 12, "numbikesavailable": 2, "mechanical": 1, "ebike": 1, "is_renting": "OUI", "is_returning": "OUI", "duedate": "2024-03-01T11:21:03+00:00", "coordonnees_geo": {"lon": 2.3646667979455587, "lat": 48.784527937293184}, "nom_arrondissement_communes": "Villejuif", "code_insee_commune": null}, {"stationcode": "41202", "name": "Gare Rer de Fontenay sous Bois", "is_installed": "OUI", "capacity": 61, "numdocksavailable": 59, "numbikesavailable": 2, "mechanical": 1, "ebike": 1, "is_renting": "OUI", "is_returning": "OUI", "duedate": "2024-03-01T11:17:39+00:00", "coordonnees_geo": {"lon": 2.4630465, "lat": 48.8436279}, "nom_arrondissement_communes": "Fontenay-sous-Bois", "code_insee_commune": null}, {"stationcode": "11030", "name": "Oberkampf - R\u00e9publique", "is_installed": "OUI", "capacity": 24, "numdocksavailable": 20, "numbikesavailable": 4, "mechanical": 2, "ebike": 2, "is_renting": "OUI", "is_returning": "OUI", "duedate": "2024-03-01T11:19:24+00:00", "coordonnees_geo": {"lon": 2.37611478491, "lat": 48.86531608707}, "nom_arrondissement_communes": "Paris", "code_insee_commune": null}, {"stationcode": "35020", "name": "Marcelle - Thalie", "is_installed": "OUI", "capacity": 20, "numdocksavailable": 15, "numbikesavailable": 3, "mechanical": 3, "ebike": 0, "is_renting": "OUI", "is_returning": "OUI", "duedate": "2024-03-01T11:21:15+00:00", "coordonnees_geo": {"lon": 2.4137883, "lat": 48.8835462}, "nom_arrondissement_communes": "Pantin", "code_insee_commune": null}, {"stationcode": "1020", "name": "Cambon - Rivoli", "is_installed": "OUI", "capacity": 40, "numdocksavailable": 1, "numbikesavailable": 39, "mechanical": 20, "ebike": 19, "is_renting": "OUI", "is_returning": "OUI", "duedate": "2024-03-01T11:18:06+00:00", "coordonnees_geo": {"lon": 2.3251800647137, "lat": 48.866143390992}, "nom_arrondissement_communes": "Paris", "code_insee_commune": null}, {"stationcode": "25003", "name": "Henri Ste-Claire D\u00e9ville - Paul H\u00e9roult", "is_installed": "OUI", "capacity": 24, "numdocksavailable": 17, "numbikesavailable": 4, "mechanical": 3, "ebike": 1, "is_renting": "OUI", "is_returning": "OUI", "duedate": "2024-03-01T11:20:53+00:00", "coordonnees_geo": {"lon": 2.172411, "lat": 48.892663}, "nom_arrondissement_communes": "Rueil-Malmaison", "code_insee_commune": null}, {"stationcode": "22402", "name": "Jean Jaur\u00e8s - Salvador Allende", "is_installed": "OUI", "capacity": 43, "numdocksavailable": 43, "numbikesavailable": 0, "mechanical": 0, "ebike": 0, "is_renting": "OUI", "is_returning": "OUI", "duedate": "2024-03-01T11:19:23+00:00", "coordonnees_geo": {"lon": 2.3026576638221745, "lat": 48.821475594736775}, "nom_arrondissement_communes": "Malakoff", "code_insee_commune": null}, {"stationcode": "11026", "name": "Chemin Vert - Saint-Maur", "is_installed": "OUI", "capacity": 45, "numdocksavailable": 40, "numbikesavailable": 4, "mechanical": 1, "ebike": 3, "is_renting": "OUI", "is_returning": "OUI", "duedate": "2024-03-01T11:21:16+00:00", "coordonnees_geo": {"lon": 2.381299026310444, "lat": 48.86112461407359}, "nom_arrondissement_communes": "Paris", "code_insee_commune": null}, {"stationcode": "32604", "name": "Square du Th\u00e9\u00e2tre du Garde-Chasse", "is_installed": "OUI", "capacity": 50, "numdocksavailable": 50, "numbikesavailable": 0, "mechanical": 0, "ebike": 0, "is_renting": "OUI", "is_returning": "OUI", "duedate": "2024-03-01T11:14:30+00:00", "coordonnees_geo": {"lon": 2.420119643211365, "lat": 48.881287375060616}, "nom_arrondissement_communes": "Les Lilas", "code_insee_commune": null}, {"stationcode": "19024", "name": "Botzaris - Parc des Buttes Chaumont", "is_installed": "OUI", "capacity": 20, "numdocksavailable": 19, "numbikesavailable": 1, "mechanical": 0, "ebike": 1, "is_renting": "OUI", "is_returning": "OUI", "duedate": "2024-03-01T11:13:08+00:00", "coordonnees_geo": {"lon": 2.381464, "lat": 48.877951}, "nom_arrondissement_communes": "Paris", "code_insee_commune": null}, {"stationcode": "15021", "name": "Joseph Liouville - Croix Nivert", "is_installed": "OUI", "capacity": 64, "numdocksavailable": 16, "numbikesavailable": 46, "mechanical": 44, "ebike": 2, "is_renting": "OUI", "is_returning": "OUI", "duedate": "2024-03-01T11:21:14+00:00", "coordonnees_geo": {"lon": 2.297508493065834, "lat": 48.844835471244416}, "nom_arrondissement_communes": "Paris", "code_insee_commune": null}, {"stationcode": "9010", "name": "Rochechouart lamartine", "is_installed": "OUI", "capacity": 24, "numdocksavailable": 10, "numbikesavailable": 12, "mechanical": 10, "ebike": 2, "is_renting": "OUI", "is_returning": "OUI", "duedate": "2024-03-01T11:21:25+00:00", "coordonnees_geo": {"lon": 2.344393021854, "lat": 48.876719895109}, "nom_arrondissement_communes": "Paris", "code_insee_commune": null}]}