{"total_count": 1474, "results": [{"stationcode": "40001", "name": "H\u00f4pital Mondor", "is_installed": "OUI", "capacity": 28, "numdocksavailable": 17, "numbikesavailable": 11, "mechanical": 4, "ebike": 7, "is_renting": "OUI", "is_returning": "OUI", "duedate": "2025-02-02T19:05:26+00:00", "coordonnees_geo": {"lon": 2.4537451531298, "lat": 48.798922410229}, "nom_arrondissement_communes": "Cr\u00e9teil", "code_insee_commune": "94028"}, {"stationcode": "9020", "name": "Toudouze - Clauzel", "is_installed": "OUI", "capacity": 21, "numdocksavailable": 15, "numbikesavailable": 6, "mechanical": 4, "ebike": 2, "is_renting": "OUI", "is_returning": "OUI", "duedate": "2025-02-02T19:02:30+00:00", "coordonnees_geo": {"lon": 2.3373600840568547, "lat": 48.87929591733507}, "nom_arrondissement_communes": "Paris", "code_insee_commune": "75056"}, {"stationcode": "14014", "name": "Jourdan - Stade Charl\u00e9ty", "is_installed": "OUI", "capacity": 60, "numdocksavailable": 50, "numbikesavailable": 8, "mechanical": 2, "ebike": 6, "is_renting": "OUI", "is_returning": "OUI", "duedate": "2025-02-02T19:03:15+00:00", "coordonnees_geo": {"lon": 2.3433353751898, "lat": 48.819428333369}, "nom_arrondissement_communes": "Paris", "code_insee_commune": "75056"}, {"stationcode": "32017", "name": "Basilique", "is_installed": "OUI", "capacity": 22, "numdocksavailable": 3, "numbikesavailable": 15, "mechanical": 11, "ebike": 4, "is_renting": "OUI", "is_returning": "OUI", "duedate": "2025-02-02T19:06:04+00:00", "coordonnees_geo": {"lon": 2.3588666820200914, "lat": 48.93626891059109}, "nom_arrondissement_communes": "Saint-Denis", "code_insee_commune": "93066"}, {"stationcode": "11104", "name": "Charonne - Robert et Sonia Delaunay", "is_installed": "OUI", "capacity": 20, "numdocksavailable": 16, "numbikesavailable": 4, "mechanical": 0, "ebike": 4, "is_renting": "OUI", "is_returning": "OUI", "duedate": "2025-02-02T19:01:14+00:00", "coordonnees_geo": {"lon": 2.3925706744194, "lat": 48.855907555969}, "nom_arrondissement_communes": "Paris", "code_insee_commune": "75056"}, {"stationcode": "13007", "name": "Le Brun - Gobelins", "is_installed": "OUI", "capacity": 48, "numdocksavailable": 30, "numbikesavailable": 17, "mechanical": 7, "ebike": 10, "is_renting": "OUI", "is_returning": "OUI", "duedate": "2025-02-02T19:03:24+00:00", "coordonnees_geo": {"lon": 2.3534681351338, "lat": 48.835092787824}, "nom_arrondissement_communes": "Paris", "code_insee_commune": "75056"}, {"stationcode": "6003", "name": "Saint-Sulpice", "is_installed": "OUI", "capacity": 21, "numdocksavailable": 8, "numbikesavailable": 11, "mechanical": 7, "ebike": 4, "is_renting": "OUI", "is_returning": "OUI", "duedate": "2025-02-02T19:06:19+00:00", "coordonnees_geo": {"lon": 2.3308077827095985, "lat": 48.85165383178419}, "nom_arrondissement_communes": "Paris", "code_insee_commune": "75056"}, {"stationcode": "5110", "name": "Lac\u00e9p\u00e8de - Monge", "is_installed": "OUI", "capacity": 23, "numdocksavailable": 13, "numbikesavailable": 8, "mechanical": 4, "ebike": 4, "is_renting": "OUI", "is_returning": "OUI", "duedate": "2025-02-02T19:05:06+00:00", "coordonnees_geo": {"lon": 2.3519663885235786, "lat": 48.84389286531899}, "nom_arrondissement_communes": "Paris", "code_insee_commune": "75056"}, {"stationcode": "33006", "name": "Andr\u00e9 Karman - R\u00e9publique", "is_installed": "OUI", "capacity": 31, "numdocksavailable": 22, "numbikesavailable": 8, "mechanical": 3, "ebike": 5, "is_renting": "OUI", "is_returning": "OUI", "duedate": "2025-02-02T19:05:47+00:00", "coordonnees_geo": {"lon": 2.3851355910301213, "lat": 48.91039875761846}, "nom_arrondissement_communes": "Aubervilliers", "code_insee_commune": "93001"}, {"stationcode": "40011", "name": "Bas du Mont-Mesly", "is_installed": "OUI", "capacity": 27, "numdocksavailable": 20, "numbikesavailable": 7, "mechanical": 6, "ebike": 1, "is_renting": "OUI", "is_returning": "OUI", "duedate": "2025-02-02T19:05:38+00:00", "coordonnees_geo": {"lon": 2.4609763908985, "lat": 48.779035118572}, "nom_arrondissement_communes": "Cr\u00e9teil", "code_insee_commune": "94028"}, {"stationcode": "7003", "name": "Square Boucicaut", "is_installed": "OUI", "capacity": 60, "numdocksavailable": 28, "numbikesavailable": 24, "mechanical": 20, "ebike": 4, "is_renting": "OUI", "is_returning": "OUI", "duedate": "2025-02-02T19:04:37+00:00", "coordonnees_geo": {"lon": 2.325061820447445, "lat": 48.851296433665276}, "nom_arrondissement_communes": "Paris", "code_insee_commune": "75056"}, {"stationcode": "32304", "name": "Charcot - Benfleet", "is_installed": "OUI", "capacity": 28, "numdocksavailable": 26, "numbikesavailable": 2, "mechanical": 1, "ebike": 1, "is_renting": "OUI", "is_returning": "OUI", "duedate": "2025-02-02T18:58:37+00:00", "coordonnees_geo": {"lon": 2.440523876268, "lat": 48.878370277021}, "nom_arrondissement_communes": "Romainville", "code_insee_commune": "93063"}, {"stationcode": "6021", "name": "Beaux-Arts - Bonaparte", "is_installed": "OUI", "capacity": 20, "numdocksavailable": 3, "numbikesavailable": 15, "mechanical": 9, "ebike": 6, "is_renting": "OUI", "is_returning": "OUI", "duedate": "2025-02-02T19:02:00+00:00", "coordonnees_geo": {"lon": 2.3348518833518, "lat": 48.856451985396}, "nom_arrondissement_communes": "Paris", "code_insee_commune": "75056"}, {"stationcode": "15202", "name": "Bracion - P\u00e9riph\u00e9rique", "is_installed": "OUI", "capacity": 30, "numdocksavailable": 28, "numbikesavailable": 2, "mechanical": 0, "ebike": 2, "is_renting": "OUI", "is_returning": "OUI", "duedate": "2025-02-02T19:05:57+00:00", "coordonnees_geo": {"lon": 2.3004549373748, "lat": 48.826103771275}, "nom_arrondissement_communes": "Paris", "code_insee_commune": "75056"}, {"stationcode": "8050", "name": "Bo\u00e9tie - Ponthieu", "is_installed": "OUI", "capacity": 45, "numdocksavailable": 6, "numbikesavailable": 35, "mechanical": 34, "ebike": 1, "is_renting": "OUI", "is_returning": "OUI", "duedate": "2025-02-02T19:04:30+00:00", "coordonnees_geo": {"lon": 2.3076787590981, "lat": 48.871417284355}, "nom_arrondissement_communes": "Paris", "code_insee_commune": "75056"}, {"stationcode": "13101", "name": "Croulebarde - Corvisart", "is_installed": "OUI", "capacity": 34, "numdocksavailable": 23, "numbikesavailable": 11, "mechanical": 7, "ebike": 4, "is_renting": "OUI", "is_returning": "OUI", "duedate": "2025-02-02T19:00:21+00:00", "coordonnees_geo": {"lon": 2.3481646925210953, "lat": 48.830981659316855}, "nom_arrondissement_communes": "Paris", "code_insee_commune": "75056"}, {"stationcode": "40016", "name": "Sarrazins - Saussure", "is_installed": "NON", "capacity": 1, "numdocksavailable": 1, "numbikesavailable": 0, "mechanical": 0, "ebike": 0, "is_renting": "NON", "is_returning": "NON", "duedate": "2024-08-29T11:11:05+00:00", "coordonnees_geo": {"lon": 2.4711590635627, "lat": 48.768482147086}, "nom_arrondissement_communes": "Cr\u00e9teil", "code_insee_commune": "94028"}, {"stationcode": "17044", "name": "Porte de Saint-Ouen - Bessi\u00e8res", "is_installed": "OUI", "capacity": 42, "numdocksavailable": 37, "numbikesavailable": 4, "mechanical": 2, "ebike": 2, "is_renting": "OUI", "is_returning": "OUI", "duedate": "2025-02-02T19:00:43+00:00", "coordonnees_geo": {"lon": 2.32851451022192, "lat": 48.89792240854517}, "nom_arrondissement_communes": "Paris", "code_insee_commune": "75056"}, {"stationcode": "19033", "name": "Cambrai - Benjamin Constant", "is_installed": "OUI", "capacity": 43, "numdocksavailable": 40, "numbikesavailable": 2, "mechanical": 0, "ebike": 2, "is_renting": "OUI", "is_returning": "OUI", "duedate": "2025-02-02T19:01:26+00:00", "coordonnees_geo": {"lon": 2.381133802246315, "lat": 48.89594736851349}, "nom_arrondissement_communes": "Paris", "code_insee_commune": "75056"}, {"stationcode": "21326", "name": "Moulin de Pierre - Abb\u00e9 Gr\u00e9goire", "is_installed": "OUI", "capacity": 20, "numdocksavailable": 15, "numbikesavailable": 4, "mechanical": 0, "ebike": 4, "is_renting": "OUI", "is_returning": "OUI", "duedate": "2025-02-02T19:05:57+00:00", "coordonnees_geo": {"lon": 2.2754641655975, "lat": 48.822036188382}, "nom_arrondissement_communes": "Issy-les-Moulineaux", "code_insee_commune": "92040"}, {"stationcode": "43002", "name": "Lagny - Victor Basch", "is_installed": "OUI", "capacity": 26, "numdocksavailable": 17, "numbikesavailable": 8, "mechanical": 3, "ebike": 5, "is_renting": "OUI", "is_returning": "OUI", "duedate": "2025-02-02T19:06:07+00:00", "coordonnees_geo": {"lon": 2.426325418925233, "lat": 48.84884147189881}, "nom_arrondissement_communes": "Vincennes", "code_insee_commune": "94080"}, {"stationcode": "16138", "name": "Saint-Cloud - Hippodrome", "is_installed": "OUI", "capacity": 30, "numdocksavailable": 21, "numbikesavailable": 7, "mechanical": 7, "ebike": 0, "is_renting": "OUI", "is_returning": "OUI", "duedate": "2025-02-02T19:00:34+00:00", "coordonnees_geo": {"lon": 2.2549109905958176, "lat": 48.85772148887421}, "nom_arrondissement_communes": "Paris", "code_insee_commune": "75056"}, {"stationcode": "21216", "name": "Louis Lejeune - Barb\u00e8s", "is_installed": "OUI", "capacity": 25, "numdocksavailable": 22, "numbikesavailable": 3, "mechanical": 0, "ebike": 3, "is_renting": "OUI", "is_returning": "OUI", "duedate": "2025-02-02T19:06:06+00:00", "coordonnees_geo": {"lon": 2.3267009854316716, "lat": 48.81807418981508}, "nom_arrondissement_communes": "Montrouge", "code_insee_commune": "92049"}, {"stationcode": "22207", "name": "Rond-point du Dr Albert Schweitzer", "is_installed": "OUI", "capacity": 22, "numdocksavailable": 18, "numbikesavailable": 3, "mechanical": 0, "ebike": 3, "is_renting": "OUI", "is_returning": "OUI", "duedate": "2025-02-02T18:59:51+00:00", "coordonnees_geo": {"lon": 2.3143940046429634, "lat": 48.78980918988166}, "nom_arrondissement_communes": "Bagneux", "code_insee_commune": "92007"}, {"stationcode": "19027", "name": "Serrurier", "is_installed": "OUI", "capacity": 18, "numdocksavailable": 16, "numbikesavailable": 2, "mechanical": 1, "ebike": 1, "is_renting": "OUI", "is_returning": "OUI", "duedate": "2025-02-02T19:05:52+00:00", "coordonnees_geo": {"lon": 2.398064173758, "lat": 48.880493403246}, "nom_arrondissement_communes": "Paris", "code_insee_commune": "75056"}, {"stationcode": "44017", "name": "Jules Guesde - Pont du Port \u00e0 l'Anglais", "is_installed": "OUI", "capacity": 30, "numdocksavailable": 17, "numbikesavailable": 11, "mechanical": 5, "ebike": 6, "is_renting": "OUI", "is_returning": "OUI", "duedate": "2025-02-02T18:58:30+00:00", "coordonnees_geo": {"lon": 2.417212128639221, "lat": 48.79628807093802}, "nom_arrondissement_communes": "Vitry-sur-Seine", "code_insee_commune": "94081"}, {"stationcode": "16118", "name": "Michel-Ange - Parent de Rosan", "is_installed": "OUI", "capacity": 26, "numdocksavailable": 23, "numbikesavailable": 3, "mechanical": 3, "ebike": 0, "is_renting": "OUI", "is_returning": "OUI", "duedate": "2025-02-02T18:58:52+00:00", "coordonnees_geo": {"lon": 2.2584119439125065, "lat": 48.840579923690115}, "nom_arrondissement_communes": "Paris", "code_insee_commune": "75056"}, {"stationcode": "2017", "name": "Caire - Dussoubs", "is_installed": "OUI", "capacity": 40, "numdocksavailable": 1, "numbikesavailable": 39, "mechanical": 31, "ebike": 8, "is_renting": "OUI", "is_returning": "OUI", "duedate": "2025-02-02T19:06:17+00:00", "coordonnees_geo": {"lon": 2.349364310503006, "lat": 48.86785342111862}, "nom_arrondissement_communes": "Paris", "code_insee_commune": "75056"}, {"stationcode": "8103", "name": "Artois - Berri", "is_installed": "OUI", "capacity": 23, "numdocksavailable": 18, "numbikesavailable": 4, "mechanical": 2, "ebike": 2, "is_renting": "OUI", "is_returning": "OUI", "duedate": "2025-02-02T18:58:18+00:00", "coordonnees_geo": {"lon": 2.3064258322119713, "lat": 48.87393521240818}, "nom_arrondissement_communes": "Paris", "code_insee_commune": "75056"}, {"stationcode": "14013", "name": "Liard - Amiral Mouchez", "is_installed": "OUI", "capacity": 28, "numdocksavailable": 21, "numbikesavailable": 7, "mechanical": 2, "ebike": 5, "is_renting": "OUI", "is_returning": "OUI", "duedate": "2025-02-02T19:01:08+00:00", "coordonnees_geo": {"lon": 2.342167, "lat": 48.8214169}, "nom_arrondissement_communes": "Paris", "code_insee_commune": "75056"}, {"stationcode": "13118", "name": "Regnault - Patay", "is_installed": "OUI", "capacity": 63, "numdocksavailable": 26, "numbikesavailable": 35, "mechanical": 28, "ebike": 7, "is_renting": "OUI", "is_returning": "OUI", "duedate": "2025-02-02T19:03:32+00:00", "coordonnees_geo": {"lon": 2.377065159380436, "lat": 48.82435782216384}, "nom_arrondissement_communes": "Paris", "code_insee_commune": "75056"}, {"stationcode": "9002", "name": "Abbeville - Faubourg Poissonni\u00e8re", "is_installed": "OUI", "capacity": 14, "numdocksavailable": 6, "numbikesavailable": 6, "mechanical": 2, "ebike": 4, "is_renting": "OUI", "is_returning": "OUI", "duedate": "2025-02-02T18:58:50+00:00", "coordonnees_geo": {"lon": 2.349147, "lat": 48.879223}, "nom_arrondissement_communes": "Paris", "code_insee_commune": "75056"}, {"stationcode": "48003", "name": "Youri Gagarine - Karl Marx", "is_installed": "OUI", "capacity": 22, "numdocksavailable": 20, "numbikesavailable": 2, "mechanical": 1, "ebike": 1, "is_renting": "OUI", "is_returning": "OUI", "duedate": "2025-02-02T18:59:35+00:00", "coordonnees_geo": {"lon": 2.35908430069685, "lat": 48.78448485079149}, "nom_arrondissement_communes": "Villejuif", "code_insee_commune": "94076"}, {"stationcode": "16110", "name": "Octave Feuillet - Alb\u00e9ric Magnard", "is_installed": "OUI", "capacity": 21, "numdocksavailable": 17, "numbikesavailable": 3, "mechanical": 2, "ebike": 1, "is_renting": "OUI", "is_returning": "OUI", "duedate": "2025-02-02T19:00:11+00:00", "coordonnees_geo": {"lon": 2.2730283066630363, "lat": 48.86106902949534}, "nom_arrondissement_communes": "Paris", "code_insee_commune": "75056"}, {"stationcode": "43009", "name": "Place Jean-Spire-Lema\u00eetre", "is_installed": "OUI", "capacity": 50, "numdocksavailable": 39, "numbikesavailable": 11, "mechanical": 2, "ebike": 9, "is_renting": "OUI", "is_returning": "OUI", "duedate": "2025-02-02T19:05:42+00:00", "coordonnees_geo": {"lon": 2.452062070369721, "lat": 48.8468428626593}, "nom_arrondissement_communes": "Vincennes", "code_insee_commune": "94080"}, {"stationcode": "10115", "name": "Granges aux Belles", "is_installed": "OUI", "capacity": 27, "numdocksavailable": 19, "numbikesavailable": 6, "mechanical": 3, "ebike": 3, "is_renting": "OUI", "is_returning": "OUI", "duedate": "2025-02-02T19:05:57+00:00", "coordonnees_geo": {"lon": 2.3680844979417, "lat": 48.8761373390584}, "nom_arrondissement_communes": "Paris", "code_insee_commune": "75056"}, {"stationcode": "10029", "name": "Dunkerque - Rocroy", "is_installed": "OUI", "capacity": 24, "numdocksavailable": 22, "numbikesavailable": 1, "mechanical": 0, "ebike": 1, "is_renting": "OUI", "is_returning": "OUI", "duedate": "2025-02-02T19:04:17+00:00", "coordonnees_geo": {"lon": 2.351464, "lat": 48.880726}, "nom_arrondissement_communes": "Paris", "code_insee_commune": "75056"}, {"stationcode": "41303", "name": "Gare de Nogent-le-Perreux", "is_installed": "OUI", "capacity": 32, "numdocksavailable": 24, "numbikesavailable": 7, "mechanical": 5, "ebike": 2, "is_renting": "OUI", "is_returning": "OUI", "duedate": "2025-02-02T19:02:07+00:00", "coordonnees_geo": {"lon": 2.493693307042122, "lat": 48.83842553348809}, "nom_arrondissement_communes": "Nogent-sur-Marne", "code_insee_commune": "94052"}, {"stationcode": "1001", "name": "Quai de l'Horloge - Pont Neuf", "is_installed": "OUI", "capacity": 17, "numdocksavailable": 8, "numbikesavailable": 9, "mechanical": 6, "ebike": 3, "is_renting": "OUI", "is_returning": "OUI", "duedate": "2025-02-02T19:02:20+00:00", "coordonnees_geo": {"lon": 2.3417982839439, "lat": 48.857058739111}, "nom_arrondissement_communes": "Paris", "code_insee_commune": "75056"}, {"stationcode": "5022", "name": "Boulangers - Cardinal Lemoine", "is_installed": "OUI", "capacity": 20, "numdocksavailable": 8, "numbikesavailable": 6, "mechanical": 2, "ebike": 4, "is_renting": "OUI", "is_returning": "OUI", "duedate": "2025-02-02T19:06:13+00:00", "coordonnees_geo": {"lon": 2.3521495, "lat": 48.8462904}, "nom_arrondissement_communes": "Paris", "code_insee_commune": "75056"}, {"stationcode": "21328", "name": "Verger - Colonel Guichard", "is_installed": "OUI", "capacity": 29, "numdocksavailable": 27, "numbikesavailable": 2, "mechanical": 0, "ebike": 2, "is_renting": "OUI", "is_returning": "OUI", "duedate": "2025-02-02T19:05:42+00:00", "coordonnees_geo": {"lon": 2.2670380088932, "lat": 48.816376985087}, "nom_arrondissement_communes": "Issy-les-Moulineaux", "code_insee_commune": "92040"}, {"stationcode": "9038", "name": "Douai - Bruxelles", "is_installed": "OUI", "capacity": 27, "numdocksavailable": 22, "numbikesavailable": 3, "mechanical": 0, "ebike": 3, "is_renting": "OUI", "is_returning": "OUI", "duedate": "2025-02-02T19:05:20+00:00", "coordonnees_geo": {"lon": 2.3308449949028507, "lat": 48.88320784122797}, "nom_arrondissement_communes": "Paris", "code_insee_commune": "75056"}, {"stationcode": "31103", "name": "Gare Rosny-Bois-Perrier", "is_installed": "OUI", "capacity": 36, "numdocksavailable": 22, "numbikesavailable": 14, "mechanical": 3, "ebike": 11, "is_renting": "OUI", "is_returning": "OUI", "duedate": "2025-02-02T19:05:36+00:00", "coordonnees_geo": {"lon": 2.480436824262142, "lat": 48.88115023337061}, "nom_arrondissement_communes": "Rosny-sous-Bois", "code_insee_commune": "93064"}, {"stationcode": "17008", "name": "Porte Pouchet-Bessi\u00e8res", "is_installed": "OUI", "capacity": 23, "numdocksavailable": 9, "numbikesavailable": 12, "mechanical": 4, "ebike": 8, "is_renting": "OUI", "is_returning": "OUI", "duedate": "2025-02-02T19:05:42+00:00", "coordonnees_geo": {"lon": 2.3230632, "lat": 48.8978765}, "nom_arrondissement_communes": "Paris", "code_insee_commune": "75056"}, {"stationcode": "21323", "name": "Charlot - Stade Gabriel Voisin", "is_installed": "OUI", "capacity": 31, "numdocksavailable": 3, "numbikesavailable": 27, "mechanical": 24, "ebike": 3, "is_renting": "OUI", "is_returning": "OUI", "duedate": "2025-02-02T19:04:46+00:00", "coordonnees_geo": {"lon": 2.268122527474, "lat": 48.827228120536}, "nom_arrondissement_communes": "Issy-les-Moulineaux", "code_insee_commune": "92040"}, {"stationcode": "8053", "name": "Place Georges Guillaumin", "is_installed": "OUI", "capacity": 29, "numdocksavailable": 24, "numbikesavailable": 4, "mechanical": 2, "ebike": 2, "is_renting": "OUI", "is_returning": "OUI", "duedate": "2025-02-02T19:00:13+00:00", "coordonnees_geo": {"lon": 2.301771435326, "lat": 48.874750203957}, "nom_arrondissement_communes": "Paris", "code_insee_commune": "75056"}, {"stationcode": "9014", "name": "Faubourg Montmartre - La Fayette", "is_installed": "OUI", "capacity": 35, "numdocksavailable": 22, "numbikesavailable": 13, "mechanical": 9, "ebike": 4, "is_renting": "OUI", "is_returning": "OUI", "duedate": "2025-02-02T18:58:06+00:00", "coordonnees_geo": {"lon": 2.3408536612988, "lat": 48.875254549053}, "nom_arrondissement_communes": "Paris", "code_insee_commune": "75056"}, {"stationcode": "18203", "name": "Lamarck - Saint-Ouen", "is_installed": "OUI", "capacity": 40, "numdocksavailable": 40, "numbikesavailable": 0, "mechanical": 0, "ebike": 0, "is_renting": "NON", "is_returning": "NON", "duedate": "2025-02-02T19:04:06+00:00", "coordonnees_geo": {"lon": 2.3272445342326, "lat": 48.891334555236}, "nom_arrondissement_communes": "Paris", "code_insee_commune": "75056"}, {"stationcode": "31706", "name": "Ch\u00e2teau - R\u00e9publique", "is_installed": "OUI", "capacity": 26, "numdocksavailable": 23, "numbikesavailable": 2, "mechanical": 1, "ebike": 1, "is_renting": "OUI", "is_returning": "OUI", "duedate": "2025-02-02T19:01:25+00:00", "coordonnees_geo": {"lon": 2.4155035614967, "lat": 48.862923800596}, "nom_arrondissement_communes": "Bagnolet", "code_insee_commune": "93006"}, {"stationcode": "22409", "name": "Henri Barbusse - Stalingrad", "is_installed": "OUI", "capacity": 16, "numdocksavailable": 11, "numbikesavailable": 5, "mechanical": 1, "ebike": 4, "is_renting": "OUI", "is_returning": "OUI", "duedate": "2025-02-02T19:02:06+00:00", "coordonnees_geo": {"lon": 2.2872862592339516, "lat": 48.814183748660554}, "nom_arrondissement_communes": "Malakoff", "code_insee_commune": "92046"}, {"stationcode": "19015", "name": "Thionville - Ourcq", "is_installed": "OUI", "capacity": 24, "numdocksavailable": 18, "numbikesavailable": 5, "mechanical": 4, "ebike": 1, "is_renting": "OUI", "is_returning": "OUI", "duedate": "2025-02-02T19:04:29+00:00", "coordonnees_geo": {"lon": 2.3833653330802917, "lat": 48.88917613743794}, "nom_arrondissement_communes": "Paris", "code_insee_commune": "75056"}, {"stationcode": "26003", "name": "Argenteuil - Voltaire", "is_installed": "OUI", "capacity": 16, "numdocksavailable": 1, "numbikesavailable": 15, "mechanical": 2, "ebike": 13, "is_renting": "OUI", "is_returning": "OUI", "duedate": "2025-02-02T19:05:23+00:00", "coordonnees_geo": {"lon": 2.2814112156629562, "lat": 48.91864865955558}, "nom_arrondissement_communes": "Asni\u00e8res-sur-Seine", "code_insee_commune": "92004"}, {"stationcode": "17004", "name": "Legendre - Clichy", "is_installed": "OUI", "capacity": 40, "numdocksavailable": 21, "numbikesavailable": 17, "mechanical": 11, "ebike": 6, "is_renting": "OUI", "is_returning": "OUI", "duedate": "2025-02-02T19:04:45+00:00", "coordonnees_geo": {"lon": 2.322528975094376, "lat": 48.88896161855884}, "nom_arrondissement_communes": "Paris", "code_insee_commune": "75056"}, {"stationcode": "12151", "name": "Gare de Lyon - Place Louis Armand", "is_installed": "OUI", "capacity": 60, "numdocksavailable": 57, "numbikesavailable": 2, "mechanical": 0, "ebike": 2, "is_renting": "OUI", "is_returning": "OUI", "duedate": "2025-02-02T19:05:05+00:00", "coordonnees_geo": {"lon": 2.3726498446286, "lat": 48.845515089794}, "nom_arrondissement_communes": "Paris", "code_insee_commune": "75056"}, {"stationcode": "92007", "name": "Pesaro - Pr\u00e9fecture", "is_installed": "OUI", "capacity": 22, "numdocksavailable": 18, "numbikesavailable": 4, "mechanical": 1, "ebike": 3, "is_renting": "OUI", "is_returning": "OUI", "duedate": "2025-02-02T18:57:51+00:00", "coordonnees_geo": {"lon": 2.223908342421055, "lat": 48.89577046284005}, "nom_arrondissement_communes": "Nanterre", "code_insee_commune": "92050"}, {"stationcode": "16026", "name": "Ranelagh - Mozart", "is_installed": "OUI", "capacity": 8, "numdocksavailable": 0, "numbikesavailable": 8, "mechanical": 3, "ebike": 5, "is_renting": "OUI", "is_returning": "OUI", "duedate": "2025-02-02T19:03:20+00:00", "coordonnees_geo": {"lon": 2.2704418, "lat": 48.8554439}, "nom_arrondissement_communes": "Paris", "code_insee_commune": "75056"}, {"stationcode": "10107", "name": "Gare du Nord - H\u00f4pital Lariboisi\u00e8re", "is_installed": "OUI", "capacity": 49, "numdocksavailable": 46, "numbikesavailable": 2, "mechanical": 2, "ebike": 0, "is_renting": "OUI", "is_returning": "OUI", "duedate": "2025-02-02T19:05:58+00:00", "coordonnees_geo": {"lon": 2.352339, "lat": 48.881949}, "nom_arrondissement_communes": "Paris", "code_insee_commune": "75056"}, {"stationcode": "26002", "name": "Redoute - Les Courtilles", "is_installed": "OUI", "capacity": 40, "numdocksavailable": 14, "numbikesavailable": 26, "mechanical": 21, "ebike": 5, "is_renting": "OUI", "is_returning": "OUI", "duedate": "2025-02-02T19:05:33+00:00", "coordonnees_geo": {"lon": 2.2836696356535, "lat": 48.929867194519}, "nom_arrondissement_communes": "Asni\u00e8res-sur-Seine", "code_insee_commune": "92004"}, {"stationcode": "17043", "name": "Belidor - Gouvion-Saint-Cyr", "is_installed": "OUI", "capacity": 39, "numdocksavailable": 29, "numbikesavailable": 9, "mechanical": 7, "ebike": 2, "is_renting": "OUI", "is_returning": "OUI", "duedate": "2025-02-02T19:06:03+00:00", "coordonnees_geo": {"lon": 2.2854680567979813, "lat": 48.88022154052015}, "nom_arrondissement_communes": "Paris", "code_insee_commune": "75056"}, {"stationcode": "16039", "name": "Exelmans - Versailles", "is_installed": "OUI", "capacity": 49, "numdocksavailable": 38, "numbikesavailable": 10, "mechanical": 4, "ebike": 6, "is_renting": "OUI", "is_returning": "OUI", "duedate": "2025-02-02T19:06:09+00:00", "coordonnees_geo": {"lon": 2.264390252530575, "lat": 48.84097491091973}, "nom_arrondissement_communes": "Paris", "code_insee_commune": "75056"}, {"stationcode": "11023", "name": "Saint-Maur - Roquette", "is_installed": "OUI", "capacity": 46, "numdocksavailable": 23, "numbikesavailable": 23, "mechanical": 9, "ebike": 14, "is_renting": "OUI", "is_returning": "OUI", "duedate": "2025-02-02T19:04:27+00:00", "coordonnees_geo": {"lon": 2.383553994571467, "lat": 48.858688774062955}, "nom_arrondissement_communes": "Paris", "code_insee_commune": "75056"}, {"stationcode": "11002", "name": "Roquette - Thi\u00e9r\u00e9", "is_installed": "OUI", "capacity": 23, "numdocksavailable": 5, "numbikesavailable": 16, "mechanical": 11, "ebike": 5, "is_renting": "OUI", "is_returning": "OUI", "duedate": "2025-02-02T19:02:07+00:00", "coordonnees_geo": {"lon": 2.3733686318721463, "lat": 48.85507930579506}, "nom_arrondissement_communes": "Paris", "code_insee_commune": "75056"}, {"stationcode": "8034", "name": "Berri - Haussmann", "is_installed": "OUI", "capacity": 35, "numdocksavailable": 27, "numbikesavailable": 6, "mechanical": 3, "ebike": 3, "is_renting": "OUI", "is_returning": "OUI", "duedate": "2025-02-02T18:59:16+00:00", "coordonnees_geo": {"lon": 2.3082953318953514, "lat": 48.874746047357135}, "nom_arrondissement_communes": "Paris", "code_insee_commune": "75056"}, {"stationcode": "19043", "name": "Delphine Seyrig - G\u00e9n\u00e9ral Leclerc", "is_installed": "OUI", "capacity": 53, "numdocksavailable": 45, "numbikesavailable": 5, "mechanical": 2, "ebike": 3, "is_renting": "OUI", "is_returning": "OUI", "duedate": "2025-02-02T18:57:30+00:00", "coordonnees_geo": {"lon": 2.39790290594101, "lat": 48.893923963057865}, "nom_arrondissement_communes": "Pantin", "code_insee_commune": "93055"}, {"stationcode": "20042", "name": "Pyr\u00e9n\u00e9es - Emmery", "is_installed": "OUI", "capacity": 40, "numdocksavailable": 32, "numbikesavailable": 8, "mechanical": 2, "ebike": 6, "is_renting": "OUI", "is_returning": "OUI", "duedate": "2025-02-02T19:05:42+00:00", "coordonnees_geo": {"lon": 2.392039597034455, "lat": 48.872010281270974}, "nom_arrondissement_communes": "Paris", "code_insee_commune": "75056"}, {"stationcode": "17030", "name": "Pereire - Rennequin", "is_installed": "OUI", "capacity": 23, "numdocksavailable": 17, "numbikesavailable": 5, "mechanical": 2, "ebike": 3, "is_renting": "OUI", "is_returning": "OUI", "duedate": "2025-02-02T19:01:22+00:00", "coordonnees_geo": {"lon": 2.2952447086572647, "lat": 48.88364782887555}, "nom_arrondissement_communes": "Paris", "code_insee_commune": "75056"}, {"stationcode": "11027", "name": "Saint-Ambroise - Parmentier", "is_installed": "OUI", "capacity": 38, "numdocksavailable": 12, "numbikesavailable": 26, "mechanical": 15, "ebike": 11, "is_renting": "OUI", "is_returning": "OUI", "duedate": "2025-02-02T19:05:51+00:00", "coordonnees_geo": {"lon": 2.3772348091006, "lat": 48.862147844548}, "nom_arrondissement_communes": "Paris", "code_insee_commune": "75056"}, {"stationcode": "12128", "name": "Pyramide - Ecole du Breuil", "is_installed": "OUI", "capacity": 34, "numdocksavailable": 28, "numbikesavailable": 6, "mechanical": 3, "ebike": 3, "is_renting": "OUI", "is_returning": "OUI", "duedate": "2025-02-02T19:03:10+00:00", "coordonnees_geo": {"lon": 2.4586871266365056, "lat": 48.82237977153955}, "nom_arrondissement_communes": "Paris", "code_insee_commune": "75056"}, {"stationcode": "31009", "name": "Place Du G\u00e9n\u00e9ral De Gaulle", "is_installed": "OUI", "capacity": 26, "numdocksavailable": 23, "numbikesavailable": 2, "mechanical": 0, "ebike": 2, "is_renting": "OUI", "is_returning": "OUI", "duedate": "2025-02-02T18:59:13+00:00", "coordonnees_geo": {"lon": 2.4329931, "lat": 48.8687591}, "nom_arrondissement_communes": "Montreuil", "code_insee_commune": "93048"}, {"stationcode": "14020", "name": "Cimeti\u00e8re de Montrouge", "is_installed": "OUI", "capacity": 58, "numdocksavailable": 50, "numbikesavailable": 7, "mechanical": 1, "ebike": 6, "is_renting": "OUI", "is_returning": "OUI", "duedate": "2025-02-02T19:05:05+00:00", "coordonnees_geo": {"lon": 2.3215785772007, "lat": 48.821466904768}, "nom_arrondissement_communes": "Paris", "code_insee_commune": "75056"}, {"stationcode": "15042", "name": "Henry Farman", "is_installed": "OUI", "capacity": 16, "numdocksavailable": 6, "numbikesavailable": 10, "mechanical": 9, "ebike": 1, "is_renting": "OUI", "is_returning": "OUI", "duedate": "2025-02-02T19:04:12+00:00", "coordonnees_geo": {"lon": 2.2713854536414146, "lat": 48.83372430280548}, "nom_arrondissement_communes": "Paris", "code_insee_commune": "75056"}, {"stationcode": "18011", "name": "Pajol - Place Herbert", "is_installed": "OUI", "capacity": 39, "numdocksavailable": 32, "numbikesavailable": 6, "mechanical": 0, "ebike": 6, "is_renting": "OUI", "is_returning": "OUI", "duedate": "2025-02-02T19:04:31+00:00", "coordonnees_geo": {"lon": 2.3635598, "lat": 48.8927825}, "nom_arrondissement_communes": "Paris", "code_insee_commune": "75056"}, {"stationcode": "42706", "name": "Roger Salengro - Fontainebleau", "is_installed": "OUI", "capacity": 25, "numdocksavailable": 19, "numbikesavailable": 5, "mechanical": 1, "ebike": 4, "is_renting": "OUI", "is_returning": "OUI", "duedate": "2025-02-02T19:02:35+00:00", "coordonnees_geo": {"lon": 2.3611663654447, "lat": 48.814548697325}, "nom_arrondissement_communes": "Le Kremlin-Bic\u00eatre", "code_insee_commune": "94043"}, {"stationcode": "19120", "name": "Carducci - Place Hannah Arendt", "is_installed": "OUI", "capacity": 27, "numdocksavailable": 27, "numbikesavailable": 0, "mechanical": 0, "ebike": 0, "is_renting": "OUI", "is_returning": "OUI", "duedate": "2025-02-02T05:45:18+00:00", "coordonnees_geo": {"lon": 2.3860743641853337, "lat": 48.877436681515796}, "nom_arrondissement_communes": "Paris", "code_insee_commune": "75056"}, {"stationcode": "18003", "name": "Cimeti\u00e8re de Montmartre", "is_installed": "OUI", "capacity": 43, "numdocksavailable": 40, "numbikesavailable": 3, "mechanical": 2, "ebike": 1, "is_renting": "OUI", "is_returning": "OUI", "duedate": "2025-02-02T19:05:44+00:00", "coordonnees_geo": {"lon": 2.3328901827335, "lat": 48.886472466142}, "nom_arrondissement_communes": "Paris", "code_insee_commune": "75056"}, {"stationcode": "11113", "name": "Richard Lenoir - Republique", "is_installed": "OUI", "capacity": 58, "numdocksavailable": 39, "numbikesavailable": 19, "mechanical": 14, "ebike": 5, "is_renting": "OUI", "is_returning": "OUI", "duedate": "2025-02-02T19:05:15+00:00", "coordonnees_geo": {"lon": 2.3692541, "lat": 48.8667175}, "nom_arrondissement_communes": "Paris", "code_insee_commune": "75056"}, {"stationcode": "15104", "name": "H\u00f4pital Europ\u00e9en Georges Pompidou", "is_installed": "OUI", "capacity": 64, "numdocksavailable": 25, "numbikesavailable": 39, "mechanical": 36, "ebike": 3, "is_renting": "OUI", "is_returning": "OUI", "duedate": "2025-02-02T19:02:04+00:00", "coordonnees_geo": {"lon": 2.2753742337227, "lat": 48.837695319163}, "nom_arrondissement_communes": "Paris", "code_insee_commune": "75056"}, {"stationcode": "14003", "name": "Schoelcher - Raspail", "is_installed": "OUI", "capacity": 50, "numdocksavailable": 45, "numbikesavailable": 3, "mechanical": 0, "ebike": 3, "is_renting": "OUI", "is_returning": "OUI", "duedate": "2025-02-02T19:00:50+00:00", "coordonnees_geo": {"lon": 2.3312794080411474, "lat": 48.83681733526843}, "nom_arrondissement_communes": "Paris", "code_insee_commune": "75056"}, {"stationcode": "43008", "name": "Fontenay - Lib\u00e9ration", "is_installed": "OUI", "capacity": 25, "numdocksavailable": 21, "numbikesavailable": 4, "mechanical": 3, "ebike": 1, "is_renting": "OUI", "is_returning": "OUI", "duedate": "2025-02-02T19:06:04+00:00", "coordonnees_geo": {"lon": 2.4451419711113, "lat": 48.847803063647}, "nom_arrondissement_communes": "Vincennes", "code_insee_commune": "94080"}, {"stationcode": "14138", "name": "Porte de Vanves", "is_installed": "OUI", "capacity": 32, "numdocksavailable": 30, "numbikesavailable": 2, "mechanical": 0, "ebike": 2, "is_renting": "OUI", "is_returning": "OUI", "duedate": "2025-02-02T18:58:09+00:00", "coordonnees_geo": {"lon": 2.3056878894567, "lat": 48.828012849445}, "nom_arrondissement_communes": "Paris", "code_insee_commune": "75056"}, {"stationcode": "41209", "name": "Cimeti\u00e8re de Fontenay-sous-Bois", "is_installed": "OUI", "capacity": 15, "numdocksavailable": 11, "numbikesavailable": 3, "mechanical": 0, "ebike": 3, "is_renting": "OUI", "is_returning": "OUI", "duedate": "2025-02-02T19:00:58+00:00", "coordonnees_geo": {"lon": 2.4787822365760808, "lat": 48.84706173362218}, "nom_arrondissement_communes": "Fontenay-sous-Bois", "code_insee_commune": "94033"}, {"stationcode": "21312", "name": "Lucie Aubrac - Fort", "is_installed": "OUI", "capacity": 30, "numdocksavailable": 21, "numbikesavailable": 9, "mechanical": 0, "ebike": 9, "is_renting": "OUI", "is_returning": "OUI", "duedate": "2025-02-02T18:58:34+00:00", "coordonnees_geo": {"lon": 2.271184623241425, "lat": 48.818144834008976}, "nom_arrondissement_communes": "Issy-les-Moulineaux", "code_insee_commune": "92040"}, {"stationcode": "14008", "name": "Mouton Duvernet - G\u00e9n\u00e9ral Leclerc", "is_installed": "OUI", "capacity": 28, "numdocksavailable": 22, "numbikesavailable": 6, "mechanical": 3, "ebike": 3, "is_renting": "OUI", "is_returning": "OUI", "duedate": "2025-02-02T19:03:01+00:00", "coordonnees_geo": {"lon": 2.3293121159077, "lat": 48.831632518293}, "nom_arrondissement_communes": "Paris", "code_insee_commune": "75056"}, {"stationcode": "13001", "name": "Port-Royal - H\u00f4pital du Val-de-Gr\u00e2ce", "is_installed": "OUI", "capacity": 18, "numdocksavailable": 6, "numbikesavailable": 11, "mechanical": 4, "ebike": 7, "is_renting": "OUI", "is_returning": "OUI", "duedate": "2025-02-02T19:03:48+00:00", "coordonnees_geo": {"lon": 2.3448138346607, "lat": 48.837668272811}, "nom_arrondissement_communes": "Paris", "code_insee_commune": "75056"}, {"stationcode": "18028", "name": "Championnet - Vauvenargues", "is_installed": "OUI", "capacity": 33, "numdocksavailable": 26, "numbikesavailable": 7, "mechanical": 3, "ebike": 4, "is_renting": "OUI", "is_returning": "OUI", "duedate": "2025-02-02T19:01:21+00:00", "coordonnees_geo": {"lon": 2.3319872841238976, "lat": 48.89401874744574}, "nom_arrondissement_communes": "Paris", "code_insee_commune": "75056"}, {"stationcode": "8017", "name": "Rocher - Laborde", "is_installed": "OUI", "capacity": 65, "numdocksavailable": 35, "numbikesavailable": 30, "mechanical": 27, "ebike": 3, "is_renting": "OUI", "is_returning": "OUI", "duedate": "2025-02-02T19:05:22+00:00", "coordonnees_geo": {"lon": 2.322616316378116, "lat": 48.87590240712654}, "nom_arrondissement_communes": "Paris", "code_insee_commune": "75056"}, {"stationcode": "5124", "name": "Erasme - Ulm", "is_installed": "OUI", "capacity": 24, "numdocksavailable": 17, "numbikesavailable": 7, "mechanical": 2, "ebike": 5, "is_renting": "OUI", "is_returning": "OUI", "duedate": "2025-02-02T19:05:54+00:00", "coordonnees_geo": {"lon": 2.3445946723222733, "lat": 48.84264375274712}, "nom_arrondissement_communes": "Paris", "code_insee_commune": "75056"}, {"stationcode": "22406", "name": "Guy M\u00f4quet - Etienne Dolet", "is_installed": "OUI", "capacity": 23, "numdocksavailable": 20, "numbikesavailable": 3, "mechanical": 0, "ebike": 3, "is_renting": "OUI", "is_returning": "OUI", "duedate": "2025-02-02T19:06:12+00:00", "coordonnees_geo": {"lon": 2.298078276995073, "lat": 48.81527009991819}, "nom_arrondissement_communes": "Malakoff", "code_insee_commune": "92046"}, {"stationcode": "8054", "name": "Bertie Albrecht - Hoche", "is_installed": "OUI", "capacity": 32, "numdocksavailable": 23, "numbikesavailable": 9, "mechanical": 2, "ebike": 7, "is_renting": "OUI", "is_returning": "OUI", "duedate": "2025-02-02T19:04:40+00:00", "coordonnees_geo": {"lon": 2.301303138307601, "lat": 48.87614039826388}, "nom_arrondissement_communes": "Paris", "code_insee_commune": "75056"}, {"stationcode": "21209", "name": "Moli\u00e8re - R\u00e9publique", "is_installed": "OUI", "capacity": 30, "numdocksavailable": 26, "numbikesavailable": 3, "mechanical": 1, "ebike": 2, "is_renting": "OUI", "is_returning": "OUI", "duedate": "2025-02-02T19:01:31+00:00", "coordonnees_geo": {"lon": 2.3145738624448158, "lat": 48.81111581390707}, "nom_arrondissement_communes": "Montrouge", "code_insee_commune": "92049"}, {"stationcode": "21005", "name": "H\u00f4tel de Ville de Boulogne Billancourt", "is_installed": "OUI", "capacity": 26, "numdocksavailable": 25, "numbikesavailable": 1, "mechanical": 1, "ebike": 0, "is_renting": "OUI", "is_returning": "OUI", "duedate": "2025-02-02T19:05:20+00:00", "coordonnees_geo": {"lon": 2.2416803240776066, "lat": 48.83495885166784}, "nom_arrondissement_communes": "Boulogne-Billancourt", "code_insee_commune": "92012"}, {"stationcode": "42014", "name": "Place Marcel Cachin", "is_installed": "OUI", "capacity": 32, "numdocksavailable": 0, "numbikesavailable": 31, "mechanical": 27, "ebike": 4, "is_renting": "OUI", "is_returning": "OUI", "duedate": "2025-02-02T19:06:17+00:00", "coordonnees_geo": {"lon": 2.39090770483017, "lat": 48.81411442356866}, "nom_arrondissement_communes": "Ivry-sur-Seine", "code_insee_commune": "94041"}, {"stationcode": "4016", "name": "Lobau - H\u00f4tel de Ville", "is_installed": "OUI", "capacity": 60, "numdocksavailable": 38, "numbikesavailable": 16, "mechanical": 13, "ebike": 3, "is_renting": "OUI", "is_returning": "OUI", "duedate": "2025-02-02T19:06:10+00:00", "coordonnees_geo": {"lon": 2.3532536, "lat": 48.8562118}, "nom_arrondissement_communes": "Paris", "code_insee_commune": "75056"}, {"stationcode": "15110", "name": "Place Robert Guillemard", "is_installed": "OUI", "capacity": 24, "numdocksavailable": 11, "numbikesavailable": 11, "mechanical": 9, "ebike": 2, "is_renting": "OUI", "is_returning": "OUI", "duedate": "2025-02-02T19:05:21+00:00", "coordonnees_geo": {"lon": 2.2811267160086417, "lat": 48.836191728066666}, "nom_arrondissement_communes": "Paris", "code_insee_commune": "75056"}, {"stationcode": "21006", "name": "Marcelin Berthelot", "is_installed": "OUI", "capacity": 27, "numdocksavailable": 3, "numbikesavailable": 23, "mechanical": 18, "ebike": 5, "is_renting": "OUI", "is_returning": "OUI", "duedate": "2025-02-02T19:03:50+00:00", "coordonnees_geo": {"lon": 2.233161628246308, "lat": 48.8415473058801}, "nom_arrondissement_communes": "Boulogne-Billancourt", "code_insee_commune": "92012"}, {"stationcode": "44013", "name": "Edouard Tremblay - Julian Grimaux", "is_installed": "OUI", "capacity": 30, "numdocksavailable": 28, "numbikesavailable": 1, "mechanical": 0, "ebike": 1, "is_renting": "OUI", "is_returning": "OUI", "duedate": "2025-02-02T19:02:21+00:00", "coordonnees_geo": {"lon": 2.3723508417606, "lat": 48.781383825117}, "nom_arrondissement_communes": "Vitry-sur-Seine", "code_insee_commune": "94081"}, {"stationcode": "20131", "name": "Repos - Cimeti\u00e8re du P\u00e8re Lachaise", "is_installed": "OUI", "capacity": 33, "numdocksavailable": 30, "numbikesavailable": 3, "mechanical": 2, "ebike": 1, "is_renting": "OUI", "is_returning": "OUI", "duedate": "2025-02-02T19:00:12+00:00", "coordonnees_geo": {"lon": 2.3896131366845, "lat": 48.859358523593}, "nom_arrondissement_communes": "Paris", "code_insee_commune": "75056"}, {"stationcode": "6025", "name": "Assas - Rennes", "is_installed": "OUI", "capacity": 32, "numdocksavailable": 6, "numbikesavailable": 25, "mechanical": 18, "ebike": 7, "is_renting": "OUI", "is_returning": "OUI", "duedate": "2025-02-02T19:06:20+00:00", "coordonnees_geo": {"lon": 2.32851454623001, "lat": 48.8492084999386}, "nom_arrondissement_communes": "Paris", "code_insee_commune": "75056"}, {"stationcode": "41202", "name": "Gare Rer de Fontenay sous Bois", "is_installed": "OUI", "capacity": 61, "numdocksavailable": 54, "numbikesavailable": 7, "mechanical": 2, "ebike": 5, "is_renting": "OUI", "is_returning": "OUI", "duedate": "2025-02-02T19:03:28+00:00", "coordonnees_geo": {"lon": 2.4630465, "lat": 48.8436279}, "nom_arrondissement_communes": "Fontenay-sous-Bois", "code_insee_commune": "94033"}, {"stationcode": "42021", "name": "Raspail - Manufacture des Oeillets", "is_installed": "OUI", "capacity": 32, "numdocksavailable": 21, "numbikesavailable": 11, "mechanical": 9, "ebike": 2, "is_renting": "OUI", "is_returning": "OUI", "duedate": "2025-02-02T19:05:33+00:00", "coordonnees_geo": {"lon": 2.3903009, "lat": 48.8094458}, "nom_arrondissement_communes": "Ivry-sur-Seine", "code_insee_commune": "94041"}]}