{"total_count": 1467, "results": [{"stationcode": "40001", "name": "H\u00f4pital Mondor", "is_installed": "OUI", "capacity": 28, "numdocksavailable": 10, "numbikesavailable": 18, "mechanical": 7, "ebike": 11, "is_renting": "OUI", "is_returning": "OUI", "duedate": "2025-08-19T04:38:53+00:00", "coordonnees_geo": {"lon": 2.4537451531298, "lat": 48.798922410229}, "nom_arrondissement_communes": "Cr\u00e9teil", "code_insee_commune": "94028", "station_opening_hours": null}, {"stationcode": "32017", "name": "Basilique", "is_installed": "OUI", "capacity": 22, "numdocksavailable": 9, "numbikesavailable": 12, "mechanical": 5, "ebike": 7, "is_renting": "OUI", "is_returning": "OUI", "duedate": "2025-08-19T04:30:58+00:00", "coordonnees_geo": {"lon": 2.3588666820200914, "lat": 48.93626891059109}, "nom_arrondissement_communes": "Saint-Denis", "code_insee_commune": "93066", "station_opening_hours": null}, {"stationcode": "11104", "name": "Charonne - Robert et Sonia Delaunay", "is_installed": "OUI", "capacity": 20, "numdocksavailable": 4, "numbikesavailable": 16, "mechanical": 14, "ebike": 2, "is_renting": "OUI", "is_returning": "OUI", "duedate": "2025-08-19T04:35:39+00:00", "coordonnees_geo": {"lon": 2.3925706744194, "lat": 48.855907555969}, "nom_arrondissement_communes": "Paris", "code_insee_commune": "75056", "station_opening_hours": null}, {"stationcode": "5110", "name": "Lac\u00e9p\u00e8de - Monge", "is_installed": "OUI", "capacity": 23, "numdocksavailable": 20, "numbikesavailable": 3, "mechanical": 1, "ebike": 2, "is_renting": "OUI", "is_returning": "OUI", "duedate": "2025-08-19T04:36:18+00:00", "coordonnees_geo": {"lon": 2.3519663885235786, "lat": 48.84389286531899}, "nom_arrondissement_communes": "Paris", "code_insee_commune": "75056", "station_opening_hours": null}, {"stationcode": "6108", "name": "Saint-Romain - Cherche-Midi", "is_installed": "OUI", "capacity": 17, "numdocksavailable": 14, "numbikesavailable": 3, "mechanical": 3, "ebike": 0, "is_renting": "OUI", "is_returning": "OUI", "duedate": "2025-08-19T04:37:03+00:00", "coordonnees_geo": {"lon": 2.321374788880348, "lat": 48.84708159081946}, "nom_arrondissement_communes": "Paris", "code_insee_commune": "75056", "station_opening_hours": null}, {"stationcode": "11025", "name": "Froment - Br\u00e9guet", "is_installed": "OUI", "capacity": 43, "numdocksavailable": 12, "numbikesavailable": 30, "mechanical": 28, "ebike": 2, "is_renting": "OUI", "is_returning": "OUI", "duedate": "2025-08-19T04:34:45+00:00", "coordonnees_geo": {"lon": 2.37289470306807, "lat": 48.8570414504784}, "nom_arrondissement_communes": "Paris", "code_insee_commune": "75056", "station_opening_hours": null}, {"stationcode": "17026", "name": "Jouffroy d'Abbans - Wagram", "is_installed": "OUI", "capacity": 40, "numdocksavailable": 31, "numbikesavailable": 9, "mechanical": 6, "ebike": 3, "is_renting": "OUI", "is_returning": "OUI", "duedate": "2025-08-19T04:37:19+00:00", "coordonnees_geo": {"lon": 2.301132157445, "lat": 48.881973298352}, "nom_arrondissement_communes": "Paris", "code_insee_commune": "75056", "station_opening_hours": null}, {"stationcode": "15202", "name": "Bracion - P\u00e9riph\u00e9rique", "is_installed": "OUI", "capacity": 30, "numdocksavailable": 24, "numbikesavailable": 6, "mechanical": 3, "ebike": 3, "is_renting": "OUI", "is_returning": "OUI", "duedate": "2025-08-19T04:30:41+00:00", "coordonnees_geo": {"lon": 2.3004549373748, "lat": 48.826103771275}, "nom_arrondissement_communes": "Paris", "code_insee_commune": "75056", "station_opening_hours": null}, {"stationcode": "8050", "name": "Bo\u00e9tie - Ponthieu", "is_installed": "OUI", "capacity": 45, "numdocksavailable": 40, "numbikesavailable": 4, "mechanical": 2, "ebike": 2, "is_renting": "OUI", "is_returning": "OUI", "duedate": "2025-08-19T04:34:47+00:00", "coordonnees_geo": {"lon": 2.3076787590981, "lat": 48.871417284355}, "nom_arrondissement_communes": "Paris", "code_insee_commune": "75056", "station_opening_hours": null}, {"stationcode": "14108", "name": "Le Brix et Mesmin - Jourdan", "is_installed": "OUI", "capacity": 21, "numdocksavailable": 16, "numbikesavailable": 5, "mechanical": 1, "ebike": 4, "is_renting": "OUI", "is_returning": "OUI", "duedate": "2025-08-19T04:32:56+00:00", "coordonnees_geo": {"lon": 2.327861653302471, "lat": 48.82234096593411}, "nom_arrondissement_communes": "Paris", "code_insee_commune": "75056", "station_opening_hours": null}, {"stationcode": "2022", "name": "Saint-Fiacre - Poissoni\u00e8re", "is_installed": "OUI", "capacity": 35, "numdocksavailable": 31, "numbikesavailable": 4, "mechanical": 3, "ebike": 1, "is_renting": "OUI", "is_returning": "OUI", "duedate": "2025-08-19T04:38:59+00:00", "coordonnees_geo": {"lon": 2.3459213599563, "lat": 48.870828911558}, "nom_arrondissement_communes": "Paris", "code_insee_commune": "75056", "station_opening_hours": null}, {"stationcode": "17025", "name": "Chazelles - Courcelles", "is_installed": "OUI", "capacity": 35, "numdocksavailable": 27, "numbikesavailable": 8, "mechanical": 5, "ebike": 3, "is_renting": "OUI", "is_returning": "OUI", "duedate": "2025-08-19T04:35:07+00:00", "coordonnees_geo": {"lon": 2.3034455627202988, "lat": 48.879406604954}, "nom_arrondissement_communes": "Paris", "code_insee_commune": "75056", "station_opening_hours": null}, {"stationcode": "20143", "name": "Ramponeau - Belleville", "is_installed": "OUI", "capacity": 44, "numdocksavailable": 24, "numbikesavailable": 20, "mechanical": 3, "ebike": 17, "is_renting": "OUI", "is_returning": "OUI", "duedate": "2025-08-19T04:30:33+00:00", "coordonnees_geo": {"lon": 2.379056852114, "lat": 48.871031137596}, "nom_arrondissement_communes": "Paris", "code_insee_commune": "75056", "station_opening_hours": null}, {"stationcode": "16138", "name": "Saint-Cloud - Hippodrome", "is_installed": "OUI", "capacity": 30, "numdocksavailable": 21, "numbikesavailable": 7, "mechanical": 5, "ebike": 2, "is_renting": "OUI", "is_returning": "OUI", "duedate": "2025-08-19T04:36:12+00:00", "coordonnees_geo": {"lon": 2.2549109905958176, "lat": 48.85772148887421}, "nom_arrondissement_communes": "Paris", "code_insee_commune": "75056", "station_opening_hours": null}, {"stationcode": "21216", "name": "Louis Lejeune - Barb\u00e8s", "is_installed": "OUI", "capacity": 25, "numdocksavailable": 15, "numbikesavailable": 10, "mechanical": 1, "ebike": 9, "is_renting": "OUI", "is_returning": "OUI", "duedate": "2025-08-19T04:35:04+00:00", "coordonnees_geo": {"lon": 2.3267009854316716, "lat": 48.81807418981508}, "nom_arrondissement_communes": "Montrouge", "code_insee_commune": "92049", "station_opening_hours": null}, {"stationcode": "22207", "name": "Rond-point du Dr Albert Schweitzer", "is_installed": "OUI", "capacity": 22, "numdocksavailable": 1, "numbikesavailable": 21, "mechanical": 10, "ebike": 11, "is_renting": "OUI", "is_returning": "OUI", "duedate": "2025-08-19T04:38:06+00:00", "coordonnees_geo": {"lon": 2.3143940046429634, "lat": 48.78980918988166}, "nom_arrondissement_communes": "Bagneux", "code_insee_commune": "92007", "station_opening_hours": null}, {"stationcode": "17048", "name": "De Toqueville - Terrasse", "is_installed": "OUI", "capacity": 30, "numdocksavailable": 25, "numbikesavailable": 2, "mechanical": 0, "ebike": 2, "is_renting": "OUI", "is_returning": "OUI", "duedate": "2025-08-19T04:32:28+00:00", "coordonnees_geo": {"lon": 2.314002, "lat": 48.882428}, "nom_arrondissement_communes": "Paris", "code_insee_commune": "75056", "station_opening_hours": null}, {"stationcode": "44017", "name": "Jules Guesde - Pont du Port \u00e0 l'Anglais", "is_installed": "OUI", "capacity": 30, "numdocksavailable": 9, "numbikesavailable": 19, "mechanical": 8, "ebike": 11, "is_renting": "OUI", "is_returning": "OUI", "duedate": "2025-08-19T04:38:54+00:00", "coordonnees_geo": {"lon": 2.417212128639221, "lat": 48.79628807093802}, "nom_arrondissement_communes": "Vitry-sur-Seine", "code_insee_commune": "94081", "station_opening_hours": null}, {"stationcode": "44010", "name": "8 Mai 1945 - 10 Juillet 1940", "is_installed": "OUI", "capacity": 30, "numdocksavailable": 1, "numbikesavailable": 28, "mechanical": 15, "ebike": 13, "is_renting": "OUI", "is_returning": "OUI", "duedate": "2025-08-19T04:36:07+00:00", "coordonnees_geo": {"lon": 2.3979035764933, "lat": 48.784567029674}, "nom_arrondissement_communes": "Vitry-sur-Seine", "code_insee_commune": "94081", "station_opening_hours": null}, {"stationcode": "9008", "name": "Tour d'Auvergne - Rodier", "is_installed": "OUI", "capacity": 17, "numdocksavailable": 12, "numbikesavailable": 4, "mechanical": 1, "ebike": 3, "is_renting": "OUI", "is_returning": "OUI", "duedate": "2025-08-19T04:35:18+00:00", "coordonnees_geo": {"lon": 2.343698, "lat": 48.879161}, "nom_arrondissement_communes": "Paris", "code_insee_commune": "75056", "station_opening_hours": null}, {"stationcode": "8048", "name": "Marceau - Chaillot", "is_installed": "OUI", "capacity": 21, "numdocksavailable": 6, "numbikesavailable": 15, "mechanical": 8, "ebike": 7, "is_renting": "OUI", "is_returning": "OUI", "duedate": "2025-08-19T04:36:59+00:00", "coordonnees_geo": {"lon": 2.2986030816809, "lat": 48.868834023334}, "nom_arrondissement_communes": "Paris", "code_insee_commune": "75056", "station_opening_hours": null}, {"stationcode": "14013", "name": "Liard - Amiral Mouchez", "is_installed": "OUI", "capacity": 28, "numdocksavailable": 1, "numbikesavailable": 26, "mechanical": 17, "ebike": 9, "is_renting": "OUI", "is_returning": "OUI", "duedate": "2025-08-19T04:37:13+00:00", "coordonnees_geo": {"lon": 2.342167, "lat": 48.8214169}, "nom_arrondissement_communes": "Paris", "code_insee_commune": "75056", "station_opening_hours": null}, {"stationcode": "13118", "name": "Regnault - Patay", "is_installed": "OUI", "capacity": 63, "numdocksavailable": 4, "numbikesavailable": 58, "mechanical": 55, "ebike": 3, "is_renting": "OUI", "is_returning": "OUI", "duedate": "2025-08-19T04:37:48+00:00", "coordonnees_geo": {"lon": 2.377065159380436, "lat": 48.82435782216384}, "nom_arrondissement_communes": "Paris", "code_insee_commune": "75056", "station_opening_hours": null}, {"stationcode": "15112", "name": "Vig\u00e9e-Lebrun - Anselme Payen", "is_installed": "OUI", "capacity": 24, "numdocksavailable": 22, "numbikesavailable": 1, "mechanical": 1, "ebike": 0, "is_renting": "OUI", "is_returning": "OUI", "duedate": "2025-08-19T04:30:51+00:00", "coordonnees_geo": {"lon": 2.3110422492027287, "lat": 48.838683941628375}, "nom_arrondissement_communes": "Paris", "code_insee_commune": "75056", "station_opening_hours": null}, {"stationcode": "16110", "name": "Octave Feuillet - Alb\u00e9ric Magnard", "is_installed": "OUI", "capacity": 21, "numdocksavailable": 18, "numbikesavailable": 3, "mechanical": 1, "ebike": 2, "is_renting": "OUI", "is_returning": "OUI", "duedate": "2025-08-19T04:29:45+00:00", "coordonnees_geo": {"lon": 2.2730283066630363, "lat": 48.86106902949534}, "nom_arrondissement_communes": "Paris", "code_insee_commune": "75056", "station_opening_hours": null}, {"stationcode": "8016", "name": "Square Louis XVI", "is_installed": "OUI", "capacity": 29, "numdocksavailable": 11, "numbikesavailable": 18, "mechanical": 16, "ebike": 2, "is_renting": "OUI", "is_returning": "OUI", "duedate": "2025-08-19T04:36:12+00:00", "coordonnees_geo": {"lon": 2.323658830743138, "lat": 48.87320440102894}, "nom_arrondissement_communes": "Paris", "code_insee_commune": "75056", "station_opening_hours": null}, {"stationcode": "10115", "name": "Granges aux Belles", "is_installed": "OUI", "capacity": 27, "numdocksavailable": 23, "numbikesavailable": 3, "mechanical": 1, "ebike": 2, "is_renting": "OUI", "is_returning": "OUI", "duedate": "2025-08-19T04:36:40+00:00", "coordonnees_geo": {"lon": 2.3680844979417, "lat": 48.8761373390584}, "nom_arrondissement_communes": "Paris", "code_insee_commune": "75056", "station_opening_hours": null}, {"stationcode": "10029", "name": "Dunkerque - Rocroy", "is_installed": "OUI", "capacity": 24, "numdocksavailable": 17, "numbikesavailable": 7, "mechanical": 4, "ebike": 3, "is_renting": "OUI", "is_returning": "OUI", "duedate": "2025-08-19T04:32:31+00:00", "coordonnees_geo": {"lon": 2.351464, "lat": 48.880726}, "nom_arrondissement_communes": "Paris", "code_insee_commune": "75056", "station_opening_hours": null}, {"stationcode": "10161", "name": "Gare de l'Est - Faubourg-Saint-Martin", "is_installed": "OUI", "capacity": 32, "numdocksavailable": 16, "numbikesavailable": 15, "mechanical": 8, "ebike": 7, "is_renting": "OUI", "is_returning": "OUI", "duedate": "2025-08-19T04:38:27+00:00", "coordonnees_geo": {"lon": 2.3594588041306, "lat": 48.875642647477}, "nom_arrondissement_communes": "Paris", "code_insee_commune": "75056", "station_opening_hours": null}, {"stationcode": "12031", "name": "Gabriel Lam\u00e9", "is_installed": "OUI", "capacity": 36, "numdocksavailable": 15, "numbikesavailable": 21, "mechanical": 19, "ebike": 2, "is_renting": "OUI", "is_returning": "OUI", "duedate": "2025-08-19T04:37:09+00:00", "coordonnees_geo": {"lon": 2.385534569621086, "lat": 48.8351212784276}, "nom_arrondissement_communes": "Paris", "code_insee_commune": "75056", "station_opening_hours": null}, {"stationcode": "5022", "name": "Boulangers - Cardinal Lemoine", "is_installed": "OUI", "capacity": 20, "numdocksavailable": 18, "numbikesavailable": 2, "mechanical": 1, "ebike": 1, "is_renting": "OUI", "is_returning": "OUI", "duedate": "2025-08-19T04:37:57+00:00", "coordonnees_geo": {"lon": 2.3521495, "lat": 48.8462904}, "nom_arrondissement_communes": "Paris", "code_insee_commune": "75056", "station_opening_hours": null}, {"stationcode": "8009", "name": "Gare Saint-Lazare - Isly", "is_installed": "OUI", "capacity": 27, "numdocksavailable": 19, "numbikesavailable": 8, "mechanical": 6, "ebike": 2, "is_renting": "OUI", "is_returning": "OUI", "duedate": "2025-08-19T04:38:57+00:00", "coordonnees_geo": {"lon": 2.326515804784655, "lat": 48.874777677621296}, "nom_arrondissement_communes": "Paris", "code_insee_commune": "75056", "station_opening_hours": null}, {"stationcode": "31103", "name": "Gare Rosny-Bois-Perrier", "is_installed": "OUI", "capacity": 35, "numdocksavailable": 25, "numbikesavailable": 10, "mechanical": 4, "ebike": 6, "is_renting": "OUI", "is_returning": "OUI", "duedate": "2025-08-19T04:33:38+00:00", "coordonnees_geo": {"lon": 2.480436824262142, "lat": 48.88115023337061}, "nom_arrondissement_communes": "Rosny-sous-Bois", "code_insee_commune": "93064", "station_opening_hours": null}, {"stationcode": "7018", "name": "S\u00e9gur - d'Estr\u00e9es", "is_installed": "OUI", "capacity": 19, "numdocksavailable": 18, "numbikesavailable": 1, "mechanical": 1, "ebike": 0, "is_renting": "OUI", "is_returning": "OUI", "duedate": "2025-08-19T04:30:21+00:00", "coordonnees_geo": {"lon": 2.3097044974566, "lat": 48.851419978983}, "nom_arrondissement_communes": "Paris", "code_insee_commune": "75056", "station_opening_hours": null}, {"stationcode": "21323", "name": "Charlot - Stade Gabriel Voisin", "is_installed": "OUI", "capacity": 31, "numdocksavailable": 4, "numbikesavailable": 27, "mechanical": 24, "ebike": 3, "is_renting": "OUI", "is_returning": "OUI", "duedate": "2025-08-19T04:36:39+00:00", "coordonnees_geo": {"lon": 2.268122527474, "lat": 48.827228120536}, "nom_arrondissement_communes": "Issy-les-Moulineaux", "code_insee_commune": "92040", "station_opening_hours": null}, {"stationcode": "8053", "name": "Place Georges Guillaumin", "is_installed": "OUI", "capacity": 29, "numdocksavailable": 25, "numbikesavailable": 4, "mechanical": 2, "ebike": 2, "is_renting": "OUI", "is_returning": "OUI", "duedate": "2025-08-19T04:38:22+00:00", "coordonnees_geo": {"lon": 2.301771435326, "lat": 48.874750203957}, "nom_arrondissement_communes": "Paris", "code_insee_commune": "75056", "station_opening_hours": null}, {"stationcode": "17004", "name": "Legendre - Clichy", "is_installed": "OUI", "capacity": 40, "numdocksavailable": 23, "numbikesavailable": 16, "mechanical": 4, "ebike": 12, "is_renting": "OUI", "is_returning": "OUI", "duedate": "2025-08-19T04:38:24+00:00", "coordonnees_geo": {"lon": 2.322528975094376, "lat": 48.88896161855884}, "nom_arrondissement_communes": "Paris", "code_insee_commune": "75056", "station_opening_hours": null}, {"stationcode": "26003", "name": "Argenteuil - Voltaire", "is_installed": "OUI", "capacity": 16, "numdocksavailable": 5, "numbikesavailable": 11, "mechanical": 2, "ebike": 9, "is_renting": "OUI", "is_returning": "OUI", "duedate": "2025-08-19T04:29:37+00:00", "coordonnees_geo": {"lon": 2.281411215663, "lat": 48.918648659556}, "nom_arrondissement_communes": "Asni\u00e8res-sur-Seine", "code_insee_commune": "92004", "station_opening_hours": null}, {"stationcode": "10107", "name": "Gare du Nord - H\u00f4pital Lariboisi\u00e8re", "is_installed": "OUI", "capacity": 49, "numdocksavailable": 39, "numbikesavailable": 9, "mechanical": 6, "ebike": 3, "is_renting": "OUI", "is_returning": "OUI", "duedate": "2025-08-19T04:38:21+00:00", "coordonnees_geo": {"lon": 2.352339, "lat": 48.881949}, "nom_arrondissement_communes": "Paris", "code_insee_commune": "75056", "station_opening_hours": null}, {"stationcode": "26002", "name": "Redoute - Les Courtilles", "is_installed": "OUI", "capacity": 40, "numdocksavailable": 24, "numbikesavailable": 16, "mechanical": 9, "ebike": 7, "is_renting": "OUI", "is_returning": "OUI", "duedate": "2025-08-19T04:36:59+00:00", "coordonnees_geo": {"lon": 2.2836696356535, "lat": 48.929867194519}, "nom_arrondissement_communes": "Asni\u00e8res-sur-Seine", "code_insee_commune": "92004", "station_opening_hours": null}, {"stationcode": "17043", "name": "Belidor - Gouvion-Saint-Cyr", "is_installed": "OUI", "capacity": 39, "numdocksavailable": 37, "numbikesavailable": 2, "mechanical": 1, "ebike": 1, "is_renting": "OUI", "is_returning": "OUI", "duedate": "2025-08-19T04:33:55+00:00", "coordonnees_geo": {"lon": 2.2854680567979813, "lat": 48.88022154052015}, "nom_arrondissement_communes": "Paris", "code_insee_commune": "75056", "station_opening_hours": null}, {"stationcode": "11023", "name": "Saint-Maur - Roquette", "is_installed": "OUI", "capacity": 46, "numdocksavailable": 11, "numbikesavailable": 35, "mechanical": 13, "ebike": 22, "is_renting": "OUI", "is_returning": "OUI", "duedate": "2025-08-19T04:35:18+00:00", "coordonnees_geo": {"lon": 2.383553994571467, "lat": 48.858688774062955}, "nom_arrondissement_communes": "Paris", "code_insee_commune": "75056", "station_opening_hours": null}, {"stationcode": "45003", "name": "11 Novembre 1918 - 8 Mai 1945", "is_installed": "OUI", "capacity": 36, "numdocksavailable": 23, "numbikesavailable": 14, "mechanical": 2, "ebike": 12, "is_renting": "OUI", "is_returning": "OUI", "duedate": "2025-08-19T04:33:25+00:00", "coordonnees_geo": {"lon": 2.5382421165704727, "lat": 48.80889533774377}, "nom_arrondissement_communes": "Champigny-sur-Marne", "code_insee_commune": "94017", "station_opening_hours": null}, {"stationcode": "12111", "name": "Claude Decaen - Cannebi\u00e8re", "is_installed": "OUI", "capacity": 45, "numdocksavailable": 23, "numbikesavailable": 21, "mechanical": 3, "ebike": 18, "is_renting": "OUI", "is_returning": "OUI", "duedate": "2025-08-19T04:38:58+00:00", "coordonnees_geo": {"lon": 2.397253782195704, "lat": 48.83761417037952}, "nom_arrondissement_communes": "Paris", "code_insee_commune": "75056", "station_opening_hours": null}, {"stationcode": "8034", "name": "Berri - Haussmann", "is_installed": "OUI", "capacity": 35, "numdocksavailable": 31, "numbikesavailable": 4, "mechanical": 2, "ebike": 2, "is_renting": "OUI", "is_returning": "OUI", "duedate": "2025-08-19T04:38:07+00:00", "coordonnees_geo": {"lon": 2.3082953318953514, "lat": 48.874746047357135}, "nom_arrondissement_communes": "Paris", "code_insee_commune": "75056", "station_opening_hours": null}, {"stationcode": "5032", "name": "Panth\u00e9on - Valette", "is_installed": "OUI", "capacity": 39, "numdocksavailable": 38, "numbikesavailable": 1, "mechanical": 0, "ebike": 1, "is_renting": "OUI", "is_returning": "OUI", "duedate": "2025-08-19T04:35:56+00:00", "coordonnees_geo": {"lon": 2.3464982619671, "lat": 48.847020571652}, "nom_arrondissement_communes": "Paris", "code_insee_commune": "75056", "station_opening_hours": null}, {"stationcode": "16108", "name": "Sablons - Georges Mandel", "is_installed": "OUI", "capacity": 38, "numdocksavailable": 32, "numbikesavailable": 6, "mechanical": 1, "ebike": 5, "is_renting": "OUI", "is_returning": "OUI", "duedate": "2025-08-19T04:39:13+00:00", "coordonnees_geo": {"lon": 2.28189, "lat": 48.863875}, "nom_arrondissement_communes": "Paris", "code_insee_commune": "75056", "station_opening_hours": null}, {"stationcode": "17030", "name": "Pereire - Rennequin", "is_installed": "OUI", "capacity": 23, "numdocksavailable": 15, "numbikesavailable": 8, "mechanical": 3, "ebike": 5, "is_renting": "OUI", "is_returning": "OUI", "duedate": "2025-08-19T04:38:07+00:00", "coordonnees_geo": {"lon": 2.2952447086572647, "lat": 48.88364782887555}, "nom_arrondissement_communes": "Paris", "code_insee_commune": "75056", "station_opening_hours": null}, {"stationcode": "6006", "name": "Notre-Dame-des-Champs - Stanislas", "is_installed": "OUI", "capacity": 19, "numdocksavailable": 17, "numbikesavailable": 2, "mechanical": 1, "ebike": 1, "is_renting": "OUI", "is_returning": "OUI", "duedate": "2025-08-19T04:38:53+00:00", "coordonnees_geo": {"lon": 2.329337755887181, "lat": 48.84479928858768}, "nom_arrondissement_communes": "Paris", "code_insee_commune": "75056", "station_opening_hours": null}, {"stationcode": "11027", "name": "Saint-Ambroise - Parmentier", "is_installed": "OUI", "capacity": 38, "numdocksavailable": 26, "numbikesavailable": 11, "mechanical": 9, "ebike": 2, "is_renting": "OUI", "is_returning": "OUI", "duedate": "2025-08-19T04:37:19+00:00", "coordonnees_geo": {"lon": 2.3772348091006, "lat": 48.862147844548}, "nom_arrondissement_communes": "Paris", "code_insee_commune": "75056", "station_opening_hours": null}, {"stationcode": "8010", "name": "Li\u00e8ge - Moscou", "is_installed": "OUI", "capacity": 17, "numdocksavailable": 17, "numbikesavailable": 0, "mechanical": 0, "ebike": 0, "is_renting": "OUI", "is_returning": "OUI", "duedate": "2025-08-19T04:30:31+00:00", "coordonnees_geo": {"lon": 2.3264628, "lat": 48.8795431}, "nom_arrondissement_communes": "Paris", "code_insee_commune": "75056", "station_opening_hours": null}, {"stationcode": "31022", "name": "Mairie de Montreuil", "is_installed": "OUI", "capacity": 52, "numdocksavailable": 49, "numbikesavailable": 2, "mechanical": 1, "ebike": 1, "is_renting": "OUI", "is_returning": "OUI", "duedate": "2025-08-19T04:39:06+00:00", "coordonnees_geo": {"lon": 2.440614402294159, "lat": 48.86131452758348}, "nom_arrondissement_communes": "Montreuil", "code_insee_commune": "93048", "station_opening_hours": null}, {"stationcode": "46002", "name": "Rouget de Lisle", "is_installed": "OUI", "capacity": 35, "numdocksavailable": 8, "numbikesavailable": 26, "mechanical": 12, "ebike": 14, "is_renting": "OUI", "is_returning": "OUI", "duedate": "2025-08-19T04:39:05+00:00", "coordonnees_geo": {"lon": 2.4071189761161804, "lat": 48.764615483395254}, "nom_arrondissement_communes": "Choisy-le-Roi", "code_insee_commune": "94022", "station_opening_hours": null}, {"stationcode": "10016", "name": "R\u00e9collets - Square Villemin", "is_installed": "OUI", "capacity": 17, "numdocksavailable": 10, "numbikesavailable": 5, "mechanical": 5, "ebike": 0, "is_renting": "OUI", "is_returning": "OUI", "duedate": "2025-08-19T04:38:29+00:00", "coordonnees_geo": {"lon": 2.359801238597928, "lat": 48.875034655883944}, "nom_arrondissement_communes": "Paris", "code_insee_commune": "75056", "station_opening_hours": null}, {"stationcode": "41302", "name": "Charles de Gaulle - Beaut\u00e9", "is_installed": "OUI", "capacity": 49, "numdocksavailable": 35, "numbikesavailable": 14, "mechanical": 3, "ebike": 11, "is_renting": "OUI", "is_returning": "OUI", "duedate": "2025-08-19T04:39:00+00:00", "coordonnees_geo": {"lon": 2.479562651149885, "lat": 48.83649602312711}, "nom_arrondissement_communes": "Nogent-sur-Marne", "code_insee_commune": "94052", "station_opening_hours": null}, {"stationcode": "15042", "name": "Henry Farman", "is_installed": "OUI", "capacity": 16, "numdocksavailable": 6, "numbikesavailable": 10, "mechanical": 10, "ebike": 0, "is_renting": "OUI", "is_returning": "OUI", "duedate": "2025-08-19T04:37:35+00:00", "coordonnees_geo": {"lon": 2.2713854536414146, "lat": 48.83372430280548}, "nom_arrondissement_communes": "Paris", "code_insee_commune": "75056", "station_opening_hours": null}, {"stationcode": "18011", "name": "Pajol - Place Herbert", "is_installed": "OUI", "capacity": 39, "numdocksavailable": 18, "numbikesavailable": 19, "mechanical": 8, "ebike": 11, "is_renting": "OUI", "is_returning": "OUI", "duedate": "2025-08-19T04:34:19+00:00", "coordonnees_geo": {"lon": 2.3635598, "lat": 48.8927825}, "nom_arrondissement_communes": "Paris", "code_insee_commune": "75056", "station_opening_hours": null}, {"stationcode": "44006", "name": "Concorde - Stalingrad", "is_installed": "OUI", "capacity": 35, "numdocksavailable": 6, "numbikesavailable": 29, "mechanical": 4, "ebike": 25, "is_renting": "OUI", "is_returning": "OUI", "duedate": "2025-08-19T04:38:48+00:00", "coordonnees_geo": {"lon": 2.3821302, "lat": 48.7985844}, "nom_arrondissement_communes": "Vitry-sur-Seine", "code_insee_commune": "94081", "station_opening_hours": null}, {"stationcode": "19120", "name": "Carducci - Place Hannah Arendt", "is_installed": "OUI", "capacity": 27, "numdocksavailable": 6, "numbikesavailable": 21, "mechanical": 1, "ebike": 20, "is_renting": "OUI", "is_returning": "OUI", "duedate": "2025-08-19T04:38:19+00:00", "coordonnees_geo": {"lon": 2.3860743641853337, "lat": 48.877436681515796}, "nom_arrondissement_communes": "Paris", "code_insee_commune": "75056", "station_opening_hours": null}, {"stationcode": "11113", "name": "Richard Lenoir - Republique", "is_installed": "OUI", "capacity": 58, "numdocksavailable": 17, "numbikesavailable": 40, "mechanical": 40, "ebike": 0, "is_renting": "OUI", "is_returning": "OUI", "duedate": "2025-08-19T04:38:48+00:00", "coordonnees_geo": {"lon": 2.3692541, "lat": 48.8667175}, "nom_arrondissement_communes": "Paris", "code_insee_commune": "75056", "station_opening_hours": null}, {"stationcode": "14003", "name": "Schoelcher - Raspail", "is_installed": "OUI", "capacity": 50, "numdocksavailable": 43, "numbikesavailable": 5, "mechanical": 1, "ebike": 4, "is_renting": "OUI", "is_returning": "OUI", "duedate": "2025-08-19T04:36:25+00:00", "coordonnees_geo": {"lon": 2.3312794080411474, "lat": 48.83681733526843}, "nom_arrondissement_communes": "Paris", "code_insee_commune": "75056", "station_opening_hours": null}, {"stationcode": "4016", "name": "Lobau - H\u00f4tel de Ville", "is_installed": "OUI", "capacity": 60, "numdocksavailable": 31, "numbikesavailable": 28, "mechanical": 27, "ebike": 1, "is_renting": "OUI", "is_returning": "OUI", "duedate": "2025-08-19T04:36:17+00:00", "coordonnees_geo": {"lon": 2.3532536, "lat": 48.8562118}, "nom_arrondissement_communes": "Paris", "code_insee_commune": "75056", "station_opening_hours": null}, {"stationcode": "14138", "name": "Porte de Vanves", "is_installed": "OUI", "capacity": 32, "numdocksavailable": 23, "numbikesavailable": 8, "mechanical": 1, "ebike": 7, "is_renting": "OUI", "is_returning": "OUI", "duedate": "2025-08-19T04:39:03+00:00", "coordonnees_geo": {"lon": 2.3056878894567, "lat": 48.828012849445}, "nom_arrondissement_communes": "Paris", "code_insee_commune": "75056", "station_opening_hours": null}, {"stationcode": "12114", "name": "Victor Hugo - Jeanne Jugan", "is_installed": "OUI", "capacity": 28, "numdocksavailable": 14, "numbikesavailable": 14, "mechanical": 7, "ebike": 7, "is_renting": "OUI", "is_returning": "OUI", "duedate": "2025-08-19T04:34:58+00:00", "coordonnees_geo": {"lon": 2.415081394834419, "lat": 48.843949064031825}, "nom_arrondissement_communes": "Paris", "code_insee_commune": "75056", "station_opening_hours": null}, {"stationcode": "41209", "name": "Cimeti\u00e8re de Fontenay-sous-Bois", "is_installed": "OUI", "capacity": 15, "numdocksavailable": 8, "numbikesavailable": 7, "mechanical": 1, "ebike": 6, "is_renting": "OUI", "is_returning": "OUI", "duedate": "2025-08-19T04:38:48+00:00", "coordonnees_geo": {"lon": 2.4787822365760808, "lat": 48.84706173362218}, "nom_arrondissement_communes": "Fontenay-sous-Bois", "code_insee_commune": "94033", "station_opening_hours": null}, {"stationcode": "13001", "name": "Port-Royal - H\u00f4pital du Val-de-Gr\u00e2ce", "is_installed": "OUI", "capacity": 18, "numdocksavailable": 3, "numbikesavailable": 15, "mechanical": 9, "ebike": 6, "is_renting": "OUI", "is_returning": "OUI", "duedate": "2025-08-19T04:39:07+00:00", "coordonnees_geo": {"lon": 2.3448138346607, "lat": 48.837668272811}, "nom_arrondissement_communes": "Paris", "code_insee_commune": "75056", "station_opening_hours": null}, {"stationcode": "8017", "name": "Rocher - Laborde", "is_installed": "OUI", "capacity": 65, "numdocksavailable": 47, "numbikesavailable": 18, "mechanical": 14, "ebike": 4, "is_renting": "OUI", "is_returning": "OUI", "duedate": "2025-08-19T04:37:22+00:00", "coordonnees_geo": {"lon": 2.322616316378116, "lat": 48.87590240712654}, "nom_arrondissement_communes": "Paris", "code_insee_commune": "75056", "station_opening_hours": null}, {"stationcode": "15054", "name": "Lecourbe - Jean Maridor", "is_installed": "OUI", "capacity": 19, "numdocksavailable": 8, "numbikesavailable": 11, "mechanical": 8, "ebike": 3, "is_renting": "OUI", "is_returning": "OUI", "duedate": "2025-08-19T04:37:23+00:00", "coordonnees_geo": {"lon": 2.2877392172813416, "lat": 48.83796366147599}, "nom_arrondissement_communes": "Paris", "code_insee_commune": "75056", "station_opening_hours": null}, {"stationcode": "15106", "name": "Grenelle - Violet", "is_installed": "OUI", "capacity": 35, "numdocksavailable": 16, "numbikesavailable": 19, "mechanical": 13, "ebike": 6, "is_renting": "OUI", "is_returning": "OUI", "duedate": "2025-08-19T04:38:57+00:00", "coordonnees_geo": {"lon": 2.294612042605877, "lat": 48.84993035512154}, "nom_arrondissement_communes": "Paris", "code_insee_commune": "75056", "station_opening_hours": null}, {"stationcode": "14106", "name": "Marc Sangnier - Porte de Vanves", "is_installed": "OUI", "capacity": 21, "numdocksavailable": 13, "numbikesavailable": 8, "mechanical": 5, "ebike": 3, "is_renting": "OUI", "is_returning": "OUI", "duedate": "2025-08-19T04:38:32+00:00", "coordonnees_geo": {"lon": 2.3107116669416428, "lat": 48.825218683556734}, "nom_arrondissement_communes": "Paris", "code_insee_commune": "75056", "station_opening_hours": null}, {"stationcode": "18046", "name": "Etienne Jodelle - Saint Ouen", "is_installed": "OUI", "capacity": 33, "numdocksavailable": 19, "numbikesavailable": 13, "mechanical": 8, "ebike": 5, "is_renting": "OUI", "is_returning": "OUI", "duedate": "2025-08-19T04:35:33+00:00", "coordonnees_geo": {"lon": 2.326124420314341, "lat": 48.88794016394694}, "nom_arrondissement_communes": "Paris", "code_insee_commune": "75056", "station_opening_hours": null}, {"stationcode": "22406", "name": "Guy M\u00f4quet - Etienne Dolet", "is_installed": "OUI", "capacity": 23, "numdocksavailable": 17, "numbikesavailable": 4, "mechanical": 2, "ebike": 2, "is_renting": "OUI", "is_returning": "OUI", "duedate": "2025-08-19T04:35:46+00:00", "coordonnees_geo": {"lon": 2.298078276995073, "lat": 48.81527009991819}, "nom_arrondissement_communes": "Malakoff", "code_insee_commune": "92046", "station_opening_hours": null}, {"stationcode": "8054", "name": "Bertie Albrecht - Hoche", "is_installed": "OUI", "capacity": 32, "numdocksavailable": 28, "numbikesavailable": 4, "mechanical": 2, "ebike": 2, "is_renting": "OUI", "is_returning": "OUI", "duedate": "2025-08-19T04:37:11+00:00", "coordonnees_geo": {"lon": 2.301303138307601, "lat": 48.87614039826388}, "nom_arrondissement_communes": "Paris", "code_insee_commune": "75056", "station_opening_hours": null}, {"stationcode": "14012", "name": "Sibelle - Al\u00e9sia", "is_installed": "OUI", "capacity": 37, "numdocksavailable": 27, "numbikesavailable": 10, "mechanical": 1, "ebike": 9, "is_renting": "OUI", "is_returning": "OUI", "duedate": "2025-08-19T04:33:44+00:00", "coordonnees_geo": {"lon": 2.3384983465075493, "lat": 48.826701758539215}, "nom_arrondissement_communes": "Paris", "code_insee_commune": "75056", "station_opening_hours": null}, {"stationcode": "21005", "name": "H\u00f4tel de Ville de Boulogne Billancourt", "is_installed": "OUI", "capacity": 26, "numdocksavailable": 19, "numbikesavailable": 7, "mechanical": 6, "ebike": 1, "is_renting": "OUI", "is_returning": "OUI", "duedate": "2025-08-19T04:36:53+00:00", "coordonnees_geo": {"lon": 2.2416803240776066, "lat": 48.83495885166784}, "nom_arrondissement_communes": "Boulogne-Billancourt", "code_insee_commune": "92012", "station_opening_hours": null}, {"stationcode": "17203", "name": "Place de la Porte de Champeret", "is_installed": "OUI", "capacity": 28, "numdocksavailable": 20, "numbikesavailable": 8, "mechanical": 5, "ebike": 3, "is_renting": "OUI", "is_returning": "OUI", "duedate": "2025-08-19T04:35:31+00:00", "coordonnees_geo": {"lon": 2.2917001576821, "lat": 48.886062068226}, "nom_arrondissement_communes": "Paris", "code_insee_commune": "75056", "station_opening_hours": null}, {"stationcode": "21006", "name": "Marcelin Berthelot", "is_installed": "OUI", "capacity": 27, "numdocksavailable": 14, "numbikesavailable": 12, "mechanical": 3, "ebike": 9, "is_renting": "OUI", "is_returning": "OUI", "duedate": "2025-08-19T04:34:19+00:00", "coordonnees_geo": {"lon": 2.233161628246308, "lat": 48.8415473058801}, "nom_arrondissement_communes": "Boulogne-Billancourt", "code_insee_commune": "92012", "station_opening_hours": null}, {"stationcode": "20131", "name": "Repos - Cimeti\u00e8re du P\u00e8re Lachaise", "is_installed": "OUI", "capacity": 33, "numdocksavailable": 29, "numbikesavailable": 3, "mechanical": 1, "ebike": 2, "is_renting": "OUI", "is_returning": "OUI", "duedate": "2025-08-19T04:37:19+00:00", "coordonnees_geo": {"lon": 2.3896131366845, "lat": 48.859358523593}, "nom_arrondissement_communes": "Paris", "code_insee_commune": "75056", "station_opening_hours": null}, {"stationcode": "19210", "name": "Place des F\u00eates - Solitaires", "is_installed": "NON", "capacity": 29, "numdocksavailable": 29, "numbikesavailable": 0, "mechanical": 0, "ebike": 0, "is_renting": "NON", "is_returning": "NON", "duedate": "2025-08-11T11:58:55+00:00", "coordonnees_geo": {"lon": 2.3920327806309, "lat": 48.876644633122}, "nom_arrondissement_communes": "Paris", "code_insee_commune": "75056", "station_opening_hours": null}, {"stationcode": "44003", "name": "Gabriel P\u00e9ri - Danielle Casanova", "is_installed": "OUI", "capacity": 20, "numdocksavailable": 1, "numbikesavailable": 19, "mechanical": 16, "ebike": 3, "is_renting": "OUI", "is_returning": "OUI", "duedate": "2025-08-19T04:38:54+00:00", "coordonnees_geo": {"lon": 2.4025777, "lat": 48.790114}, "nom_arrondissement_communes": "Vitry-sur-Seine", "code_insee_commune": "94081", "station_opening_hours": null}, {"stationcode": "15034", "name": "Lakanal - Commerce", "is_installed": "OUI", "capacity": 53, "numdocksavailable": 2, "numbikesavailable": 47, "mechanical": 38, "ebike": 9, "is_renting": "OUI", "is_returning": "OUI", "duedate": "2025-08-19T04:37:36+00:00", "coordonnees_geo": {"lon": 2.294059172272682, "lat": 48.84442462786544}, "nom_arrondissement_communes": "Paris", "code_insee_commune": "75056", "station_opening_hours": null}, {"stationcode": "41202", "name": "Gare Rer de Fontenay sous Bois", "is_installed": "OUI", "capacity": 61, "numdocksavailable": 51, "numbikesavailable": 10, "mechanical": 9, "ebike": 1, "is_renting": "OUI", "is_returning": "OUI", "duedate": "2025-08-19T04:35:03+00:00", "coordonnees_geo": {"lon": 2.4630465, "lat": 48.8436279}, "nom_arrondissement_communes": "Fontenay-sous-Bois", "code_insee_commune": "94033", "station_opening_hours": null}, {"stationcode": "42021", "name": "Raspail - Manufacture des Oeillets", "is_installed": "OUI", "capacity": 32, "numdocksavailable": 4, "numbikesavailable": 28, "mechanical": 17, "ebike": 11, "is_renting": "OUI", "is_returning": "OUI", "duedate": "2025-08-19T04:38:49+00:00", "coordonnees_geo": {"lon": 2.3903009, "lat": 48.8094458}, "nom_arrondissement_communes": "Ivry-sur-Seine", "code_insee_commune": "94041", "station_opening_hours": null}, {"stationcode": "20115", "name": "Louis Lumi\u00e8re - Porte de Bagnolet", "is_installed": "OUI", "capacity": 20, "numdocksavailable": 17, "numbikesavailable": 3, "mechanical": 1, "ebike": 2, "is_renting": "OUI", "is_returning": "OUI", "duedate": "2025-08-19T04:30:43+00:00", "coordonnees_geo": {"lon": 2.4105210229754443, "lat": 48.86431136000005}, "nom_arrondissement_communes": "Paris", "code_insee_commune": "75056", "station_opening_hours": null}, {"stationcode": "22402", "name": "Jean Jaur\u00e8s - Salvador Allende", "is_installed": "OUI", "capacity": 43, "numdocksavailable": 33, "numbikesavailable": 5, "mechanical": 1, "ebike": 4, "is_renting": "OUI", "is_returning": "OUI", "duedate": "2025-08-19T04:37:46+00:00", "coordonnees_geo": {"lon": 2.3026576638221745, "lat": 48.821475594736775}, "nom_arrondissement_communes": "Malakoff", "code_insee_commune": "92046", "station_opening_hours": null}, {"stationcode": "6025", "name": "Assas - Rennes", "is_installed": "OUI", "capacity": 32, "numdocksavailable": 30, "numbikesavailable": 2, "mechanical": 2, "ebike": 0, "is_renting": "OUI", "is_returning": "OUI", "duedate": "2025-08-19T04:37:30+00:00", "coordonnees_geo": {"lon": 2.32851454623001, "lat": 48.8492084999386}, "nom_arrondissement_communes": "Paris", "code_insee_commune": "75056", "station_opening_hours": null}, {"stationcode": "11030", "name": "Oberkampf - R\u00e9publique", "is_installed": "OUI", "capacity": 24, "numdocksavailable": 11, "numbikesavailable": 13, "mechanical": 10, "ebike": 3, "is_renting": "OUI", "is_returning": "OUI", "duedate": "2025-08-19T04:38:18+00:00", "coordonnees_geo": {"lon": 2.37611478491, "lat": 48.86531608707}, "nom_arrondissement_communes": "Paris", "code_insee_commune": "75056", "station_opening_hours": null}, {"stationcode": "11039", "name": "Richard Lenoir - Jean-Pierre Timbaud", "is_installed": "OUI", "capacity": 36, "numdocksavailable": 6, "numbikesavailable": 30, "mechanical": 27, "ebike": 3, "is_renting": "OUI", "is_returning": "OUI", "duedate": "2025-08-19T04:38:09+00:00", "coordonnees_geo": {"lon": 2.3693370749669, "lat": 48.865804276686}, "nom_arrondissement_communes": "Paris", "code_insee_commune": "75056", "station_opening_hours": null}, {"stationcode": "17013", "name": "Legendre - Dulong", "is_installed": "OUI", "capacity": 23, "numdocksavailable": 20, "numbikesavailable": 3, "mechanical": 1, "ebike": 2, "is_renting": "OUI", "is_returning": "OUI", "duedate": "2025-08-19T04:38:56+00:00", "coordonnees_geo": {"lon": 2.316423766314984, "lat": 48.885325169402904}, "nom_arrondissement_communes": "Paris", "code_insee_commune": "75056", "station_opening_hours": null}, {"stationcode": "11026", "name": "Chemin Vert - Saint-Maur", "is_installed": "OUI", "capacity": 45, "numdocksavailable": 22, "numbikesavailable": 23, "mechanical": 6, "ebike": 17, "is_renting": "OUI", "is_returning": "OUI", "duedate": "2025-08-19T04:38:30+00:00", "coordonnees_geo": {"lon": 2.381299026310444, "lat": 48.86112461407359}, "nom_arrondissement_communes": "Paris", "code_insee_commune": "75056", "station_opening_hours": null}, {"stationcode": "32604", "name": "Square du Th\u00e9\u00e2tre du Garde-Chasse", "is_installed": "OUI", "capacity": 50, "numdocksavailable": 42, "numbikesavailable": 8, "mechanical": 0, "ebike": 8, "is_renting": "OUI", "is_returning": "OUI", "duedate": "2025-08-19T04:36:45+00:00", "coordonnees_geo": {"lon": 2.420119643211365, "lat": 48.881287375060616}, "nom_arrondissement_communes": "Les Lilas", "code_insee_commune": "93045", "station_opening_hours": null}, {"stationcode": "23006", "name": "Jules Guesde - Alsace", "is_installed": "OUI", "capacity": 25, "numdocksavailable": 10, "numbikesavailable": 13, "mechanical": 8, "ebike": 5, "is_renting": "OUI", "is_returning": "OUI", "duedate": "2025-08-19T04:39:10+00:00", "coordonnees_geo": {"lon": 2.2950777411461, "lat": 48.890566275506}, "nom_arrondissement_communes": "Levallois-Perret", "code_insee_commune": "92044", "station_opening_hours": null}, {"stationcode": "9010", "name": "Rochechouart lamartine", "is_installed": "OUI", "capacity": 24, "numdocksavailable": 12, "numbikesavailable": 10, "mechanical": 6, "ebike": 4, "is_renting": "OUI", "is_returning": "OUI", "duedate": "2025-08-19T04:37:39+00:00", "coordonnees_geo": {"lon": 2.344393021854, "lat": 48.876719895109}, "nom_arrondissement_communes": "Paris", "code_insee_commune": "75056", "station_opening_hours": null}, {"stationcode": "18028", "name": "Championnet - Vauvenargues", "is_installed": "OUI", "capacity": 33, "numdocksavailable": 20, "numbikesavailable": 13, "mechanical": 3, "ebike": 10, "is_renting": "OUI", "is_returning": "OUI", "duedate": "2025-08-19T04:37:39+00:00", "coordonnees_geo": {"lon": 2.3319872841238976, "lat": 48.89401874744574}, "nom_arrondissement_communes": "Paris", "code_insee_commune": "75056", "station_opening_hours": null}, {"stationcode": "18009", "name": "Jean-Fran\u00e7ois L\u00e9pine - Stephenson", "is_installed": "OUI", "capacity": 22, "numdocksavailable": 11, "numbikesavailable": 11, "mechanical": 1, "ebike": 10, "is_renting": "OUI", "is_returning": "OUI", "duedate": "2025-08-19T04:35:31+00:00", "coordonnees_geo": {"lon": 2.356855627529275, "lat": 48.88611466796807}, "nom_arrondissement_communes": "Paris", "code_insee_commune": "75056", "station_opening_hours": null}, {"stationcode": "11105", "name": "Parmentier - R\u00e9publique", "is_installed": "OUI", "capacity": 50, "numdocksavailable": 16, "numbikesavailable": 8, "mechanical": 2, "ebike": 6, "is_renting": "OUI", "is_returning": "OUI", "duedate": "2025-08-19T04:36:04+00:00", "coordonnees_geo": {"lon": 2.3750124, "lat": 48.8644954}, "nom_arrondissement_communes": "Paris", "code_insee_commune": "75056", "station_opening_hours": null}, {"stationcode": "17125", "name": "Marie-Georges Picquart - Pereire", "is_installed": "OUI", "capacity": 32, "numdocksavailable": 18, "numbikesavailable": 14, "mechanical": 3, "ebike": 11, "is_renting": "OUI", "is_returning": "OUI", "duedate": "2025-08-19T04:36:44+00:00", "coordonnees_geo": {"lon": 2.3111706599593163, "lat": 48.88863669349711}, "nom_arrondissement_communes": "Paris", "code_insee_commune": "75056", "station_opening_hours": null}, {"stationcode": "43005", "name": "Gare RER de Vincennes", "is_installed": "OUI", "capacity": 51, "numdocksavailable": 25, "numbikesavailable": 26, "mechanical": 4, "ebike": 22, "is_renting": "OUI", "is_returning": "OUI", "duedate": "2025-08-19T04:36:03+00:00", "coordonnees_geo": {"lon": 2.433383166790009, "lat": 48.847563015126106}, "nom_arrondissement_communes": "Vincennes", "code_insee_commune": "94080", "station_opening_hours": null}, {"stationcode": "16136", "name": "Th\u00e9ophile Gautier - Fran\u00e7ois Millet", "is_installed": "OUI", "capacity": 30, "numdocksavailable": 3, "numbikesavailable": 27, "mechanical": 18, "ebike": 9, "is_renting": "OUI", "is_returning": "OUI", "duedate": "2025-08-19T04:38:57+00:00", "coordonnees_geo": {"lon": 2.273029983043671, "lat": 48.85034821320644}, "nom_arrondissement_communes": "Paris", "code_insee_commune": "75056", "station_opening_hours": null}, {"stationcode": "19032", "name": "Villette - Belleville", "is_installed": "OUI", "capacity": 48, "numdocksavailable": 28, "numbikesavailable": 19, "mechanical": 4, "ebike": 15, "is_renting": "OUI", "is_returning": "OUI", "duedate": "2025-08-19T04:33:16+00:00", "coordonnees_geo": {"lon": 2.376461327076, "lat": 48.8726877314}, "nom_arrondissement_communes": "Paris", "code_insee_commune": "75056", "station_opening_hours": null}]}