{"total_count": 1499, "results": [{"stationcode": "16107", "name": "Benjamin Godard - Victor Hugo", "is_installed": "OUI", "capacity": 35, "numdocksavailable": 22, "numbikesavailable": 13, "mechanical": 12, "ebike": 1, "is_renting": "OUI", "is_returning": "OUI", "duedate": "2024-08-19T12:05:08+00:00", "coordonnees_geo": {"lon": 2.275725, "lat": 48.865983}, "nom_arrondissement_communes": "Paris", "code_insee_commune": "75056"}, {"stationcode": "9020", "name": "Toudouze - Clauzel", "is_installed": "OUI", "capacity": 21, "numdocksavailable": 20, "numbikesavailable": 1, "mechanical": 0, "ebike": 1, "is_renting": "OUI", "is_returning": "OUI", "duedate": "2024-08-19T12:03:55+00:00", "coordonnees_geo": {"lon": 2.3373600840568547, "lat": 48.87929591733507}, "nom_arrondissement_communes": "Paris", "code_insee_commune": "75056"}, {"stationcode": "14111", "name": "Cassini - Denfert-Rochereau", "is_installed": "OUI", "capacity": 25, "numdocksavailable": 18, "numbikesavailable": 6, "mechanical": 2, "ebike": 4, "is_renting": "OUI", "is_returning": "OUI", "duedate": "2024-08-19T12:01:13+00:00", "coordonnees_geo": {"lon": 2.3360354080796, "lat": 48.837525839067}, "nom_arrondissement_communes": "Paris", "code_insee_commune": "75056"}, {"stationcode": "14014", "name": "Jourdan - Stade Charl\u00e9ty", "is_installed": "OUI", "capacity": 60, "numdocksavailable": 51, "numbikesavailable": 7, "mechanical": 1, "ebike": 6, "is_renting": "OUI", "is_returning": "OUI", "duedate": "2024-08-19T12:05:50+00:00", "coordonnees_geo": {"lon": 2.3433353751898, "lat": 48.819428333369}, "nom_arrondissement_communes": "Paris", "code_insee_commune": "75056"}, {"stationcode": "6003", "name": "Saint-Sulpice", "is_installed": "OUI", "capacity": 21, "numdocksavailable": 4, "numbikesavailable": 17, "mechanical": 12, "ebike": 5, "is_renting": "OUI", "is_returning": "OUI", "duedate": "2024-08-19T12:04:29+00:00", "coordonnees_geo": {"lon": 2.3308077827095985, "lat": 48.85165383178419}, "nom_arrondissement_communes": "Paris", "code_insee_commune": "75056"}, {"stationcode": "5110", "name": "Lac\u00e9p\u00e8de - Monge", "is_installed": "OUI", "capacity": 23, "numdocksavailable": 18, "numbikesavailable": 5, "mechanical": 1, "ebike": 4, "is_renting": "OUI", "is_returning": "OUI", "duedate": "2024-08-19T12:01:27+00:00", "coordonnees_geo": {"lon": 2.3519663885235786, "lat": 48.84389286531899}, "nom_arrondissement_communes": "Paris", "code_insee_commune": "75056"}, {"stationcode": "42016", "name": "Pierre et Marie Curie - Maurice Thorez", "is_installed": "OUI", "capacity": 27, "numdocksavailable": 13, "numbikesavailable": 14, "mechanical": 8, "ebike": 6, "is_renting": "OUI", "is_returning": "OUI", "duedate": "2024-08-19T12:05:36+00:00", "coordonnees_geo": {"lon": 2.376804985105991, "lat": 48.81580226360801}, "nom_arrondissement_communes": "Ivry-sur-Seine", "code_insee_commune": "94041"}, {"stationcode": "30002", "name": "Jean Rostand - Paul Vaillant Couturier", "is_installed": "OUI", "capacity": 40, "numdocksavailable": 14, "numbikesavailable": 23, "mechanical": 7, "ebike": 16, "is_renting": "OUI", "is_returning": "OUI", "duedate": "2024-08-19T12:05:17+00:00", "coordonnees_geo": {"lon": 2.4530601033354, "lat": 48.908168131015}, "nom_arrondissement_communes": "Bobigny", "code_insee_commune": "93008"}, {"stationcode": "17038", "name": "Grande Arm\u00e9e - Brunel", "is_installed": "OUI", "capacity": 62, "numdocksavailable": 43, "numbikesavailable": 18, "mechanical": 9, "ebike": 9, "is_renting": "OUI", "is_returning": "OUI", "duedate": "2024-08-19T12:05:17+00:00", "coordonnees_geo": {"lon": 2.288124, "lat": 48.876116}, "nom_arrondissement_communes": "Paris", "code_insee_commune": "75056"}, {"stationcode": "7003", "name": "Square Boucicaut", "is_installed": "OUI", "capacity": 60, "numdocksavailable": 13, "numbikesavailable": 47, "mechanical": 27, "ebike": 20, "is_renting": "OUI", "is_returning": "OUI", "duedate": "2024-08-19T12:05:44+00:00", "coordonnees_geo": {"lon": 2.325061820447445, "lat": 48.851296433665276}, "nom_arrondissement_communes": "Paris", "code_insee_commune": "75056"}, {"stationcode": "5016", "name": "Thouin - Cardinal Lemoine", "is_installed": "OUI", "capacity": 17, "numdocksavailable": 17, "numbikesavailable": 0, "mechanical": 0, "ebike": 0, "is_renting": "OUI", "is_returning": "OUI", "duedate": "2024-08-19T12:03:10+00:00", "coordonnees_geo": {"lon": 2.3494647851273465, "lat": 48.84504716661511}, "nom_arrondissement_communes": "Paris", "code_insee_commune": "75056"}, {"stationcode": "11025", "name": "Froment - Br\u00e9guet", "is_installed": "OUI", "capacity": 43, "numdocksavailable": 13, "numbikesavailable": 30, "mechanical": 26, "ebike": 4, "is_renting": "OUI", "is_returning": "OUI", "duedate": "2024-08-19T12:02:51+00:00", "coordonnees_geo": {"lon": 2.37289470306807, "lat": 48.8570414504784}, "nom_arrondissement_communes": "Paris", "code_insee_commune": "75056"}, {"stationcode": "17026", "name": "Jouffroy d'Abbans - Wagram", "is_installed": "OUI", "capacity": 40, "numdocksavailable": 33, "numbikesavailable": 7, "mechanical": 3, "ebike": 4, "is_renting": "OUI", "is_returning": "OUI", "duedate": "2024-08-19T11:55:21+00:00", "coordonnees_geo": {"lon": 2.301132157445, "lat": 48.881973298352}, "nom_arrondissement_communes": "Paris", "code_insee_commune": "75056"}, {"stationcode": "40001", "name": "H\u00f4pital Mondor", "is_installed": "NON", "capacity": 28, "numdocksavailable": 28, "numbikesavailable": 0, "mechanical": 0, "ebike": 0, "is_renting": "NON", "is_returning": "NON", "duedate": "2024-08-19T05:46:19+00:00", "coordonnees_geo": {"lon": 2.4537451531298, "lat": 48.798922410229}, "nom_arrondissement_communes": "Cr\u00e9teil", "code_insee_commune": "94028"}, {"stationcode": "12109", "name": "Mairie du 12\u00e8me", "is_installed": "OUI", "capacity": 30, "numdocksavailable": 24, "numbikesavailable": 6, "mechanical": 1, "ebike": 5, "is_renting": "OUI", "is_returning": "OUI", "duedate": "2024-08-19T11:59:23+00:00", "coordonnees_geo": {"lon": 2.3875549435616, "lat": 48.840855311763}, "nom_arrondissement_communes": "Paris", "code_insee_commune": "75056"}, {"stationcode": "31024", "name": "Romainville - Vaillant-Couturier", "is_installed": "OUI", "capacity": 38, "numdocksavailable": 35, "numbikesavailable": 3, "mechanical": 1, "ebike": 2, "is_renting": "OUI", "is_returning": "OUI", "duedate": "2024-08-19T12:00:46+00:00", "coordonnees_geo": {"lon": 2.446748, "lat": 48.86785}, "nom_arrondissement_communes": "Montreuil", "code_insee_commune": "93048"}, {"stationcode": "19033", "name": "Cambrai - Benjamin Constant", "is_installed": "OUI", "capacity": 43, "numdocksavailable": 24, "numbikesavailable": 19, "mechanical": 18, "ebike": 1, "is_renting": "OUI", "is_returning": "OUI", "duedate": "2024-08-19T12:05:20+00:00", "coordonnees_geo": {"lon": 2.381133802246315, "lat": 48.89594736851349}, "nom_arrondissement_communes": "Paris", "code_insee_commune": "75056"}, {"stationcode": "21326", "name": "Moulin de Pierre - Abb\u00e9 Gr\u00e9goire", "is_installed": "OUI", "capacity": 20, "numdocksavailable": 10, "numbikesavailable": 10, "mechanical": 9, "ebike": 1, "is_renting": "OUI", "is_returning": "OUI", "duedate": "2024-08-19T11:58:43+00:00", "coordonnees_geo": {"lon": 2.2754641655975, "lat": 48.822036188382}, "nom_arrondissement_communes": "Issy-les-Moulineaux", "code_insee_commune": "92040"}, {"stationcode": "20143", "name": "Ramponeau - Belleville", "is_installed": "OUI", "capacity": 44, "numdocksavailable": 43, "numbikesavailable": 1, "mechanical": 1, "ebike": 0, "is_renting": "OUI", "is_returning": "OUI", "duedate": "2024-08-19T11:59:31+00:00", "coordonnees_geo": {"lon": 2.379056852114, "lat": 48.871031137596}, "nom_arrondissement_communes": "Paris", "code_insee_commune": "75056"}, {"stationcode": "21216", "name": "Louis Lejeune - Barb\u00e8s", "is_installed": "OUI", "capacity": 25, "numdocksavailable": 19, "numbikesavailable": 6, "mechanical": 1, "ebike": 5, "is_renting": "OUI", "is_returning": "OUI", "duedate": "2024-08-19T12:05:34+00:00", "coordonnees_geo": {"lon": 2.3267009854316716, "lat": 48.81807418981508}, "nom_arrondissement_communes": "Montrouge", "code_insee_commune": "92049"}, {"stationcode": "15068", "name": "G\u00e9n\u00e9ral Martial Valin - Pont du Garigliano", "is_installed": "OUI", "capacity": 16, "numdocksavailable": 13, "numbikesavailable": 3, "mechanical": 0, "ebike": 3, "is_renting": "OUI", "is_returning": "OUI", "duedate": "2024-08-19T12:05:57+00:00", "coordonnees_geo": {"lon": 2.270506024360657, "lat": 48.83823094269141}, "nom_arrondissement_communes": "Paris", "code_insee_commune": "75056"}, {"stationcode": "22207", "name": "Rond-point du Dr Albert Schweitzer", "is_installed": "OUI", "capacity": 22, "numdocksavailable": 15, "numbikesavailable": 7, "mechanical": 4, "ebike": 3, "is_renting": "OUI", "is_returning": "OUI", "duedate": "2024-08-19T11:56:13+00:00", "coordonnees_geo": {"lon": 2.3143940046429634, "lat": 48.78980918988166}, "nom_arrondissement_communes": "Bagneux", "code_insee_commune": "92007"}, {"stationcode": "10013", "name": "Alibert - Jemmapes", "is_installed": "OUI", "capacity": 60, "numdocksavailable": 37, "numbikesavailable": 22, "mechanical": 20, "ebike": 2, "is_renting": "OUI", "is_returning": "OUI", "duedate": "2024-08-19T12:05:12+00:00", "coordonnees_geo": {"lon": 2.3661044619878, "lat": 48.871044051984}, "nom_arrondissement_communes": "Paris", "code_insee_commune": "75056"}, {"stationcode": "9008", "name": "Tour d'Auvergne - Rodier", "is_installed": "OUI", "capacity": 17, "numdocksavailable": 15, "numbikesavailable": 1, "mechanical": 0, "ebike": 1, "is_renting": "OUI", "is_returning": "OUI", "duedate": "2024-08-19T12:01:58+00:00", "coordonnees_geo": {"lon": 2.343698, "lat": 48.879161}, "nom_arrondissement_communes": "Paris", "code_insee_commune": "75056"}, {"stationcode": "8103", "name": "Artois - Berri", "is_installed": "OUI", "capacity": 23, "numdocksavailable": 10, "numbikesavailable": 13, "mechanical": 2, "ebike": 11, "is_renting": "OUI", "is_returning": "OUI", "duedate": "2024-08-19T12:05:11+00:00", "coordonnees_geo": {"lon": 2.3064258322119713, "lat": 48.87393521240818}, "nom_arrondissement_communes": "Paris", "code_insee_commune": "75056"}, {"stationcode": "8048", "name": "Marceau - Chaillot", "is_installed": "OUI", "capacity": 21, "numdocksavailable": 0, "numbikesavailable": 21, "mechanical": 3, "ebike": 18, "is_renting": "OUI", "is_returning": "OUI", "duedate": "2024-08-19T12:01:40+00:00", "coordonnees_geo": {"lon": 2.2986030816809, "lat": 48.868834023334}, "nom_arrondissement_communes": "Paris", "code_insee_commune": "75056"}, {"stationcode": "15112", "name": "Vig\u00e9e-Lebrun - Anselme Payen", "is_installed": "OUI", "capacity": 24, "numdocksavailable": 17, "numbikesavailable": 5, "mechanical": 3, "ebike": 2, "is_renting": "OUI", "is_returning": "OUI", "duedate": "2024-08-19T12:04:30+00:00", "coordonnees_geo": {"lon": 2.3110422492027287, "lat": 48.838683941628375}, "nom_arrondissement_communes": "Paris", "code_insee_commune": "75056"}, {"stationcode": "13030", "name": "Italie - Tolbiac", "is_installed": "OUI", "capacity": 21, "numdocksavailable": 16, "numbikesavailable": 5, "mechanical": 4, "ebike": 1, "is_renting": "OUI", "is_returning": "OUI", "duedate": "2024-08-19T12:05:49+00:00", "coordonnees_geo": {"lon": 2.3576171323657036, "lat": 48.82557229464416}, "nom_arrondissement_communes": "Paris", "code_insee_commune": "75056"}, {"stationcode": "18111", "name": "F\u00e9lix Ziem - Armand Gauthier", "is_installed": "OUI", "capacity": 25, "numdocksavailable": 21, "numbikesavailable": 2, "mechanical": 1, "ebike": 1, "is_renting": "OUI", "is_returning": "OUI", "duedate": "2024-08-19T12:00:48+00:00", "coordonnees_geo": {"lon": 2.333393658804396, "lat": 48.88949630486821}, "nom_arrondissement_communes": "Paris", "code_insee_commune": "75056"}, {"stationcode": "9002", "name": "Abbeville - Faubourg Poissonni\u00e8re", "is_installed": "OUI", "capacity": 14, "numdocksavailable": 10, "numbikesavailable": 4, "mechanical": 2, "ebike": 2, "is_renting": "OUI", "is_returning": "OUI", "duedate": "2024-08-19T12:04:40+00:00", "coordonnees_geo": {"lon": 2.349147, "lat": 48.879223}, "nom_arrondissement_communes": "Paris", "code_insee_commune": "75056"}, {"stationcode": "16110", "name": "Octave Feuillet - Alb\u00e9ric Magnard", "is_installed": "OUI", "capacity": 21, "numdocksavailable": 18, "numbikesavailable": 3, "mechanical": 0, "ebike": 3, "is_renting": "OUI", "is_returning": "OUI", "duedate": "2024-08-19T12:02:04+00:00", "coordonnees_geo": {"lon": 2.2730283066630363, "lat": 48.86106902949534}, "nom_arrondissement_communes": "Paris", "code_insee_commune": "75056"}, {"stationcode": "43009", "name": "Place Jean-Spire-Lema\u00eetre", "is_installed": "OUI", "capacity": 50, "numdocksavailable": 43, "numbikesavailable": 6, "mechanical": 4, "ebike": 2, "is_renting": "OUI", "is_returning": "OUI", "duedate": "2024-08-19T12:04:32+00:00", "coordonnees_geo": {"lon": 2.452062070369721, "lat": 48.8468428626593}, "nom_arrondissement_communes": "Vincennes", "code_insee_commune": "94080"}, {"stationcode": "9001", "name": "Bellefond - Poissonni\u00e8re", "is_installed": "OUI", "capacity": 17, "numdocksavailable": 15, "numbikesavailable": 1, "mechanical": 1, "ebike": 0, "is_renting": "OUI", "is_returning": "OUI", "duedate": "2024-08-19T12:02:48+00:00", "coordonnees_geo": {"lon": 2.348463758826256, "lat": 48.87759897050706}, "nom_arrondissement_communes": "Paris", "code_insee_commune": "75056"}, {"stationcode": "10029", "name": "Dunkerque - Rocroy", "is_installed": "OUI", "capacity": 24, "numdocksavailable": 23, "numbikesavailable": 1, "mechanical": 0, "ebike": 1, "is_renting": "OUI", "is_returning": "OUI", "duedate": "2024-08-19T12:03:53+00:00", "coordonnees_geo": {"lon": 2.351464, "lat": 48.880726}, "nom_arrondissement_communes": "Paris", "code_insee_commune": "75056"}, {"stationcode": "12031", "name": "Gabriel Lam\u00e9", "is_installed": "OUI", "capacity": 36, "numdocksavailable": 2, "numbikesavailable": 31, "mechanical": 31, "ebike": 0, "is_renting": "OUI", "is_returning": "OUI", "duedate": "2024-08-19T12:03:22+00:00", "coordonnees_geo": {"lon": 2.385534569621086, "lat": 48.8351212784276}, "nom_arrondissement_communes": "Paris", "code_insee_commune": "75056"}, {"stationcode": "21328", "name": "Verger - Colonel Guichard", "is_installed": "OUI", "capacity": 29, "numdocksavailable": 11, "numbikesavailable": 18, "mechanical": 12, "ebike": 6, "is_renting": "OUI", "is_returning": "OUI", "duedate": "2024-08-19T12:04:03+00:00", "coordonnees_geo": {"lon": 2.2670380088932, "lat": 48.816376985087}, "nom_arrondissement_communes": "Issy-les-Moulineaux", "code_insee_commune": "92040"}, {"stationcode": "21323", "name": "Charlot - Stade Gabriel Voisin", "is_installed": "OUI", "capacity": 31, "numdocksavailable": 2, "numbikesavailable": 28, "mechanical": 25, "ebike": 3, "is_renting": "OUI", "is_returning": "OUI", "duedate": "2024-08-19T12:05:43+00:00", "coordonnees_geo": {"lon": 2.268122527474, "lat": 48.827228120536}, "nom_arrondissement_communes": "Issy-les-Moulineaux", "code_insee_commune": "92040"}, {"stationcode": "31103", "name": "Gare Rosny-Bois-Perrier", "is_installed": "OUI", "capacity": 36, "numdocksavailable": 20, "numbikesavailable": 15, "mechanical": 2, "ebike": 13, "is_renting": "OUI", "is_returning": "OUI", "duedate": "2024-08-19T12:02:44+00:00", "coordonnees_geo": {"lon": 2.480436824262142, "lat": 48.88115023337061}, "nom_arrondissement_communes": "Rosny-sous-Bois", "code_insee_commune": "93064"}, {"stationcode": "7018", "name": "S\u00e9gur - d'Estr\u00e9es", "is_installed": "OUI", "capacity": 19, "numdocksavailable": 3, "numbikesavailable": 15, "mechanical": 9, "ebike": 6, "is_renting": "OUI", "is_returning": "OUI", "duedate": "2024-08-19T12:03:56+00:00", "coordonnees_geo": {"lon": 2.3097044974566, "lat": 48.851419978983}, "nom_arrondissement_communes": "Paris", "code_insee_commune": "75056"}, {"stationcode": "1001", "name": "Quai de l'Horloge - Pont Neuf", "is_installed": "OUI", "capacity": 17, "numdocksavailable": 1, "numbikesavailable": 15, "mechanical": 7, "ebike": 8, "is_renting": "OUI", "is_returning": "OUI", "duedate": "2024-08-19T12:05:23+00:00", "coordonnees_geo": {"lon": 2.3417982839439, "lat": 48.857058739111}, "nom_arrondissement_communes": "Paris", "code_insee_commune": "75056"}, {"stationcode": "13104", "name": "Gare d'Austerlitz - Quai Saint-Bernard", "is_installed": "NON", "capacity": 27, "numdocksavailable": 27, "numbikesavailable": 0, "mechanical": 0, "ebike": 0, "is_renting": "NON", "is_returning": "NON", "duedate": "2022-01-18T21:07:57+00:00", "coordonnees_geo": {"lon": 2.3657163977623, "lat": 48.84369030864}, "nom_arrondissement_communes": "Paris", "code_insee_commune": "75056"}, {"stationcode": "8053", "name": "Place Georges Guillaumin", "is_installed": "OUI", "capacity": 29, "numdocksavailable": 13, "numbikesavailable": 16, "mechanical": 13, "ebike": 3, "is_renting": "OUI", "is_returning": "OUI", "duedate": "2024-08-19T12:04:31+00:00", "coordonnees_geo": {"lon": 2.301771435326, "lat": 48.874750203957}, "nom_arrondissement_communes": "Paris", "code_insee_commune": "75056"}, {"stationcode": "19105", "name": "Ambroise Rendu - Porte Brunet", "is_installed": "OUI", "capacity": 17, "numdocksavailable": 14, "numbikesavailable": 2, "mechanical": 0, "ebike": 2, "is_renting": "OUI", "is_returning": "OUI", "duedate": "2024-08-19T12:03:17+00:00", "coordonnees_geo": {"lon": 2.395733, "lat": 48.883667}, "nom_arrondissement_communes": "Paris", "code_insee_commune": "75056"}, {"stationcode": "31706", "name": "Ch\u00e2teau - R\u00e9publique", "is_installed": "OUI", "capacity": 26, "numdocksavailable": 12, "numbikesavailable": 13, "mechanical": 1, "ebike": 12, "is_renting": "OUI", "is_returning": "OUI", "duedate": "2024-08-19T12:05:25+00:00", "coordonnees_geo": {"lon": 2.4155035614967, "lat": 48.862923800596}, "nom_arrondissement_communes": "Bagnolet", "code_insee_commune": "93006"}, {"stationcode": "22409", "name": "Henri Barbusse - Stalingrad", "is_installed": "OUI", "capacity": 16, "numdocksavailable": 12, "numbikesavailable": 4, "mechanical": 0, "ebike": 4, "is_renting": "OUI", "is_returning": "OUI", "duedate": "2024-08-19T11:57:28+00:00", "coordonnees_geo": {"lon": 2.2872862592339516, "lat": 48.814183748660554}, "nom_arrondissement_communes": "Malakoff", "code_insee_commune": "92046"}, {"stationcode": "19015", "name": "Thionville - Ourcq", "is_installed": "OUI", "capacity": 24, "numdocksavailable": 22, "numbikesavailable": 1, "mechanical": 1, "ebike": 0, "is_renting": "OUI", "is_returning": "OUI", "duedate": "2024-08-19T11:56:07+00:00", "coordonnees_geo": {"lon": 2.3833653330802917, "lat": 48.88917613743794}, "nom_arrondissement_communes": "Paris", "code_insee_commune": "75056"}, {"stationcode": "9022", "name": "Rossini - Laffitte", "is_installed": "OUI", "capacity": 33, "numdocksavailable": 1, "numbikesavailable": 32, "mechanical": 13, "ebike": 19, "is_renting": "OUI", "is_returning": "OUI", "duedate": "2024-08-19T12:04:50+00:00", "coordonnees_geo": {"lon": 2.337980867701675, "lat": 48.87334627510507}, "nom_arrondissement_communes": "Paris", "code_insee_commune": "75056"}, {"stationcode": "26003", "name": "Argenteuil - Voltaire", "is_installed": "OUI", "capacity": 16, "numdocksavailable": 10, "numbikesavailable": 6, "mechanical": 3, "ebike": 3, "is_renting": "OUI", "is_returning": "OUI", "duedate": "2024-08-19T12:02:45+00:00", "coordonnees_geo": {"lon": 2.2814112156629562, "lat": 48.91864865955558}, "nom_arrondissement_communes": "Asni\u00e8res-sur-Seine", "code_insee_commune": "92004"}, {"stationcode": "17004", "name": "Legendre - Clichy", "is_installed": "OUI", "capacity": 40, "numdocksavailable": 33, "numbikesavailable": 7, "mechanical": 1, "ebike": 6, "is_renting": "OUI", "is_returning": "OUI", "duedate": "2024-08-19T12:05:25+00:00", "coordonnees_geo": {"lon": 2.322528975094376, "lat": 48.88896161855884}, "nom_arrondissement_communes": "Paris", "code_insee_commune": "75056"}, {"stationcode": "8036", "name": "Lisbonne - Monceau", "is_installed": "OUI", "capacity": 33, "numdocksavailable": 5, "numbikesavailable": 28, "mechanical": 1, "ebike": 27, "is_renting": "OUI", "is_returning": "OUI", "duedate": "2024-08-19T12:05:01+00:00", "coordonnees_geo": {"lon": 2.309694221419506, "lat": 48.87745567681383}, "nom_arrondissement_communes": "Paris", "code_insee_commune": "75056"}, {"stationcode": "12151", "name": "Gare de Lyon - Place Louis Armand", "is_installed": "OUI", "capacity": 60, "numdocksavailable": 29, "numbikesavailable": 30, "mechanical": 17, "ebike": 13, "is_renting": "OUI", "is_returning": "OUI", "duedate": "2024-08-19T12:04:43+00:00", "coordonnees_geo": {"lon": 2.3726498446286, "lat": 48.845515089794}, "nom_arrondissement_communes": "Paris", "code_insee_commune": "75056"}, {"stationcode": "10107", "name": "Gare du Nord - H\u00f4pital Lariboisi\u00e8re", "is_installed": "OUI", "capacity": 49, "numdocksavailable": 45, "numbikesavailable": 4, "mechanical": 1, "ebike": 3, "is_renting": "OUI", "is_returning": "OUI", "duedate": "2024-08-19T12:03:28+00:00", "coordonnees_geo": {"lon": 2.352339, "lat": 48.881949}, "nom_arrondissement_communes": "Paris", "code_insee_commune": "75056"}, {"stationcode": "19026", "name": "Place de Rhin et Danube", "is_installed": "OUI", "capacity": 17, "numdocksavailable": 12, "numbikesavailable": 3, "mechanical": 0, "ebike": 3, "is_renting": "OUI", "is_returning": "OUI", "duedate": "2024-08-19T12:03:48+00:00", "coordonnees_geo": {"lon": 2.392586767673493, "lat": 48.88192765861766}, "nom_arrondissement_communes": "Paris", "code_insee_commune": "75056"}, {"stationcode": "11023", "name": "Saint-Maur - Roquette", "is_installed": "OUI", "capacity": 46, "numdocksavailable": 30, "numbikesavailable": 14, "mechanical": 14, "ebike": 0, "is_renting": "OUI", "is_returning": "OUI", "duedate": "2024-08-19T12:01:45+00:00", "coordonnees_geo": {"lon": 2.383553994571467, "lat": 48.858688774062955}, "nom_arrondissement_communes": "Paris", "code_insee_commune": "75056"}, {"stationcode": "11002", "name": "Roquette - Thi\u00e9r\u00e9", "is_installed": "OUI", "capacity": 23, "numdocksavailable": 2, "numbikesavailable": 21, "mechanical": 17, "ebike": 4, "is_renting": "OUI", "is_returning": "OUI", "duedate": "2024-08-19T12:05:51+00:00", "coordonnees_geo": {"lon": 2.3733686318721463, "lat": 48.85507930579506}, "nom_arrondissement_communes": "Paris", "code_insee_commune": "75056"}, {"stationcode": "8034", "name": "Berri - Haussmann", "is_installed": "OUI", "capacity": 35, "numdocksavailable": 9, "numbikesavailable": 26, "mechanical": 11, "ebike": 15, "is_renting": "OUI", "is_returning": "OUI", "duedate": "2024-08-19T12:04:37+00:00", "coordonnees_geo": {"lon": 2.3082953318953514, "lat": 48.874746047357135}, "nom_arrondissement_communes": "Paris", "code_insee_commune": "75056"}, {"stationcode": "17030", "name": "Pereire - Rennequin", "is_installed": "OUI", "capacity": 23, "numdocksavailable": 21, "numbikesavailable": 2, "mechanical": 1, "ebike": 1, "is_renting": "OUI", "is_returning": "OUI", "duedate": "2024-08-19T12:04:07+00:00", "coordonnees_geo": {"lon": 2.2952447086572647, "lat": 48.88364782887555}, "nom_arrondissement_communes": "Paris", "code_insee_commune": "75056"}, {"stationcode": "11027", "name": "Saint-Ambroise - Parmentier", "is_installed": "OUI", "capacity": 38, "numdocksavailable": 33, "numbikesavailable": 5, "mechanical": 4, "ebike": 1, "is_renting": "OUI", "is_returning": "OUI", "duedate": "2024-08-19T12:04:17+00:00", "coordonnees_geo": {"lon": 2.3772348091006, "lat": 48.862147844548}, "nom_arrondissement_communes": "Paris", "code_insee_commune": "75056"}, {"stationcode": "12128", "name": "Pyramide - Ecole du Breuil", "is_installed": "OUI", "capacity": 34, "numdocksavailable": 7, "numbikesavailable": 27, "mechanical": 8, "ebike": 19, "is_renting": "OUI", "is_returning": "OUI", "duedate": "2024-08-19T12:04:56+00:00", "coordonnees_geo": {"lon": 2.4586871266365056, "lat": 48.82237977153955}, "nom_arrondissement_communes": "Paris", "code_insee_commune": "75056"}, {"stationcode": "8010", "name": "Li\u00e8ge - Moscou", "is_installed": "OUI", "capacity": 17, "numdocksavailable": 7, "numbikesavailable": 8, "mechanical": 1, "ebike": 7, "is_renting": "OUI", "is_returning": "OUI", "duedate": "2024-08-19T12:05:36+00:00", "coordonnees_geo": {"lon": 2.3264628, "lat": 48.8795431}, "nom_arrondissement_communes": "Paris", "code_insee_commune": "75056"}, {"stationcode": "31022", "name": "Mairie de Montreuil", "is_installed": "OUI", "capacity": 52, "numdocksavailable": 29, "numbikesavailable": 22, "mechanical": 8, "ebike": 14, "is_renting": "OUI", "is_returning": "OUI", "duedate": "2024-08-19T12:05:05+00:00", "coordonnees_geo": {"lon": 2.440614402294159, "lat": 48.86131452758348}, "nom_arrondissement_communes": "Montreuil", "code_insee_commune": "93048"}, {"stationcode": "10016", "name": "R\u00e9collets - Square Villemin", "is_installed": "OUI", "capacity": 17, "numdocksavailable": 17, "numbikesavailable": 0, "mechanical": 0, "ebike": 0, "is_renting": "OUI", "is_returning": "OUI", "duedate": "2024-08-19T12:03:38+00:00", "coordonnees_geo": {"lon": 2.359801238597928, "lat": 48.875034655883944}, "nom_arrondissement_communes": "Paris", "code_insee_commune": "75056"}, {"stationcode": "31009", "name": "Place Du G\u00e9n\u00e9ral De Gaulle", "is_installed": "OUI", "capacity": 26, "numdocksavailable": 23, "numbikesavailable": 2, "mechanical": 0, "ebike": 2, "is_renting": "OUI", "is_returning": "OUI", "duedate": "2024-08-19T12:02:58+00:00", "coordonnees_geo": {"lon": 2.4329931, "lat": 48.8687591}, "nom_arrondissement_communes": "Montreuil", "code_insee_commune": "93048"}, {"stationcode": "14020", "name": "Cimeti\u00e8re de Montrouge", "is_installed": "OUI", "capacity": 58, "numdocksavailable": 37, "numbikesavailable": 20, "mechanical": 3, "ebike": 17, "is_renting": "OUI", "is_returning": "OUI", "duedate": "2024-08-19T12:05:53+00:00", "coordonnees_geo": {"lon": 2.3215785772007, "lat": 48.821466904768}, "nom_arrondissement_communes": "Paris", "code_insee_commune": "75056"}, {"stationcode": "15042", "name": "Henry Farman", "is_installed": "OUI", "capacity": 16, "numdocksavailable": 0, "numbikesavailable": 16, "mechanical": 14, "ebike": 2, "is_renting": "OUI", "is_returning": "OUI", "duedate": "2024-08-19T12:05:30+00:00", "coordonnees_geo": {"lon": 2.2713854536414146, "lat": 48.83372430280548}, "nom_arrondissement_communes": "Paris", "code_insee_commune": "75056"}, {"stationcode": "18011", "name": "Pajol - Place Herbert", "is_installed": "OUI", "capacity": 39, "numdocksavailable": 35, "numbikesavailable": 4, "mechanical": 1, "ebike": 3, "is_renting": "OUI", "is_returning": "OUI", "duedate": "2024-08-19T12:05:59+00:00", "coordonnees_geo": {"lon": 2.3635598, "lat": 48.8927825}, "nom_arrondissement_communes": "Paris", "code_insee_commune": "75056"}, {"stationcode": "42706", "name": "Roger Salengro - Fontainebleau", "is_installed": "OUI", "capacity": 25, "numdocksavailable": 20, "numbikesavailable": 5, "mechanical": 2, "ebike": 3, "is_renting": "OUI", "is_returning": "OUI", "duedate": "2024-08-19T12:04:44+00:00", "coordonnees_geo": {"lon": 2.3611663654447, "lat": 48.814548697325}, "nom_arrondissement_communes": "Le Kremlin-Bic\u00eatre", "code_insee_commune": "94043"}, {"stationcode": "21212", "name": "Marne - Germain Dardan", "is_installed": "OUI", "capacity": 22, "numdocksavailable": 13, "numbikesavailable": 8, "mechanical": 2, "ebike": 6, "is_renting": "OUI", "is_returning": "OUI", "duedate": "2024-08-19T12:02:57+00:00", "coordonnees_geo": {"lon": 2.3035024699104, "lat": 48.81217465201}, "nom_arrondissement_communes": "Montrouge", "code_insee_commune": "92049"}, {"stationcode": "44006", "name": "Concorde - Stalingrad", "is_installed": "OUI", "capacity": 35, "numdocksavailable": 26, "numbikesavailable": 9, "mechanical": 4, "ebike": 5, "is_renting": "OUI", "is_returning": "OUI", "duedate": "2024-08-19T12:05:33+00:00", "coordonnees_geo": {"lon": 2.3821302, "lat": 48.7985844}, "nom_arrondissement_communes": "Vitry-sur-Seine", "code_insee_commune": "94081"}, {"stationcode": "19120", "name": "Carducci - Place Hannah Arendt", "is_installed": "OUI", "capacity": 27, "numdocksavailable": 27, "numbikesavailable": 0, "mechanical": 0, "ebike": 0, "is_renting": "OUI", "is_returning": "OUI", "duedate": "2024-08-19T12:02:25+00:00", "coordonnees_geo": {"lon": 2.3860743641853337, "lat": 48.877436681515796}, "nom_arrondissement_communes": "Paris", "code_insee_commune": "75056"}, {"stationcode": "11113", "name": "Richard Lenoir - Republique", "is_installed": "OUI", "capacity": 58, "numdocksavailable": 23, "numbikesavailable": 34, "mechanical": 31, "ebike": 3, "is_renting": "OUI", "is_returning": "OUI", "duedate": "2024-08-19T12:05:55+00:00", "coordonnees_geo": {"lon": 2.3692541, "lat": 48.8667175}, "nom_arrondissement_communes": "Paris", "code_insee_commune": "75056"}, {"stationcode": "15104", "name": "H\u00f4pital Europ\u00e9en Georges Pompidou", "is_installed": "OUI", "capacity": 64, "numdocksavailable": 5, "numbikesavailable": 58, "mechanical": 34, "ebike": 24, "is_renting": "OUI", "is_returning": "OUI", "duedate": "2024-08-19T12:05:27+00:00", "coordonnees_geo": {"lon": 2.2753742337227, "lat": 48.837695319163}, "nom_arrondissement_communes": "Paris", "code_insee_commune": "75056"}, {"stationcode": "43008", "name": "Fontenay - Lib\u00e9ration", "is_installed": "OUI", "capacity": 25, "numdocksavailable": 23, "numbikesavailable": 1, "mechanical": 0, "ebike": 1, "is_renting": "OUI", "is_returning": "OUI", "duedate": "2024-08-19T11:59:16+00:00", "coordonnees_geo": {"lon": 2.4451419711113, "lat": 48.847803063647}, "nom_arrondissement_communes": "Vincennes", "code_insee_commune": "94080"}, {"stationcode": "19101", "name": "Square Simon Bolivar", "is_installed": "OUI", "capacity": 24, "numdocksavailable": 23, "numbikesavailable": 1, "mechanical": 0, "ebike": 1, "is_renting": "OUI", "is_returning": "OUI", "duedate": "2024-08-19T11:56:20+00:00", "coordonnees_geo": {"lon": 2.3826304078102, "lat": 48.875089888322}, "nom_arrondissement_communes": "Paris", "code_insee_commune": "75056"}, {"stationcode": "12114", "name": "Victor Hugo - Jeanne Jugan", "is_installed": "OUI", "capacity": 28, "numdocksavailable": 22, "numbikesavailable": 6, "mechanical": 5, "ebike": 1, "is_renting": "OUI", "is_returning": "OUI", "duedate": "2024-08-19T12:03:58+00:00", "coordonnees_geo": {"lon": 2.415081394834419, "lat": 48.843949064031825}, "nom_arrondissement_communes": "Paris", "code_insee_commune": "75056"}, {"stationcode": "14008", "name": "Mouton Duvernet - G\u00e9n\u00e9ral Leclerc", "is_installed": "OUI", "capacity": 28, "numdocksavailable": 27, "numbikesavailable": 1, "mechanical": 1, "ebike": 0, "is_renting": "OUI", "is_returning": "OUI", "duedate": "2024-08-19T11:59:26+00:00", "coordonnees_geo": {"lon": 2.3293121159077, "lat": 48.831632518293}, "nom_arrondissement_communes": "Paris", "code_insee_commune": "75056"}, {"stationcode": "8017", "name": "Rocher - Laborde", "is_installed": "OUI", "capacity": 65, "numdocksavailable": 22, "numbikesavailable": 43, "mechanical": 23, "ebike": 20, "is_renting": "OUI", "is_returning": "OUI", "duedate": "2024-08-19T12:05:34+00:00", "coordonnees_geo": {"lon": 2.322616316378116, "lat": 48.87590240712654}, "nom_arrondissement_communes": "Paris", "code_insee_commune": "75056"}, {"stationcode": "15054", "name": "Lecourbe - Jean Maridor", "is_installed": "OUI", "capacity": 19, "numdocksavailable": 7, "numbikesavailable": 12, "mechanical": 11, "ebike": 1, "is_renting": "OUI", "is_returning": "OUI", "duedate": "2024-08-19T12:05:06+00:00", "coordonnees_geo": {"lon": 2.2877392172813416, "lat": 48.83796366147599}, "nom_arrondissement_communes": "Paris", "code_insee_commune": "75056"}, {"stationcode": "5124", "name": "Erasme - Ulm", "is_installed": "OUI", "capacity": 24, "numdocksavailable": 13, "numbikesavailable": 11, "mechanical": 5, "ebike": 6, "is_renting": "OUI", "is_returning": "OUI", "duedate": "2024-08-19T12:05:28+00:00", "coordonnees_geo": {"lon": 2.3445946723222733, "lat": 48.84264375274712}, "nom_arrondissement_communes": "Paris", "code_insee_commune": "75056"}, {"stationcode": "14106", "name": "Marc Sangnier - Porte de Vanves", "is_installed": "OUI", "capacity": 21, "numdocksavailable": 18, "numbikesavailable": 2, "mechanical": 2, "ebike": 0, "is_renting": "OUI", "is_returning": "OUI", "duedate": "2024-08-19T12:05:23+00:00", "coordonnees_geo": {"lon": 2.3107116669416428, "lat": 48.825218683556734}, "nom_arrondissement_communes": "Paris", "code_insee_commune": "75056"}, {"stationcode": "18046", "name": "Etienne Jodelle - Saint Ouen", "is_installed": "OUI", "capacity": 33, "numdocksavailable": 30, "numbikesavailable": 3, "mechanical": 0, "ebike": 3, "is_renting": "OUI", "is_returning": "OUI", "duedate": "2024-08-19T12:03:12+00:00", "coordonnees_geo": {"lon": 2.326124420314341, "lat": 48.88794016394694}, "nom_arrondissement_communes": "Paris", "code_insee_commune": "75056"}, {"stationcode": "31102", "name": "Boissi\u00e8re - Etienne Dolet", "is_installed": "OUI", "capacity": 21, "numdocksavailable": 19, "numbikesavailable": 2, "mechanical": 0, "ebike": 2, "is_renting": "OUI", "is_returning": "OUI", "duedate": "2024-08-19T12:05:17+00:00", "coordonnees_geo": {"lon": 2.4677312, "lat": 48.876111}, "nom_arrondissement_communes": "Montreuil", "code_insee_commune": "93048"}, {"stationcode": "2111", "name": "Chabanais - Petits Champs", "is_installed": "OUI", "capacity": 30, "numdocksavailable": 0, "numbikesavailable": 30, "mechanical": 24, "ebike": 6, "is_renting": "OUI", "is_returning": "OUI", "duedate": "2024-08-19T12:04:51+00:00", "coordonnees_geo": {"lon": 2.336716018617153, "lat": 48.86703740186721}, "nom_arrondissement_communes": "Paris", "code_insee_commune": "75056"}, {"stationcode": "18022", "name": "Marcadet - Barb\u00e8s", "is_installed": "OUI", "capacity": 37, "numdocksavailable": 33, "numbikesavailable": 4, "mechanical": 1, "ebike": 3, "is_renting": "OUI", "is_returning": "OUI", "duedate": "2024-08-19T12:05:39+00:00", "coordonnees_geo": {"lon": 2.3490573929687, "lat": 48.890451120965}, "nom_arrondissement_communes": "Paris", "code_insee_commune": "75056"}, {"stationcode": "17203", "name": "Place de la Porte de Champeret", "is_installed": "OUI", "capacity": 28, "numdocksavailable": 23, "numbikesavailable": 5, "mechanical": 2, "ebike": 3, "is_renting": "OUI", "is_returning": "OUI", "duedate": "2024-08-19T12:05:20+00:00", "coordonnees_geo": {"lon": 2.2917001576821, "lat": 48.886062068226}, "nom_arrondissement_communes": "Paris", "code_insee_commune": "75056"}, {"stationcode": "42014", "name": "Place Marcel Cachin", "is_installed": "OUI", "capacity": 32, "numdocksavailable": 18, "numbikesavailable": 14, "mechanical": 9, "ebike": 5, "is_renting": "OUI", "is_returning": "OUI", "duedate": "2024-08-19T12:03:15+00:00", "coordonnees_geo": {"lon": 2.39090770483017, "lat": 48.81411442356866}, "nom_arrondissement_communes": "Ivry-sur-Seine", "code_insee_commune": "94041"}, {"stationcode": "15133", "name": "Saint Lambert - Blomet", "is_installed": "OUI", "capacity": 27, "numdocksavailable": 16, "numbikesavailable": 8, "mechanical": 6, "ebike": 2, "is_renting": "OUI", "is_returning": "OUI", "duedate": "2024-08-19T12:05:53+00:00", "coordonnees_geo": {"lon": 2.2930556908249855, "lat": 48.83659148147257}, "nom_arrondissement_communes": "Paris", "code_insee_commune": "75056"}, {"stationcode": "15110", "name": "Place Robert Guillemard", "is_installed": "OUI", "capacity": 24, "numdocksavailable": 3, "numbikesavailable": 21, "mechanical": 18, "ebike": 3, "is_renting": "OUI", "is_returning": "OUI", "duedate": "2024-08-19T12:03:53+00:00", "coordonnees_geo": {"lon": 2.2811267160086417, "lat": 48.836191728066666}, "nom_arrondissement_communes": "Paris", "code_insee_commune": "75056"}, {"stationcode": "21006", "name": "Marcelin Berthelot", "is_installed": "OUI", "capacity": 27, "numdocksavailable": 4, "numbikesavailable": 23, "mechanical": 18, "ebike": 5, "is_renting": "OUI", "is_returning": "OUI", "duedate": "2024-08-19T12:04:18+00:00", "coordonnees_geo": {"lon": 2.233161628246308, "lat": 48.8415473058801}, "nom_arrondissement_communes": "Boulogne-Billancourt", "code_insee_commune": "92012"}, {"stationcode": "20131", "name": "Repos - Cimeti\u00e8re du P\u00e8re Lachaise", "is_installed": "OUI", "capacity": 33, "numdocksavailable": 30, "numbikesavailable": 2, "mechanical": 0, "ebike": 2, "is_renting": "OUI", "is_returning": "OUI", "duedate": "2024-08-19T11:58:47+00:00", "coordonnees_geo": {"lon": 2.3896131366845, "lat": 48.859358523593}, "nom_arrondissement_communes": "Paris", "code_insee_commune": "75056"}, {"stationcode": "6025", "name": "Assas - Rennes", "is_installed": "OUI", "capacity": 32, "numdocksavailable": 15, "numbikesavailable": 17, "mechanical": 7, "ebike": 10, "is_renting": "OUI", "is_returning": "OUI", "duedate": "2024-08-19T12:02:47+00:00", "coordonnees_geo": {"lon": 2.32851454623001, "lat": 48.8492084999386}, "nom_arrondissement_communes": "Paris", "code_insee_commune": "75056"}, {"stationcode": "31008", "name": "Fran\u00e7ois Debergue - Croix de Chavaux", "is_installed": "OUI", "capacity": 57, "numdocksavailable": 50, "numbikesavailable": 6, "mechanical": 1, "ebike": 5, "is_renting": "OUI", "is_returning": "OUI", "duedate": "2024-08-19T12:00:03+00:00", "coordonnees_geo": {"lon": 2.437578141689301, "lat": 48.857421708072074}, "nom_arrondissement_communes": "Montreuil", "code_insee_commune": "93048"}, {"stationcode": "21015", "name": "Nationale - Place Jules Guesde", "is_installed": "OUI", "capacity": 23, "numdocksavailable": 14, "numbikesavailable": 9, "mechanical": 8, "ebike": 1, "is_renting": "OUI", "is_returning": "OUI", "duedate": "2024-08-19T12:01:11+00:00", "coordonnees_geo": {"lon": 2.2416052222251897, "lat": 48.82753962462998}, "nom_arrondissement_communes": "Boulogne-Billancourt", "code_insee_commune": "92012"}, {"stationcode": "44003", "name": "Gabriel P\u00e9ri - Danielle Casanova", "is_installed": "OUI", "capacity": 20, "numdocksavailable": 12, "numbikesavailable": 8, "mechanical": 4, "ebike": 4, "is_renting": "OUI", "is_returning": "OUI", "duedate": "2024-08-19T12:05:28+00:00", "coordonnees_geo": {"lon": 2.4025777, "lat": 48.790114}, "nom_arrondissement_communes": "Vitry-sur-Seine", "code_insee_commune": "94081"}, {"stationcode": "15034", "name": "Lakanal - Commerce", "is_installed": "OUI", "capacity": 53, "numdocksavailable": 30, "numbikesavailable": 22, "mechanical": 18, "ebike": 4, "is_renting": "OUI", "is_returning": "OUI", "duedate": "2024-08-19T12:04:47+00:00", "coordonnees_geo": {"lon": 2.294059172272682, "lat": 48.84442462786544}, "nom_arrondissement_communes": "Paris", "code_insee_commune": "75056"}, {"stationcode": "5028", "name": "Censier - Jardin des Plantes", "is_installed": "OUI", "capacity": 28, "numdocksavailable": 5, "numbikesavailable": 22, "mechanical": 16, "ebike": 6, "is_renting": "OUI", "is_returning": "OUI", "duedate": "2024-08-19T12:05:42+00:00", "coordonnees_geo": {"lon": 2.355475388467312, "lat": 48.84107178161383}, "nom_arrondissement_communes": "Paris", "code_insee_commune": "75056"}, {"stationcode": "48010", "name": "Karl Marx", "is_installed": "OUI", "capacity": 16, "numdocksavailable": 16, "numbikesavailable": 0, "mechanical": 0, "ebike": 0, "is_renting": "OUI", "is_returning": "OUI", "duedate": "2024-08-19T12:05:40+00:00", "coordonnees_geo": {"lon": 2.3646667979455587, "lat": 48.784527937293184}, "nom_arrondissement_communes": "Villejuif", "code_insee_commune": "94076"}, {"stationcode": "42021", "name": "Raspail - Manufacture des Oeillets", "is_installed": "OUI", "capacity": 32, "numdocksavailable": 10, "numbikesavailable": 21, "mechanical": 18, "ebike": 3, "is_renting": "OUI", "is_returning": "OUI", "duedate": "2024-08-19T12:03:26+00:00", "coordonnees_geo": {"lon": 2.3903009, "lat": 48.8094458}, "nom_arrondissement_communes": "Ivry-sur-Seine", "code_insee_commune": "94041"}, {"stationcode": "1119", "name": "Cossonnerie - S\u00e9bastopol", "is_installed": "OUI", "capacity": 24, "numdocksavailable": 1, "numbikesavailable": 22, "mechanical": 10, "ebike": 12, "is_renting": "OUI", "is_returning": "OUI", "duedate": "2024-08-19T12:03:18+00:00", "coordonnees_geo": {"lon": 2.349419631063938, "lat": 48.86132665908402}, "nom_arrondissement_communes": "Paris", "code_insee_commune": "75056"}, {"stationcode": "35020", "name": "Marcelle - Thalie", "is_installed": "OUI", "capacity": 20, "numdocksavailable": 16, "numbikesavailable": 4, "mechanical": 1, "ebike": 3, "is_renting": "OUI", "is_returning": "OUI", "duedate": "2024-08-19T11:57:38+00:00", "coordonnees_geo": {"lon": 2.4137883, "lat": 48.8835462}, "nom_arrondissement_communes": "Pantin", "code_insee_commune": "93055"}]}