{"total_count": 1496, "results": [{"stationcode": "9020", "name": "Toudouze - Clauzel", "is_installed": "OUI", "capacity": 21, "numdocksavailable": 21, "numbikesavailable": 0, "mechanical": 0, "ebike": 0, "is_renting": "OUI", "is_returning": "OUI", "duedate": "2024-08-01T08:19:27+00:00", "coordonnees_geo": {"lon": 2.3373600840568547, "lat": 48.87929591733507}, "nom_arrondissement_communes": "Paris", "code_insee_commune": null}, {"stationcode": "11104", "name": "Charonne - Robert et Sonia Delaunay", "is_installed": "OUI", "capacity": 20, "numdocksavailable": 17, "numbikesavailable": 3, "mechanical": 2, "ebike": 1, "is_renting": "OUI", "is_returning": "OUI", "duedate": "2024-08-01T08:15:44+00:00", "coordonnees_geo": {"lon": 2.3925706744194, "lat": 48.855907555969}, "nom_arrondissement_communes": "Paris", "code_insee_commune": null}, {"stationcode": "8026", "name": "Messine - Place Du P\u00e9rou", "is_installed": "OUI", "capacity": 12, "numdocksavailable": 0, "numbikesavailable": 11, "mechanical": 8, "ebike": 3, "is_renting": "OUI", "is_returning": "OUI", "duedate": "2024-08-01T08:15:22+00:00", "coordonnees_geo": {"lon": 2.315508019010038, "lat": 48.875448033960744}, "nom_arrondissement_communes": "Paris", "code_insee_commune": null}, {"stationcode": "13007", "name": "Le Brun - Gobelins", "is_installed": "OUI", "capacity": 48, "numdocksavailable": 28, "numbikesavailable": 17, "mechanical": 17, "ebike": 0, "is_renting": "OUI", "is_returning": "OUI", "duedate": "2024-08-01T08:17:49+00:00", "coordonnees_geo": {"lon": 2.3534681351338, "lat": 48.835092787824}, "nom_arrondissement_communes": "Paris", "code_insee_commune": null}, {"stationcode": "21010", "name": "Silly - Galli\u00e9ni", "is_installed": "OUI", "capacity": 25, "numdocksavailable": 0, "numbikesavailable": 25, "mechanical": 23, "ebike": 2, "is_renting": "OUI", "is_returning": "OUI", "duedate": "2024-08-01T08:16:38+00:00", "coordonnees_geo": {"lon": 2.2325500845909, "lat": 48.835583838706}, "nom_arrondissement_communes": "Boulogne-Billancourt", "code_insee_commune": null}, {"stationcode": "30002", "name": "Jean Rostand - Paul Vaillant Couturier", "is_installed": "OUI", "capacity": 40, "numdocksavailable": 12, "numbikesavailable": 26, "mechanical": 7, "ebike": 19, "is_renting": "OUI", "is_returning": "OUI", "duedate": "2024-08-01T08:19:02+00:00", "coordonnees_geo": {"lon": 2.4530601033354, "lat": 48.908168131015}, "nom_arrondissement_communes": "Bobigny", "code_insee_commune": null}, {"stationcode": "32304", "name": "Charcot - Benfleet", "is_installed": "NON", "capacity": 28, "numdocksavailable": 28, "numbikesavailable": 0, "mechanical": 0, "ebike": 0, "is_renting": "NON", "is_returning": "NON", "duedate": "2024-07-30T10:08:45+00:00", "coordonnees_geo": {"lon": 2.440523876268, "lat": 48.878370277021}, "nom_arrondissement_communes": "Romainville", "code_insee_commune": null}, {"stationcode": "5016", "name": "Thouin - Cardinal Lemoine", "is_installed": "OUI", "capacity": 17, "numdocksavailable": 12, "numbikesavailable": 3, "mechanical": 1, "ebike": 2, "is_renting": "OUI", "is_returning": "OUI", "duedate": "2024-08-01T08:14:00+00:00", "coordonnees_geo": {"lon": 2.3494647851273465, "lat": 48.84504716661511}, "nom_arrondissement_communes": "Paris", "code_insee_commune": null}, {"stationcode": "15047", "name": "Morillons - Dantzig", "is_installed": "OUI", "capacity": 52, "numdocksavailable": 50, "numbikesavailable": 2, "mechanical": 0, "ebike": 2, "is_renting": "OUI", "is_returning": "OUI", "duedate": "2024-08-01T08:12:18+00:00", "coordonnees_geo": {"lon": 2.299380004405976, "lat": 48.83310149953933}, "nom_arrondissement_communes": "Paris", "code_insee_commune": null}, {"stationcode": "17026", "name": "Jouffroy d'Abbans - Wagram", "is_installed": "OUI", "capacity": 40, "numdocksavailable": 28, "numbikesavailable": 10, "mechanical": 6, "ebike": 4, "is_renting": "OUI", "is_returning": "OUI", "duedate": "2024-08-01T08:16:19+00:00", "coordonnees_geo": {"lon": 2.301132157445, "lat": 48.881973298352}, "nom_arrondissement_communes": "Paris", "code_insee_commune": null}, {"stationcode": "8050", "name": "Bo\u00e9tie - Ponthieu", "is_installed": "OUI", "capacity": 45, "numdocksavailable": 30, "numbikesavailable": 15, "mechanical": 7, "ebike": 8, "is_renting": "OUI", "is_returning": "OUI", "duedate": "2024-08-01T08:19:31+00:00", "coordonnees_geo": {"lon": 2.3076787590981, "lat": 48.871417284355}, "nom_arrondissement_communes": "Paris", "code_insee_commune": null}, {"stationcode": "13101", "name": "Croulebarde - Corvisart", "is_installed": "OUI", "capacity": 34, "numdocksavailable": 12, "numbikesavailable": 21, "mechanical": 19, "ebike": 2, "is_renting": "OUI", "is_returning": "OUI", "duedate": "2024-08-01T08:19:13+00:00", "coordonnees_geo": {"lon": 2.3481646925210953, "lat": 48.830981659316855}, "nom_arrondissement_communes": "Paris", "code_insee_commune": null}, {"stationcode": "14108", "name": "Le Brix et Mesmin - Jourdan", "is_installed": "OUI", "capacity": 21, "numdocksavailable": 19, "numbikesavailable": 2, "mechanical": 1, "ebike": 1, "is_renting": "OUI", "is_returning": "OUI", "duedate": "2024-08-01T08:18:38+00:00", "coordonnees_geo": {"lon": 2.327861653302471, "lat": 48.82234096593411}, "nom_arrondissement_communes": "Paris", "code_insee_commune": null}, {"stationcode": "31024", "name": "Romainville - Vaillant-Couturier", "is_installed": "OUI", "capacity": 38, "numdocksavailable": 37, "numbikesavailable": 0, "mechanical": 0, "ebike": 0, "is_renting": "OUI", "is_returning": "OUI", "duedate": "2024-08-01T08:19:44+00:00", "coordonnees_geo": {"lon": 2.446748, "lat": 48.86785}, "nom_arrondissement_communes": "Montreuil", "code_insee_commune": null}, {"stationcode": "2022", "name": "Saint-Fiacre - Poissoni\u00e8re", "is_installed": "OUI", "capacity": 35, "numdocksavailable": 3, "numbikesavailable": 30, "mechanical": 23, "ebike": 7, "is_renting": "OUI", "is_returning": "OUI", "duedate": "2024-08-01T08:15:37+00:00", "coordonnees_geo": {"lon": 2.3459213599563, "lat": 48.870828911558}, "nom_arrondissement_communes": "Paris", "code_insee_commune": null}, {"stationcode": "17025", "name": "Chazelles - Courcelles", "is_installed": "OUI", "capacity": 35, "numdocksavailable": 31, "numbikesavailable": 4, "mechanical": 0, "ebike": 4, "is_renting": "OUI", "is_returning": "OUI", "duedate": "2024-08-01T08:18:11+00:00", "coordonnees_geo": {"lon": 2.3034455627202988, "lat": 48.879406604954}, "nom_arrondissement_communes": "Paris", "code_insee_commune": null}, {"stationcode": "21326", "name": "Moulin de Pierre - Abb\u00e9 Gr\u00e9goire", "is_installed": "OUI", "capacity": 20, "numdocksavailable": 18, "numbikesavailable": 2, "mechanical": 0, "ebike": 2, "is_renting": "OUI", "is_returning": "OUI", "duedate": "2024-08-01T08:12:37+00:00", "coordonnees_geo": {"lon": 2.2754641655975, "lat": 48.822036188382}, "nom_arrondissement_communes": "Issy-les-Moulineaux", "code_insee_commune": null}, {"stationcode": "43002", "name": "Lagny - Victor Basch", "is_installed": "OUI", "capacity": 26, "numdocksavailable": 10, "numbikesavailable": 16, "mechanical": 12, "ebike": 4, "is_renting": "OUI", "is_returning": "OUI", "duedate": "2024-08-01T08:19:30+00:00", "coordonnees_geo": {"lon": 2.426325418925233, "lat": 48.84884147189881}, "nom_arrondissement_communes": "Vincennes", "code_insee_commune": null}, {"stationcode": "15068", "name": "G\u00e9n\u00e9ral Martial Valin - Pont du Garigliano", "is_installed": "OUI", "capacity": 16, "numdocksavailable": 5, "numbikesavailable": 11, "mechanical": 2, "ebike": 9, "is_renting": "OUI", "is_returning": "OUI", "duedate": "2024-08-01T08:18:55+00:00", "coordonnees_geo": {"lon": 2.270506024360657, "lat": 48.83823094269141}, "nom_arrondissement_communes": "Paris", "code_insee_commune": null}, {"stationcode": "31708", "name": "Noisy le Sec - Jean-Baptiste Cl\u00e9ment", "is_installed": "OUI", "capacity": 22, "numdocksavailable": 21, "numbikesavailable": 1, "mechanical": 0, "ebike": 1, "is_renting": "NON", "is_returning": "NON", "duedate": "2024-08-01T08:16:02+00:00", "coordonnees_geo": {"lon": 2.415283620357514, "lat": 48.87451538963655}, "nom_arrondissement_communes": "Bagnolet", "code_insee_commune": null}, {"stationcode": "17048", "name": "De Toqueville - Terrasse", "is_installed": "OUI", "capacity": 30, "numdocksavailable": 27, "numbikesavailable": 2, "mechanical": 0, "ebike": 2, "is_renting": "OUI", "is_returning": "OUI", "duedate": "2024-08-01T08:10:44+00:00", "coordonnees_geo": {"lon": 2.314002, "lat": 48.882428}, "nom_arrondissement_communes": "Paris", "code_insee_commune": null}, {"stationcode": "10013", "name": "Alibert - Jemmapes", "is_installed": "OUI", "capacity": 60, "numdocksavailable": 53, "numbikesavailable": 4, "mechanical": 2, "ebike": 2, "is_renting": "OUI", "is_returning": "OUI", "duedate": "2024-08-01T08:18:35+00:00", "coordonnees_geo": {"lon": 2.3661044619878, "lat": 48.871044051984}, "nom_arrondissement_communes": "Paris", "code_insee_commune": null}, {"stationcode": "16118", "name": "Michel-Ange - Parent de Rosan", "is_installed": "OUI", "capacity": 26, "numdocksavailable": 22, "numbikesavailable": 3, "mechanical": 1, "ebike": 2, "is_renting": "OUI", "is_returning": "OUI", "duedate": "2024-08-01T08:13:45+00:00", "coordonnees_geo": {"lon": 2.2584119439125065, "lat": 48.840579923690115}, "nom_arrondissement_communes": "Paris", "code_insee_commune": null}, {"stationcode": "9008", "name": "Tour d'Auvergne - Rodier", "is_installed": "OUI", "capacity": 17, "numdocksavailable": 17, "numbikesavailable": 0, "mechanical": 0, "ebike": 0, "is_renting": "OUI", "is_returning": "OUI", "duedate": "2024-08-01T08:18:16+00:00", "coordonnees_geo": {"lon": 2.343698, "lat": 48.879161}, "nom_arrondissement_communes": "Paris", "code_insee_commune": null}, {"stationcode": "8048", "name": "Marceau - Chaillot", "is_installed": "OUI", "capacity": 21, "numdocksavailable": 9, "numbikesavailable": 11, "mechanical": 4, "ebike": 7, "is_renting": "OUI", "is_returning": "OUI", "duedate": "2024-08-01T08:18:54+00:00", "coordonnees_geo": {"lon": 2.2986030816809, "lat": 48.868834023334}, "nom_arrondissement_communes": "Paris", "code_insee_commune": null}, {"stationcode": "15112", "name": "Vig\u00e9e-Lebrun - Anselme Payen", "is_installed": "OUI", "capacity": 24, "numdocksavailable": 17, "numbikesavailable": 6, "mechanical": 5, "ebike": 1, "is_renting": "OUI", "is_returning": "OUI", "duedate": "2024-08-01T08:14:26+00:00", "coordonnees_geo": {"lon": 2.3110422492027287, "lat": 48.838683941628375}, "nom_arrondissement_communes": "Paris", "code_insee_commune": null}, {"stationcode": "18111", "name": "F\u00e9lix Ziem - Armand Gauthier", "is_installed": "OUI", "capacity": 25, "numdocksavailable": 24, "numbikesavailable": 1, "mechanical": 0, "ebike": 1, "is_renting": "OUI", "is_returning": "OUI", "duedate": "2024-08-01T08:19:15+00:00", "coordonnees_geo": {"lon": 2.333393658804396, "lat": 48.88949630486821}, "nom_arrondissement_communes": "Paris", "code_insee_commune": null}, {"stationcode": "48003", "name": "Youri Gagarine - Karl Marx", "is_installed": "OUI", "capacity": 22, "numdocksavailable": 22, "numbikesavailable": 0, "mechanical": 0, "ebike": 0, "is_renting": "OUI", "is_returning": "OUI", "duedate": "2024-08-01T08:10:08+00:00", "coordonnees_geo": {"lon": 2.35908430069685, "lat": 48.78448485079149}, "nom_arrondissement_communes": "Villejuif", "code_insee_commune": null}, {"stationcode": "16110", "name": "Octave Feuillet - Alb\u00e9ric Magnard", "is_installed": "OUI", "capacity": 21, "numdocksavailable": 18, "numbikesavailable": 3, "mechanical": 1, "ebike": 2, "is_renting": "OUI", "is_returning": "OUI", "duedate": "2024-08-01T08:10:47+00:00", "coordonnees_geo": {"lon": 2.2730283066630363, "lat": 48.86106902949534}, "nom_arrondissement_communes": "Paris", "code_insee_commune": null}, {"stationcode": "9001", "name": "Bellefond - Poissonni\u00e8re", "is_installed": "OUI", "capacity": 17, "numdocksavailable": 14, "numbikesavailable": 3, "mechanical": 2, "ebike": 1, "is_renting": "OUI", "is_returning": "OUI", "duedate": "2024-08-01T08:18:49+00:00", "coordonnees_geo": {"lon": 2.348463758826256, "lat": 48.87759897050706}, "nom_arrondissement_communes": "Paris", "code_insee_commune": null}, {"stationcode": "17032", "name": "Jean Oestreicher - Porte de Champerret", "is_installed": "OUI", "capacity": 21, "numdocksavailable": 18, "numbikesavailable": 2, "mechanical": 2, "ebike": 0, "is_renting": "OUI", "is_returning": "OUI", "duedate": "2024-08-01T08:12:37+00:00", "coordonnees_geo": {"lon": 2.288640439510346, "lat": 48.88655580065981}, "nom_arrondissement_communes": "Paris", "code_insee_commune": null}, {"stationcode": "10115", "name": "Granges aux Belles", "is_installed": "OUI", "capacity": 27, "numdocksavailable": 24, "numbikesavailable": 1, "mechanical": 1, "ebike": 0, "is_renting": "OUI", "is_returning": "OUI", "duedate": "2024-08-01T08:09:55+00:00", "coordonnees_geo": {"lon": 2.3680844979417, "lat": 48.8761373390584}, "nom_arrondissement_communes": "Paris", "code_insee_commune": null}, {"stationcode": "5005", "name": "Gay Lussac - Saint-Jacques", "is_installed": "OUI", "capacity": 24, "numdocksavailable": 22, "numbikesavailable": 2, "mechanical": 1, "ebike": 1, "is_renting": "OUI", "is_returning": "OUI", "duedate": "2024-08-01T08:14:17+00:00", "coordonnees_geo": {"lon": 2.341923944866407, "lat": 48.844730256132095}, "nom_arrondissement_communes": "Paris", "code_insee_commune": null}, {"stationcode": "10161", "name": "Gare de l'Est - Faubourg-Saint-Martin", "is_installed": "OUI", "capacity": 32, "numdocksavailable": 26, "numbikesavailable": 5, "mechanical": 1, "ebike": 4, "is_renting": "OUI", "is_returning": "OUI", "duedate": "2024-08-01T08:19:08+00:00", "coordonnees_geo": {"lon": 2.3594588041306, "lat": 48.875642647477}, "nom_arrondissement_communes": "Paris", "code_insee_commune": null}, {"stationcode": "41303", "name": "Gare de Nogent-le-Perreux", "is_installed": "OUI", "capacity": 32, "numdocksavailable": 5, "numbikesavailable": 27, "mechanical": 6, "ebike": 21, "is_renting": "OUI", "is_returning": "OUI", "duedate": "2024-08-01T08:19:00+00:00", "coordonnees_geo": {"lon": 2.493693307042122, "lat": 48.83842553348809}, "nom_arrondissement_communes": "Nogent-sur-Marne", "code_insee_commune": null}, {"stationcode": "12031", "name": "Gabriel Lam\u00e9", "is_installed": "OUI", "capacity": 36, "numdocksavailable": 14, "numbikesavailable": 22, "mechanical": 21, "ebike": 1, "is_renting": "OUI", "is_returning": "OUI", "duedate": "2024-08-01T08:18:34+00:00", "coordonnees_geo": {"lon": 2.385534569621086, "lat": 48.8351212784276}, "nom_arrondissement_communes": "Paris", "code_insee_commune": null}, {"stationcode": "5022", "name": "Boulangers - Cardinal Lemoine", "is_installed": "OUI", "capacity": 20, "numdocksavailable": 14, "numbikesavailable": 6, "mechanical": 5, "ebike": 1, "is_renting": "OUI", "is_returning": "OUI", "duedate": "2024-08-01T08:11:12+00:00", "coordonnees_geo": {"lon": 2.3521495, "lat": 48.8462904}, "nom_arrondissement_communes": "Paris", "code_insee_commune": null}, {"stationcode": "9106", "name": "Boudreau - Auber", "is_installed": "OUI", "capacity": 14, "numdocksavailable": 1, "numbikesavailable": 12, "mechanical": 6, "ebike": 6, "is_renting": "OUI", "is_returning": "OUI", "duedate": "2024-08-01T08:16:28+00:00", "coordonnees_geo": {"lon": 2.329423, "lat": 48.87219}, "nom_arrondissement_communes": "Paris", "code_insee_commune": null}, {"stationcode": "21323", "name": "Charlot - Stade Gabriel Voisin", "is_installed": "OUI", "capacity": 31, "numdocksavailable": 2, "numbikesavailable": 28, "mechanical": 25, "ebike": 3, "is_renting": "OUI", "is_returning": "OUI", "duedate": "2024-08-01T08:17:39+00:00", "coordonnees_geo": {"lon": 2.268122527474, "lat": 48.827228120536}, "nom_arrondissement_communes": "Issy-les-Moulineaux", "code_insee_commune": null}, {"stationcode": "17040", "name": "Pereire - Ternes", "is_installed": "OUI", "capacity": 48, "numdocksavailable": 32, "numbikesavailable": 16, "mechanical": 7, "ebike": 9, "is_renting": "OUI", "is_returning": "OUI", "duedate": "2024-08-01T08:18:58+00:00", "coordonnees_geo": {"lon": 2.288012132048607, "lat": 48.87973954830735}, "nom_arrondissement_communes": "Paris", "code_insee_commune": null}, {"stationcode": "9038", "name": "Douai - Bruxelles", "is_installed": "OUI", "capacity": 27, "numdocksavailable": 21, "numbikesavailable": 6, "mechanical": 2, "ebike": 4, "is_renting": "OUI", "is_returning": "OUI", "duedate": "2024-08-01T08:16:16+00:00", "coordonnees_geo": {"lon": 2.3308449949028507, "lat": 48.88320784122797}, "nom_arrondissement_communes": "Paris", "code_insee_commune": null}, {"stationcode": "8009", "name": "Gare Saint-Lazare - Isly", "is_installed": "OUI", "capacity": 27, "numdocksavailable": 6, "numbikesavailable": 18, "mechanical": 7, "ebike": 11, "is_renting": "OUI", "is_returning": "OUI", "duedate": "2024-08-01T08:18:06+00:00", "coordonnees_geo": {"lon": 2.326515804784655, "lat": 48.874777677621296}, "nom_arrondissement_communes": "Paris", "code_insee_commune": null}, {"stationcode": "31103", "name": "Gare Rosny-Bois-Perrier", "is_installed": "OUI", "capacity": 36, "numdocksavailable": 20, "numbikesavailable": 16, "mechanical": 4, "ebike": 12, "is_renting": "OUI", "is_returning": "OUI", "duedate": "2024-08-01T08:19:34+00:00", "coordonnees_geo": {"lon": 2.480436824262142, "lat": 48.88115023337061}, "nom_arrondissement_communes": "Rosny-sous-Bois", "code_insee_commune": null}, {"stationcode": "17008", "name": "Porte Pouchet-Bessi\u00e8res", "is_installed": "OUI", "capacity": 23, "numdocksavailable": 19, "numbikesavailable": 3, "mechanical": 0, "ebike": 3, "is_renting": "OUI", "is_returning": "OUI", "duedate": "2024-08-01T08:17:19+00:00", "coordonnees_geo": {"lon": 2.3230632, "lat": 48.8978765}, "nom_arrondissement_communes": "Paris", "code_insee_commune": null}, {"stationcode": "7018", "name": "S\u00e9gur - d'Estr\u00e9es", "is_installed": "OUI", "capacity": 19, "numdocksavailable": 0, "numbikesavailable": 19, "mechanical": 13, "ebike": 6, "is_renting": "OUI", "is_returning": "OUI", "duedate": "2024-08-01T08:18:47+00:00", "coordonnees_geo": {"lon": 2.3097044974566, "lat": 48.851419978983}, "nom_arrondissement_communes": "Paris", "code_insee_commune": null}, {"stationcode": "8053", "name": "Place Georges Guillaumin", "is_installed": "OUI", "capacity": 29, "numdocksavailable": 18, "numbikesavailable": 11, "mechanical": 3, "ebike": 8, "is_renting": "OUI", "is_returning": "OUI", "duedate": "2024-08-01T08:17:18+00:00", "coordonnees_geo": {"lon": 2.301771435326, "lat": 48.874750203957}, "nom_arrondissement_communes": "Paris", "code_insee_commune": null}, {"stationcode": "19105", "name": "Ambroise Rendu - Porte Brunet", "is_installed": "OUI", "capacity": 17, "numdocksavailable": 10, "numbikesavailable": 6, "mechanical": 3, "ebike": 3, "is_renting": "OUI", "is_returning": "OUI", "duedate": "2024-08-01T08:19:41+00:00", "coordonnees_geo": {"lon": 2.395733, "lat": 48.883667}, "nom_arrondissement_communes": "Paris", "code_insee_commune": null}, {"stationcode": "26003", "name": "Argenteuil - Voltaire", "is_installed": "OUI", "capacity": 16, "numdocksavailable": 12, "numbikesavailable": 3, "mechanical": 2, "ebike": 1, "is_renting": "OUI", "is_returning": "OUI", "duedate": "2024-08-01T08:17:06+00:00", "coordonnees_geo": {"lon": 2.2814112156629562, "lat": 48.91864865955558}, "nom_arrondissement_communes": "Asni\u00e8res-sur-Seine", "code_insee_commune": null}, {"stationcode": "17004", "name": "Legendre - Clichy", "is_installed": "OUI", "capacity": 40, "numdocksavailable": 35, "numbikesavailable": 3, "mechanical": 2, "ebike": 1, "is_renting": "OUI", "is_returning": "OUI", "duedate": "2024-08-01T08:18:56+00:00", "coordonnees_geo": {"lon": 2.322528975094376, "lat": 48.88896161855884}, "nom_arrondissement_communes": "Paris", "code_insee_commune": null}, {"stationcode": "19003", "name": "Quai de la Seine", "is_installed": "OUI", "capacity": 24, "numdocksavailable": 18, "numbikesavailable": 1, "mechanical": 0, "ebike": 1, "is_renting": "OUI", "is_returning": "OUI", "duedate": "2024-08-01T08:18:36+00:00", "coordonnees_geo": {"lon": 2.3703941702842717, "lat": 48.884492238407525}, "nom_arrondissement_communes": "Paris", "code_insee_commune": null}, {"stationcode": "8036", "name": "Lisbonne - Monceau", "is_installed": "OUI", "capacity": 33, "numdocksavailable": 8, "numbikesavailable": 25, "mechanical": 7, "ebike": 18, "is_renting": "OUI", "is_returning": "OUI", "duedate": "2024-08-01T08:19:06+00:00", "coordonnees_geo": {"lon": 2.309694221419506, "lat": 48.87745567681383}, "nom_arrondissement_communes": "Paris", "code_insee_commune": null}, {"stationcode": "16026", "name": "Ranelagh - Mozart", "is_installed": "OUI", "capacity": 23, "numdocksavailable": 17, "numbikesavailable": 2, "mechanical": 0, "ebike": 2, "is_renting": "OUI", "is_returning": "OUI", "duedate": "2024-08-01T08:19:02+00:00", "coordonnees_geo": {"lon": 2.2704418, "lat": 48.8554439}, "nom_arrondissement_communes": "Paris", "code_insee_commune": null}, {"stationcode": "9028", "name": "Moncey - Blanche", "is_installed": "OUI", "capacity": 17, "numdocksavailable": 13, "numbikesavailable": 4, "mechanical": 1, "ebike": 3, "is_renting": "OUI", "is_returning": "OUI", "duedate": "2024-08-01T08:18:20+00:00", "coordonnees_geo": {"lon": 2.3310810327529907, "lat": 48.88006587474148}, "nom_arrondissement_communes": "Paris", "code_insee_commune": null}, {"stationcode": "26002", "name": "Redoute - Les Courtilles", "is_installed": "OUI", "capacity": 40, "numdocksavailable": 26, "numbikesavailable": 14, "mechanical": 8, "ebike": 6, "is_renting": "OUI", "is_returning": "OUI", "duedate": "2024-08-01T08:17:16+00:00", "coordonnees_geo": {"lon": 2.2836696356535, "lat": 48.929867194519}, "nom_arrondissement_communes": "Asni\u00e8res-sur-Seine", "code_insee_commune": null}, {"stationcode": "16039", "name": "Exelmans - Versailles", "is_installed": "OUI", "capacity": 49, "numdocksavailable": 35, "numbikesavailable": 13, "mechanical": 10, "ebike": 3, "is_renting": "OUI", "is_returning": "OUI", "duedate": "2024-08-01T08:14:39+00:00", "coordonnees_geo": {"lon": 2.264390252530575, "lat": 48.84097491091973}, "nom_arrondissement_communes": "Paris", "code_insee_commune": null}, {"stationcode": "45003", "name": "11 Novembre 1918 - 8 Mai 1945", "is_installed": "OUI", "capacity": 36, "numdocksavailable": 29, "numbikesavailable": 7, "mechanical": 6, "ebike": 1, "is_renting": "OUI", "is_returning": "OUI", "duedate": "2024-08-01T08:14:58+00:00", "coordonnees_geo": {"lon": 2.5382421165704727, "lat": 48.80889533774377}, "nom_arrondissement_communes": "Champigny-sur-Marne", "code_insee_commune": null}, {"stationcode": "12111", "name": "Claude Decaen - Cannebi\u00e8re", "is_installed": "OUI", "capacity": 27, "numdocksavailable": 15, "numbikesavailable": 11, "mechanical": 9, "ebike": 2, "is_renting": "OUI", "is_returning": "OUI", "duedate": "2024-08-01T08:18:57+00:00", "coordonnees_geo": {"lon": 2.397253782195704, "lat": 48.83761417037952}, "nom_arrondissement_communes": "Paris", "code_insee_commune": null}, {"stationcode": "8034", "name": "Berri - Haussmann", "is_installed": "OUI", "capacity": 35, "numdocksavailable": 3, "numbikesavailable": 29, "mechanical": 12, "ebike": 17, "is_renting": "OUI", "is_returning": "OUI", "duedate": "2024-08-01T08:18:03+00:00", "coordonnees_geo": {"lon": 2.3082953318953514, "lat": 48.874746047357135}, "nom_arrondissement_communes": "Paris", "code_insee_commune": null}, {"stationcode": "15067", "name": "Desaix - Edgar Faure", "is_installed": "OUI", "capacity": 12, "numdocksavailable": 3, "numbikesavailable": 6, "mechanical": 1, "ebike": 5, "is_renting": "OUI", "is_returning": "OUI", "duedate": "2024-08-01T08:15:15+00:00", "coordonnees_geo": {"lon": 2.293077029857222, "lat": 48.852804604940296}, "nom_arrondissement_communes": "Paris", "code_insee_commune": null}, {"stationcode": "17030", "name": "Pereire - Rennequin", "is_installed": "OUI", "capacity": 23, "numdocksavailable": 15, "numbikesavailable": 8, "mechanical": 8, "ebike": 0, "is_renting": "OUI", "is_returning": "OUI", "duedate": "2024-08-01T08:16:48+00:00", "coordonnees_geo": {"lon": 2.2952447086572647, "lat": 48.88364782887555}, "nom_arrondissement_communes": "Paris", "code_insee_commune": null}, {"stationcode": "6006", "name": "Notre-Dame-des-Champs - Stanislas", "is_installed": "OUI", "capacity": 19, "numdocksavailable": 16, "numbikesavailable": 3, "mechanical": 3, "ebike": 0, "is_renting": "OUI", "is_returning": "OUI", "duedate": "2024-08-01T08:13:26+00:00", "coordonnees_geo": {"lon": 2.329337755887181, "lat": 48.84479928858768}, "nom_arrondissement_communes": "Paris", "code_insee_commune": null}, {"stationcode": "11027", "name": "Saint-Ambroise - Parmentier", "is_installed": "OUI", "capacity": 38, "numdocksavailable": 27, "numbikesavailable": 11, "mechanical": 6, "ebike": 5, "is_renting": "OUI", "is_returning": "OUI", "duedate": "2024-08-01T08:13:38+00:00", "coordonnees_geo": {"lon": 2.3772348091006, "lat": 48.862147844548}, "nom_arrondissement_communes": "Paris", "code_insee_commune": null}, {"stationcode": "31022", "name": "Mairie de Montreuil", "is_installed": "OUI", "capacity": 52, "numdocksavailable": 36, "numbikesavailable": 15, "mechanical": 1, "ebike": 14, "is_renting": "OUI", "is_returning": "OUI", "duedate": "2024-08-01T08:19:44+00:00", "coordonnees_geo": {"lon": 2.440614402294159, "lat": 48.86131452758348}, "nom_arrondissement_communes": "Montreuil", "code_insee_commune": null}, {"stationcode": "46002", "name": "Rouget de Lisle", "is_installed": "OUI", "capacity": 35, "numdocksavailable": 14, "numbikesavailable": 16, "mechanical": 5, "ebike": 11, "is_renting": "OUI", "is_returning": "OUI", "duedate": "2024-08-01T08:16:51+00:00", "coordonnees_geo": {"lon": 2.4071189761161804, "lat": 48.764615483395254}, "nom_arrondissement_communes": "Choisy-le-Roi", "code_insee_commune": null}, {"stationcode": "11113", "name": "Richard Lenoir - Republique", "is_installed": "OUI", "capacity": 58, "numdocksavailable": 51, "numbikesavailable": 5, "mechanical": 3, "ebike": 2, "is_renting": "OUI", "is_returning": "OUI", "duedate": "2024-08-01T08:19:42+00:00", "coordonnees_geo": {"lon": 2.3692541, "lat": 48.8667175}, "nom_arrondissement_communes": "Paris", "code_insee_commune": null}, {"stationcode": "10016", "name": "R\u00e9collets - Square Villemin", "is_installed": "OUI", "capacity": 17, "numdocksavailable": 15, "numbikesavailable": 1, "mechanical": 1, "ebike": 0, "is_renting": "OUI", "is_returning": "OUI", "duedate": "2024-08-01T08:19:09+00:00", "coordonnees_geo": {"lon": 2.359801238597928, "lat": 48.875034655883944}, "nom_arrondissement_communes": "Paris", "code_insee_commune": null}, {"stationcode": "15042", "name": "Henry Farman", "is_installed": "OUI", "capacity": 16, "numdocksavailable": 0, "numbikesavailable": 16, "mechanical": 12, "ebike": 4, "is_renting": "OUI", "is_returning": "OUI", "duedate": "2024-08-01T08:19:20+00:00", "coordonnees_geo": {"lon": 2.2713854536414146, "lat": 48.83372430280548}, "nom_arrondissement_communes": "Paris", "code_insee_commune": null}, {"stationcode": "20112", "name": "Jourdain - Place des Grandes Rigoles", "is_installed": "OUI", "capacity": 22, "numdocksavailable": 19, "numbikesavailable": 2, "mechanical": 0, "ebike": 2, "is_renting": "OUI", "is_returning": "OUI", "duedate": "2024-08-01T08:14:49+00:00", "coordonnees_geo": {"lon": 2.38959476351738, "lat": 48.87403113727167}, "nom_arrondissement_communes": "Paris", "code_insee_commune": null}, {"stationcode": "18011", "name": "Pajol - Place Herbert", "is_installed": "OUI", "capacity": 39, "numdocksavailable": 35, "numbikesavailable": 4, "mechanical": 2, "ebike": 2, "is_renting": "OUI", "is_returning": "OUI", "duedate": "2024-08-01T08:17:35+00:00", "coordonnees_geo": {"lon": 2.3635598, "lat": 48.8927825}, "nom_arrondissement_communes": "Paris", "code_insee_commune": null}, {"stationcode": "33102", "name": "Gabriel P\u00e9ri - Francisco Ferrer", "is_installed": "OUI", "capacity": 18, "numdocksavailable": 14, "numbikesavailable": 2, "mechanical": 1, "ebike": 1, "is_renting": "OUI", "is_returning": "OUI", "duedate": "2024-08-01T08:16:34+00:00", "coordonnees_geo": {"lon": 2.407338917255402, "lat": 48.88633710236977}, "nom_arrondissement_communes": "Le Pr\u00e9-Saint-Gervais", "code_insee_commune": null}, {"stationcode": "42706", "name": "Roger Salengro - Fontainebleau", "is_installed": "OUI", "capacity": 25, "numdocksavailable": 15, "numbikesavailable": 9, "mechanical": 4, "ebike": 5, "is_renting": "OUI", "is_returning": "OUI", "duedate": "2024-08-01T08:14:43+00:00", "coordonnees_geo": {"lon": 2.3611663654447, "lat": 48.814548697325}, "nom_arrondissement_communes": "Le Kremlin-Bic\u00eatre", "code_insee_commune": null}, {"stationcode": "15104", "name": "H\u00f4pital Europ\u00e9en Georges Pompidou", "is_installed": "OUI", "capacity": 64, "numdocksavailable": 6, "numbikesavailable": 56, "mechanical": 34, "ebike": 22, "is_renting": "OUI", "is_returning": "OUI", "duedate": "2024-08-01T08:18:55+00:00", "coordonnees_geo": {"lon": 2.2753742337227, "lat": 48.837695319163}, "nom_arrondissement_communes": "Paris", "code_insee_commune": null}, {"stationcode": "14003", "name": "Schoelcher - Raspail", "is_installed": "OUI", "capacity": 50, "numdocksavailable": 44, "numbikesavailable": 4, "mechanical": 1, "ebike": 3, "is_renting": "OUI", "is_returning": "OUI", "duedate": "2024-08-01T08:17:39+00:00", "coordonnees_geo": {"lon": 2.3312794080411474, "lat": 48.83681733526843}, "nom_arrondissement_communes": "Paris", "code_insee_commune": null}, {"stationcode": "43008", "name": "Fontenay - Lib\u00e9ration", "is_installed": "OUI", "capacity": 25, "numdocksavailable": 22, "numbikesavailable": 3, "mechanical": 2, "ebike": 1, "is_renting": "OUI", "is_returning": "OUI", "duedate": "2024-08-01T08:14:23+00:00", "coordonnees_geo": {"lon": 2.4451419711113, "lat": 48.847803063647}, "nom_arrondissement_communes": "Vincennes", "code_insee_commune": null}, {"stationcode": "14138", "name": "Porte de Vanves", "is_installed": "OUI", "capacity": 32, "numdocksavailable": 18, "numbikesavailable": 14, "mechanical": 7, "ebike": 7, "is_renting": "OUI", "is_returning": "OUI", "duedate": "2024-08-01T08:19:19+00:00", "coordonnees_geo": {"lon": 2.3056878894567, "lat": 48.828012849445}, "nom_arrondissement_communes": "Paris", "code_insee_commune": null}, {"stationcode": "12114", "name": "Victor Hugo - Jeanne Jugan", "is_installed": "OUI", "capacity": 28, "numdocksavailable": 8, "numbikesavailable": 18, "mechanical": 13, "ebike": 5, "is_renting": "OUI", "is_returning": "OUI", "duedate": "2024-08-01T08:17:52+00:00", "coordonnees_geo": {"lon": 2.415081394834419, "lat": 48.843949064031825}, "nom_arrondissement_communes": "Paris", "code_insee_commune": null}, {"stationcode": "21312", "name": "Lucie Aubrac - Fort", "is_installed": "OUI", "capacity": 30, "numdocksavailable": 27, "numbikesavailable": 2, "mechanical": 0, "ebike": 2, "is_renting": "OUI", "is_returning": "OUI", "duedate": "2024-08-01T08:17:53+00:00", "coordonnees_geo": {"lon": 2.271184623241425, "lat": 48.818144834008976}, "nom_arrondissement_communes": "Issy-les-Moulineaux", "code_insee_commune": null}, {"stationcode": "13001", "name": "Port-Royal - H\u00f4pital du Val-de-Gr\u00e2ce", "is_installed": "OUI", "capacity": 18, "numdocksavailable": 14, "numbikesavailable": 4, "mechanical": 1, "ebike": 3, "is_renting": "OUI", "is_returning": "OUI", "duedate": "2024-08-01T08:19:05+00:00", "coordonnees_geo": {"lon": 2.3448138346607, "lat": 48.837668272811}, "nom_arrondissement_communes": "Paris", "code_insee_commune": null}, {"stationcode": "42014", "name": "Place Marcel Cachin", "is_installed": "OUI", "capacity": 32, "numdocksavailable": 3, "numbikesavailable": 28, "mechanical": 21, "ebike": 7, "is_renting": "OUI", "is_returning": "OUI", "duedate": "2024-08-01T08:19:22+00:00", "coordonnees_geo": {"lon": 2.39090770483017, "lat": 48.81411442356866}, "nom_arrondissement_communes": "Ivry-sur-Seine", "code_insee_commune": null}, {"stationcode": "4016", "name": "Lobau - H\u00f4tel de Ville", "is_installed": "OUI", "capacity": 60, "numdocksavailable": 60, "numbikesavailable": 0, "mechanical": 0, "ebike": 0, "is_renting": "NON", "is_returning": "NON", "duedate": "2024-07-23T22:40:36+00:00", "coordonnees_geo": {"lon": 2.3532536, "lat": 48.8562118}, "nom_arrondissement_communes": "Paris", "code_insee_commune": null}, {"stationcode": "15054", "name": "Lecourbe - Jean Maridor", "is_installed": "OUI", "capacity": 19, "numdocksavailable": 16, "numbikesavailable": 2, "mechanical": 2, "ebike": 0, "is_renting": "OUI", "is_returning": "OUI", "duedate": "2024-08-01T08:12:09+00:00", "coordonnees_geo": {"lon": 2.2877392172813416, "lat": 48.83796366147599}, "nom_arrondissement_communes": "Paris", "code_insee_commune": null}, {"stationcode": "18046", "name": "Etienne Jodelle - Saint Ouen", "is_installed": "OUI", "capacity": 33, "numdocksavailable": 30, "numbikesavailable": 1, "mechanical": 0, "ebike": 1, "is_renting": "OUI", "is_returning": "OUI", "duedate": "2024-08-01T08:17:35+00:00", "coordonnees_geo": {"lon": 2.326124420314341, "lat": 48.88794016394694}, "nom_arrondissement_communes": "Paris", "code_insee_commune": null}, {"stationcode": "31102", "name": "Boissi\u00e8re - Etienne Dolet", "is_installed": "OUI", "capacity": 21, "numdocksavailable": 15, "numbikesavailable": 6, "mechanical": 0, "ebike": 6, "is_renting": "OUI", "is_returning": "OUI", "duedate": "2024-08-01T08:18:45+00:00", "coordonnees_geo": {"lon": 2.4677312, "lat": 48.876111}, "nom_arrondissement_communes": "Montreuil", "code_insee_commune": null}, {"stationcode": "2111", "name": "Chabanais - Petits Champs", "is_installed": "OUI", "capacity": 30, "numdocksavailable": 17, "numbikesavailable": 12, "mechanical": 7, "ebike": 5, "is_renting": "OUI", "is_returning": "OUI", "duedate": "2024-08-01T08:19:21+00:00", "coordonnees_geo": {"lon": 2.336716018617153, "lat": 48.86703740186721}, "nom_arrondissement_communes": "Paris", "code_insee_commune": null}, {"stationcode": "21005", "name": "H\u00f4tel de Ville de Boulogne Billancourt", "is_installed": "OUI", "capacity": 26, "numdocksavailable": 1, "numbikesavailable": 24, "mechanical": 12, "ebike": 12, "is_renting": "OUI", "is_returning": "OUI", "duedate": "2024-08-01T08:19:36+00:00", "coordonnees_geo": {"lon": 2.2416803240776066, "lat": 48.83495885166784}, "nom_arrondissement_communes": "Boulogne-Billancourt", "code_insee_commune": null}, {"stationcode": "35010", "name": "Hoche - Jean Lolive", "is_installed": "OUI", "capacity": 24, "numdocksavailable": 19, "numbikesavailable": 4, "mechanical": 1, "ebike": 3, "is_renting": "OUI", "is_returning": "OUI", "duedate": "2024-08-01T08:18:18+00:00", "coordonnees_geo": {"lon": 2.402843534946442, "lat": 48.89110239200789}, "nom_arrondissement_communes": "Pantin", "code_insee_commune": null}, {"stationcode": "5004", "name": "Saint-Jacques - Val de Gr\u00e2ce", "is_installed": "OUI", "capacity": 19, "numdocksavailable": 14, "numbikesavailable": 4, "mechanical": 1, "ebike": 3, "is_renting": "OUI", "is_returning": "OUI", "duedate": "2024-08-01T08:15:47+00:00", "coordonnees_geo": {"lon": 2.3413893, "lat": 48.8417514}, "nom_arrondissement_communes": "Paris", "code_insee_commune": null}, {"stationcode": "14124", "name": "David Weill - Parc Montsouris", "is_installed": "OUI", "capacity": 22, "numdocksavailable": 20, "numbikesavailable": 2, "mechanical": 2, "ebike": 0, "is_renting": "OUI", "is_returning": "OUI", "duedate": "2024-08-01T08:18:53+00:00", "coordonnees_geo": {"lon": 2.333725690841675, "lat": 48.821092374256104}, "nom_arrondissement_communes": "Paris", "code_insee_commune": null}, {"stationcode": "21006", "name": "Marcelin Berthelot", "is_installed": "OUI", "capacity": 27, "numdocksavailable": 3, "numbikesavailable": 22, "mechanical": 16, "ebike": 6, "is_renting": "OUI", "is_returning": "OUI", "duedate": "2024-08-01T08:19:06+00:00", "coordonnees_geo": {"lon": 2.233161628246308, "lat": 48.8415473058801}, "nom_arrondissement_communes": "Boulogne-Billancourt", "code_insee_commune": null}, {"stationcode": "6025", "name": "Assas - Rennes", "is_installed": "OUI", "capacity": 32, "numdocksavailable": 27, "numbikesavailable": 3, "mechanical": 2, "ebike": 1, "is_renting": "OUI", "is_returning": "OUI", "duedate": "2024-08-01T08:18:34+00:00", "coordonnees_geo": {"lon": 2.32851454623001, "lat": 48.8492084999386}, "nom_arrondissement_communes": "Paris", "code_insee_commune": null}, {"stationcode": "31008", "name": "Fran\u00e7ois Debergue - Croix de Chavaux", "is_installed": "OUI", "capacity": 57, "numdocksavailable": 44, "numbikesavailable": 13, "mechanical": 3, "ebike": 10, "is_renting": "OUI", "is_returning": "OUI", "duedate": "2024-08-01T08:15:33+00:00", "coordonnees_geo": {"lon": 2.437578141689301, "lat": 48.857421708072074}, "nom_arrondissement_communes": "Montreuil", "code_insee_commune": null}, {"stationcode": "21015", "name": "Nationale - Place Jules Guesde", "is_installed": "OUI", "capacity": 23, "numdocksavailable": 5, "numbikesavailable": 16, "mechanical": 13, "ebike": 3, "is_renting": "OUI", "is_returning": "OUI", "duedate": "2024-08-01T08:19:34+00:00", "coordonnees_geo": {"lon": 2.2416052222251897, "lat": 48.82753962462998}, "nom_arrondissement_communes": "Boulogne-Billancourt", "code_insee_commune": null}, {"stationcode": "44003", "name": "Gabriel P\u00e9ri - Danielle Casanova", "is_installed": "OUI", "capacity": 20, "numdocksavailable": 6, "numbikesavailable": 13, "mechanical": 9, "ebike": 4, "is_renting": "OUI", "is_returning": "OUI", "duedate": "2024-08-01T08:19:34+00:00", "coordonnees_geo": {"lon": 2.4025777, "lat": 48.790114}, "nom_arrondissement_communes": "Vitry-sur-Seine", "code_insee_commune": null}, {"stationcode": "22203", "name": "Tertres - Fontaine", "is_installed": "OUI", "capacity": 28, "numdocksavailable": 20, "numbikesavailable": 8, "mechanical": 3, "ebike": 5, "is_renting": "OUI", "is_returning": "OUI", "duedate": "2024-08-01T08:17:21+00:00", "coordonnees_geo": {"lon": 2.306235730648041, "lat": 48.787553654715644}, "nom_arrondissement_communes": "Bagneux", "code_insee_commune": null}, {"stationcode": "11030", "name": "Oberkampf - R\u00e9publique", "is_installed": "OUI", "capacity": 24, "numdocksavailable": 19, "numbikesavailable": 5, "mechanical": 5, "ebike": 0, "is_renting": "OUI", "is_returning": "OUI", "duedate": "2024-08-01T08:17:57+00:00", "coordonnees_geo": {"lon": 2.37611478491, "lat": 48.86531608707}, "nom_arrondissement_communes": "Paris", "code_insee_commune": null}, {"stationcode": "35020", "name": "Marcelle - Thalie", "is_installed": "OUI", "capacity": 20, "numdocksavailable": 2, "numbikesavailable": 18, "mechanical": 18, "ebike": 0, "is_renting": "OUI", "is_returning": "OUI", "duedate": "2024-08-01T08:18:21+00:00", "coordonnees_geo": {"lon": 2.4137883, "lat": 48.8835462}, "nom_arrondissement_communes": "Pantin", "code_insee_commune": null}, {"stationcode": "1020", "name": "Cambon - Rivoli", "is_installed": "OUI", "capacity": 40, "numdocksavailable": 5, "numbikesavailable": 35, "mechanical": 15, "ebike": 20, "is_renting": "OUI", "is_returning": "OUI", "duedate": "2024-08-01T08:18:59+00:00", "coordonnees_geo": {"lon": 2.3251800647137, "lat": 48.866143390992}, "nom_arrondissement_communes": "Paris", "code_insee_commune": null}, {"stationcode": "9116", "name": "Victoire - Chauss\u00e9e d'Antin", "is_installed": "OUI", "capacity": 24, "numdocksavailable": 1, "numbikesavailable": 22, "mechanical": 14, "ebike": 8, "is_renting": "OUI", "is_returning": "OUI", "duedate": "2024-08-01T08:19:04+00:00", "coordonnees_geo": {"lon": 2.3316738009452824, "lat": 48.875065791004396}, "nom_arrondissement_communes": "Paris", "code_insee_commune": null}, {"stationcode": "21008", "name": "Victor Hugo - Galli\u00e9ni", "is_installed": "OUI", "capacity": 34, "numdocksavailable": 20, "numbikesavailable": 14, "mechanical": 13, "ebike": 1, "is_renting": "OUI", "is_returning": "OUI", "duedate": "2024-08-01T08:19:36+00:00", "coordonnees_geo": {"lon": 2.2460845112800603, "lat": 48.83802015441127}, "nom_arrondissement_communes": "Boulogne-Billancourt", "code_insee_commune": null}, {"stationcode": "17013", "name": "Legendre - Dulong", "is_installed": "OUI", "capacity": 23, "numdocksavailable": 21, "numbikesavailable": 2, "mechanical": 1, "ebike": 1, "is_renting": "OUI", "is_returning": "OUI", "duedate": "2024-08-01T08:14:19+00:00", "coordonnees_geo": {"lon": 2.316423766314984, "lat": 48.885325169402904}, "nom_arrondissement_communes": "Paris", "code_insee_commune": null}]}