{"total_count": 1472, "results": [{"stationcode": "16107", "name": "Benjamin Godard - Victor Hugo", "is_installed": "OUI", "capacity": 0, "numdocksavailable": 32, "numbikesavailable": 2, "mechanical": 0, "ebike": 2, "is_renting": "OUI", "is_returning": "OUI", "duedate": "2025-04-16T08:31:18+00:00", "coordonnees_geo": {"lon": 2.275725, "lat": 48.865983}, "nom_arrondissement_communes": "Paris", "code_insee_commune": "75056", "station_opening_hours": null}, {"stationcode": "40001", "name": "H\u00f4pital Mondor", "is_installed": "OUI", "capacity": 0, "numdocksavailable": 21, "numbikesavailable": 8, "mechanical": 4, "ebike": 4, "is_renting": "OUI", "is_returning": "OUI", "duedate": "2025-04-16T08:33:45+00:00", "coordonnees_geo": {"lon": 2.4537451531298, "lat": 48.798922410229}, "nom_arrondissement_communes": "Cr\u00e9teil", "code_insee_commune": "94028", "station_opening_hours": null}, {"stationcode": "32017", "name": "Basilique", "is_installed": "OUI", "capacity": 22, "numdocksavailable": 3, "numbikesavailable": 17, "mechanical": 12, "ebike": 5, "is_renting": "OUI", "is_returning": "OUI", "duedate": "2025-04-16T08:34:55+00:00", "coordonnees_geo": {"lon": 2.3588666820200914, "lat": 48.93626891059109}, "nom_arrondissement_communes": "Saint-Denis", "code_insee_commune": "93066", "station_opening_hours": null}, {"stationcode": "8026", "name": "Messine - Place Du P\u00e9rou", "is_installed": "OUI", "capacity": 0, "numdocksavailable": 3, "numbikesavailable": 8, "mechanical": 6, "ebike": 2, "is_renting": "OUI", "is_returning": "OUI", "duedate": "2025-04-16T08:38:24+00:00", "coordonnees_geo": {"lon": 2.315508019010038, "lat": 48.875448033960744}, "nom_arrondissement_communes": "Paris", "code_insee_commune": "75056", "station_opening_hours": null}, {"stationcode": "13007", "name": "Le Brun - Gobelins", "is_installed": "OUI", "capacity": 0, "numdocksavailable": 44, "numbikesavailable": 4, "mechanical": 1, "ebike": 3, "is_renting": "OUI", "is_returning": "OUI", "duedate": "2025-04-16T08:37:13+00:00", "coordonnees_geo": {"lon": 2.3534681351338, "lat": 48.835092787824}, "nom_arrondissement_communes": "Paris", "code_insee_commune": "75056", "station_opening_hours": null}, {"stationcode": "6003", "name": "Saint-Sulpice", "is_installed": "OUI", "capacity": 0, "numdocksavailable": 11, "numbikesavailable": 7, "mechanical": 4, "ebike": 3, "is_renting": "OUI", "is_returning": "OUI", "duedate": "2025-04-16T08:36:46+00:00", "coordonnees_geo": {"lon": 2.3308077827095985, "lat": 48.85165383178419}, "nom_arrondissement_communes": "Paris", "code_insee_commune": "75056", "station_opening_hours": null}, {"stationcode": "5110", "name": "Lac\u00e9p\u00e8de - Monge", "is_installed": "OUI", "capacity": 0, "numdocksavailable": 21, "numbikesavailable": 1, "mechanical": 0, "ebike": 1, "is_renting": "OUI", "is_returning": "OUI", "duedate": "2025-04-16T08:37:58+00:00", "coordonnees_geo": {"lon": 2.3519663885235786, "lat": 48.84389286531899}, "nom_arrondissement_communes": "Paris", "code_insee_commune": "75056", "station_opening_hours": null}, {"stationcode": "33006", "name": "Andr\u00e9 Karman - R\u00e9publique", "is_installed": "OUI", "capacity": 0, "numdocksavailable": 11, "numbikesavailable": 19, "mechanical": 12, "ebike": 7, "is_renting": "OUI", "is_returning": "OUI", "duedate": "2025-04-16T08:34:05+00:00", "coordonnees_geo": {"lon": 2.3851355910301213, "lat": 48.91039875761846}, "nom_arrondissement_communes": "Aubervilliers", "code_insee_commune": "93001", "station_opening_hours": null}, {"stationcode": "42016", "name": "Pierre et Marie Curie - Maurice Thorez", "is_installed": "OUI", "capacity": 0, "numdocksavailable": 24, "numbikesavailable": 3, "mechanical": 1, "ebike": 2, "is_renting": "OUI", "is_returning": "OUI", "duedate": "2025-04-16T08:35:25+00:00", "coordonnees_geo": {"lon": 2.376804985105991, "lat": 48.81580226360801}, "nom_arrondissement_communes": "Ivry-sur-Seine", "code_insee_commune": "94041", "station_opening_hours": null}, {"stationcode": "40011", "name": "Bas du Mont-Mesly", "is_installed": "OUI", "capacity": 0, "numdocksavailable": 22, "numbikesavailable": 5, "mechanical": 2, "ebike": 3, "is_renting": "OUI", "is_returning": "OUI", "duedate": "2025-04-16T08:38:46+00:00", "coordonnees_geo": {"lon": 2.4609763908985, "lat": 48.779035118572}, "nom_arrondissement_communes": "Cr\u00e9teil", "code_insee_commune": "94028", "station_opening_hours": null}, {"stationcode": "32304", "name": "Charcot - Benfleet", "is_installed": "OUI", "capacity": 0, "numdocksavailable": 24, "numbikesavailable": 3, "mechanical": 0, "ebike": 3, "is_renting": "NON", "is_returning": "NON", "duedate": "2025-04-16T08:29:44+00:00", "coordonnees_geo": {"lon": 2.440523876268, "lat": 48.878370277021}, "nom_arrondissement_communes": "Romainville", "code_insee_commune": "93063", "station_opening_hours": null}, {"stationcode": "7003", "name": "Square Boucicaut", "is_installed": "OUI", "capacity": 0, "numdocksavailable": 23, "numbikesavailable": 35, "mechanical": 25, "ebike": 10, "is_renting": "OUI", "is_returning": "OUI", "duedate": "2025-04-16T08:38:31+00:00", "coordonnees_geo": {"lon": 2.325061820447445, "lat": 48.851296433665276}, "nom_arrondissement_communes": "Paris", "code_insee_commune": "75056", "station_opening_hours": null}, {"stationcode": "11025", "name": "Froment - Br\u00e9guet", "is_installed": "OUI", "capacity": 0, "numdocksavailable": 12, "numbikesavailable": 29, "mechanical": 24, "ebike": 5, "is_renting": "OUI", "is_returning": "OUI", "duedate": "2025-04-16T08:38:16+00:00", "coordonnees_geo": {"lon": 2.37289470306807, "lat": 48.8570414504784}, "nom_arrondissement_communes": "Paris", "code_insee_commune": "75056", "station_opening_hours": null}, {"stationcode": "15047", "name": "Morillons - Dantzig", "is_installed": "OUI", "capacity": 0, "numdocksavailable": 48, "numbikesavailable": 3, "mechanical": 2, "ebike": 1, "is_renting": "OUI", "is_returning": "OUI", "duedate": "2025-04-16T08:36:02+00:00", "coordonnees_geo": {"lon": 2.299380004405976, "lat": 48.83310149953933}, "nom_arrondissement_communes": "Paris", "code_insee_commune": "75056", "station_opening_hours": null}, {"stationcode": "17026", "name": "Jouffroy d'Abbans - Wagram", "is_installed": "OUI", "capacity": 0, "numdocksavailable": 28, "numbikesavailable": 10, "mechanical": 6, "ebike": 4, "is_renting": "OUI", "is_returning": "OUI", "duedate": "2025-04-16T08:36:39+00:00", "coordonnees_geo": {"lon": 2.301132157445, "lat": 48.881973298352}, "nom_arrondissement_communes": "Paris", "code_insee_commune": "75056", "station_opening_hours": null}, {"stationcode": "6021", "name": "Beaux-Arts - Bonaparte", "is_installed": "OUI", "capacity": 0, "numdocksavailable": 2, "numbikesavailable": 16, "mechanical": 6, "ebike": 10, "is_renting": "OUI", "is_returning": "OUI", "duedate": "2025-04-16T08:38:54+00:00", "coordonnees_geo": {"lon": 2.3348518833518, "lat": 48.856451985396}, "nom_arrondissement_communes": "Paris", "code_insee_commune": "75056", "station_opening_hours": null}, {"stationcode": "15202", "name": "Bracion - P\u00e9riph\u00e9rique", "is_installed": "OUI", "capacity": 0, "numdocksavailable": 25, "numbikesavailable": 4, "mechanical": 2, "ebike": 2, "is_renting": "OUI", "is_returning": "OUI", "duedate": "2025-04-16T08:38:58+00:00", "coordonnees_geo": {"lon": 2.3004549373748, "lat": 48.826103771275}, "nom_arrondissement_communes": "Paris", "code_insee_commune": "75056", "station_opening_hours": null}, {"stationcode": "8050", "name": "Bo\u00e9tie - Ponthieu", "is_installed": "OUI", "capacity": 1, "numdocksavailable": 1, "numbikesavailable": 41, "mechanical": 14, "ebike": 27, "is_renting": "OUI", "is_returning": "OUI", "duedate": "2025-04-16T08:36:31+00:00", "coordonnees_geo": {"lon": 2.3076787590981, "lat": 48.871417284355}, "nom_arrondissement_communes": "Paris", "code_insee_commune": "75056", "station_opening_hours": null}, {"stationcode": "31024", "name": "Romainville - Vaillant-Couturier", "is_installed": "OUI", "capacity": 0, "numdocksavailable": 31, "numbikesavailable": 7, "mechanical": 4, "ebike": 3, "is_renting": "OUI", "is_returning": "OUI", "duedate": "2025-04-16T08:37:43+00:00", "coordonnees_geo": {"lon": 2.446748, "lat": 48.86785}, "nom_arrondissement_communes": "Montreuil", "code_insee_commune": "93048", "station_opening_hours": null}, {"stationcode": "17044", "name": "Porte de Saint-Ouen - Bessi\u00e8res", "is_installed": "OUI", "capacity": 0, "numdocksavailable": 39, "numbikesavailable": 3, "mechanical": 2, "ebike": 1, "is_renting": "OUI", "is_returning": "OUI", "duedate": "2025-04-16T08:38:22+00:00", "coordonnees_geo": {"lon": 2.32851451022192, "lat": 48.89792240854517}, "nom_arrondissement_communes": "Paris", "code_insee_commune": "75056", "station_opening_hours": null}, {"stationcode": "19033", "name": "Cambrai - Benjamin Constant", "is_installed": "OUI", "capacity": 1, "numdocksavailable": 37, "numbikesavailable": 5, "mechanical": 3, "ebike": 2, "is_renting": "OUI", "is_returning": "OUI", "duedate": "2025-04-16T08:37:21+00:00", "coordonnees_geo": {"lon": 2.381133802246315, "lat": 48.89594736851349}, "nom_arrondissement_communes": "Paris", "code_insee_commune": "75056", "station_opening_hours": null}, {"stationcode": "17025", "name": "Chazelles - Courcelles", "is_installed": "OUI", "capacity": 0, "numdocksavailable": 28, "numbikesavailable": 7, "mechanical": 5, "ebike": 2, "is_renting": "OUI", "is_returning": "OUI", "duedate": "2025-04-16T08:38:40+00:00", "coordonnees_geo": {"lon": 2.3034455627202988, "lat": 48.879406604954}, "nom_arrondissement_communes": "Paris", "code_insee_commune": "75056", "station_opening_hours": null}, {"stationcode": "20143", "name": "Ramponeau - Belleville", "is_installed": "OUI", "capacity": 0, "numdocksavailable": 42, "numbikesavailable": 0, "mechanical": 0, "ebike": 0, "is_renting": "OUI", "is_returning": "OUI", "duedate": "2025-04-16T08:30:41+00:00", "coordonnees_geo": {"lon": 2.379056852114, "lat": 48.871031137596}, "nom_arrondissement_communes": "Paris", "code_insee_commune": "75056", "station_opening_hours": null}, {"stationcode": "43002", "name": "Lagny - Victor Basch", "is_installed": "OUI", "capacity": 0, "numdocksavailable": 11, "numbikesavailable": 14, "mechanical": 7, "ebike": 7, "is_renting": "OUI", "is_returning": "OUI", "duedate": "2025-04-16T08:37:05+00:00", "coordonnees_geo": {"lon": 2.426325418925233, "lat": 48.84884147189881}, "nom_arrondissement_communes": "Vincennes", "code_insee_commune": "94080", "station_opening_hours": null}, {"stationcode": "22207", "name": "Rond-point du Dr Albert Schweitzer", "is_installed": "OUI", "capacity": 0, "numdocksavailable": 14, "numbikesavailable": 8, "mechanical": 8, "ebike": 0, "is_renting": "OUI", "is_returning": "OUI", "duedate": "2025-04-16T08:34:57+00:00", "coordonnees_geo": {"lon": 2.3143940046429634, "lat": 48.78980918988166}, "nom_arrondissement_communes": "Bagneux", "code_insee_commune": "92007", "station_opening_hours": null}, {"stationcode": "31028", "name": "Raspail Barb\u00e8s", "is_installed": "OUI", "capacity": 0, "numdocksavailable": 22, "numbikesavailable": 6, "mechanical": 0, "ebike": 6, "is_renting": "OUI", "is_returning": "OUI", "duedate": "2025-04-16T08:35:21+00:00", "coordonnees_geo": {"lon": 2.4247387, "lat": 48.8529945}, "nom_arrondissement_communes": "Montreuil", "code_insee_commune": "93048", "station_opening_hours": null}, {"stationcode": "17048", "name": "De Toqueville - Terrasse", "is_installed": "OUI", "capacity": 0, "numdocksavailable": 23, "numbikesavailable": 5, "mechanical": 3, "ebike": 2, "is_renting": "OUI", "is_returning": "OUI", "duedate": "2025-04-16T08:36:19+00:00", "coordonnees_geo": {"lon": 2.314002, "lat": 48.882428}, "nom_arrondissement_communes": "Paris", "code_insee_commune": "75056", "station_opening_hours": null}, {"stationcode": "44017", "name": "Jules Guesde - Pont du Port \u00e0 l'Anglais", "is_installed": "OUI", "capacity": 0, "numdocksavailable": 8, "numbikesavailable": 20, "mechanical": 16, "ebike": 4, "is_renting": "OUI", "is_returning": "OUI", "duedate": "2025-04-16T08:38:20+00:00", "coordonnees_geo": {"lon": 2.417212128639221, "lat": 48.79628807093802}, "nom_arrondissement_communes": "Vitry-sur-Seine", "code_insee_commune": "94081", "station_opening_hours": null}, {"stationcode": "44010", "name": "8 Mai 1945 - 10 Juillet 1940", "is_installed": "OUI", "capacity": 0, "numdocksavailable": 13, "numbikesavailable": 17, "mechanical": 10, "ebike": 7, "is_renting": "OUI", "is_returning": "OUI", "duedate": "2025-04-16T08:37:33+00:00", "coordonnees_geo": {"lon": 2.3979035764933, "lat": 48.784567029674}, "nom_arrondissement_communes": "Vitry-sur-Seine", "code_insee_commune": "94081", "station_opening_hours": null}, {"stationcode": "16118", "name": "Michel-Ange - Parent de Rosan", "is_installed": "OUI", "capacity": 0, "numdocksavailable": 13, "numbikesavailable": 11, "mechanical": 8, "ebike": 3, "is_renting": "OUI", "is_returning": "OUI", "duedate": "2025-04-16T08:37:58+00:00", "coordonnees_geo": {"lon": 2.2584119439125065, "lat": 48.840579923690115}, "nom_arrondissement_communes": "Paris", "code_insee_commune": "75056", "station_opening_hours": null}, {"stationcode": "9008", "name": "Tour d'Auvergne - Rodier", "is_installed": "OUI", "capacity": 0, "numdocksavailable": 16, "numbikesavailable": 1, "mechanical": 0, "ebike": 1, "is_renting": "OUI", "is_returning": "OUI", "duedate": "2025-04-16T08:38:43+00:00", "coordonnees_geo": {"lon": 2.343698, "lat": 48.879161}, "nom_arrondissement_communes": "Paris", "code_insee_commune": "75056", "station_opening_hours": null}, {"stationcode": "8103", "name": "Artois - Berri", "is_installed": "OUI", "capacity": 0, "numdocksavailable": 1, "numbikesavailable": 22, "mechanical": 6, "ebike": 16, "is_renting": "OUI", "is_returning": "OUI", "duedate": "2025-04-16T08:38:46+00:00", "coordonnees_geo": {"lon": 2.3064258322119713, "lat": 48.87393521240818}, "nom_arrondissement_communes": "Paris", "code_insee_commune": "75056", "station_opening_hours": null}, {"stationcode": "8048", "name": "Marceau - Chaillot", "is_installed": "OUI", "capacity": 0, "numdocksavailable": 9, "numbikesavailable": 12, "mechanical": 0, "ebike": 12, "is_renting": "OUI", "is_returning": "OUI", "duedate": "2025-04-16T08:33:16+00:00", "coordonnees_geo": {"lon": 2.2986030816809, "lat": 48.868834023334}, "nom_arrondissement_communes": "Paris", "code_insee_commune": "75056", "station_opening_hours": null}, {"stationcode": "40016", "name": "Sarrazins - Saussure", "is_installed": "NON", "capacity": 0, "numdocksavailable": 22, "numbikesavailable": 0, "mechanical": 0, "ebike": 0, "is_renting": "NON", "is_returning": "NON", "duedate": "2025-02-05T10:35:03+00:00", "coordonnees_geo": {"lon": 2.4717841148376, "lat": 48.769626617432}, "nom_arrondissement_communes": "Cr\u00e9teil", "code_insee_commune": "94028", "station_opening_hours": null}, {"stationcode": "18111", "name": "F\u00e9lix Ziem - Armand Gauthier", "is_installed": "OUI", "capacity": 0, "numdocksavailable": 20, "numbikesavailable": 3, "mechanical": 0, "ebike": 3, "is_renting": "OUI", "is_returning": "OUI", "duedate": "2025-04-16T08:32:01+00:00", "coordonnees_geo": {"lon": 2.333393658804396, "lat": 48.88949630486821}, "nom_arrondissement_communes": "Paris", "code_insee_commune": "75056", "station_opening_hours": null}, {"stationcode": "16110", "name": "Octave Feuillet - Alb\u00e9ric Magnard", "is_installed": "OUI", "capacity": 0, "numdocksavailable": 10, "numbikesavailable": 10, "mechanical": 3, "ebike": 7, "is_renting": "OUI", "is_returning": "OUI", "duedate": "2025-04-16T08:33:55+00:00", "coordonnees_geo": {"lon": 2.2730283066630363, "lat": 48.86106902949534}, "nom_arrondissement_communes": "Paris", "code_insee_commune": "75056", "station_opening_hours": null}, {"stationcode": "1001", "name": "Quai de l'Horloge - Pont Neuf", "is_installed": "OUI", "capacity": 0, "numdocksavailable": 2, "numbikesavailable": 12, "mechanical": 6, "ebike": 6, "is_renting": "OUI", "is_returning": "OUI", "duedate": "2025-04-16T08:36:51+00:00", "coordonnees_geo": {"lon": 2.3417982839439, "lat": 48.857058739111}, "nom_arrondissement_communes": "Paris", "code_insee_commune": "75056", "station_opening_hours": null}, {"stationcode": "5022", "name": "Boulangers - Cardinal Lemoine", "is_installed": "OUI", "capacity": 0, "numdocksavailable": 18, "numbikesavailable": 2, "mechanical": 0, "ebike": 2, "is_renting": "OUI", "is_returning": "OUI", "duedate": "2025-04-16T08:38:22+00:00", "coordonnees_geo": {"lon": 2.3521495, "lat": 48.8462904}, "nom_arrondissement_communes": "Paris", "code_insee_commune": "75056", "station_opening_hours": null}, {"stationcode": "21328", "name": "Verger - Colonel Guichard", "is_installed": "OUI", "capacity": 0, "numdocksavailable": 25, "numbikesavailable": 3, "mechanical": 0, "ebike": 3, "is_renting": "OUI", "is_returning": "OUI", "duedate": "2025-04-16T08:35:12+00:00", "coordonnees_geo": {"lon": 2.2670380088932, "lat": 48.816376985087}, "nom_arrondissement_communes": "Issy-les-Moulineaux", "code_insee_commune": "92040", "station_opening_hours": null}, {"stationcode": "13104", "name": "Gare d'Austerlitz - Quai Saint-Bernard", "is_installed": "OUI", "capacity": 0, "numdocksavailable": 0, "numbikesavailable": 26, "mechanical": 20, "ebike": 6, "is_renting": "OUI", "is_returning": "OUI", "duedate": "2025-04-16T08:38:54+00:00", "coordonnees_geo": {"lon": 2.3657163977623, "lat": 48.84369030864}, "nom_arrondissement_communes": "Paris", "code_insee_commune": "75056", "station_opening_hours": null}, {"stationcode": "9038", "name": "Douai - Bruxelles", "is_installed": "OUI", "capacity": 0, "numdocksavailable": 22, "numbikesavailable": 1, "mechanical": 1, "ebike": 0, "is_renting": "OUI", "is_returning": "OUI", "duedate": "2025-04-16T08:37:51+00:00", "coordonnees_geo": {"lon": 2.3308449949028507, "lat": 48.88320784122797}, "nom_arrondissement_communes": "Paris", "code_insee_commune": "75056", "station_opening_hours": null}, {"stationcode": "8009", "name": "Gare Saint-Lazare - Isly", "is_installed": "OUI", "capacity": 0, "numdocksavailable": 21, "numbikesavailable": 6, "mechanical": 5, "ebike": 1, "is_renting": "OUI", "is_returning": "OUI", "duedate": "2025-04-16T08:37:41+00:00", "coordonnees_geo": {"lon": 2.326515804784655, "lat": 48.874777677621296}, "nom_arrondissement_communes": "Paris", "code_insee_commune": "75056", "station_opening_hours": null}, {"stationcode": "31103", "name": "Gare Rosny-Bois-Perrier", "is_installed": "OUI", "capacity": 0, "numdocksavailable": 23, "numbikesavailable": 11, "mechanical": 6, "ebike": 5, "is_renting": "OUI", "is_returning": "OUI", "duedate": "2025-04-16T08:38:40+00:00", "coordonnees_geo": {"lon": 2.480436824262142, "lat": 48.88115023337061}, "nom_arrondissement_communes": "Rosny-sous-Bois", "code_insee_commune": "93064", "station_opening_hours": null}, {"stationcode": "5005", "name": "Gay Lussac - Saint-Jacques", "is_installed": "OUI", "capacity": 0, "numdocksavailable": 11, "numbikesavailable": 13, "mechanical": 5, "ebike": 8, "is_renting": "OUI", "is_returning": "OUI", "duedate": "2025-04-16T08:37:35+00:00", "coordonnees_geo": {"lon": 2.3419239448664, "lat": 48.844730256132}, "nom_arrondissement_communes": "Paris", "code_insee_commune": "75056", "station_opening_hours": null}, {"stationcode": "8053", "name": "Place Georges Guillaumin", "is_installed": "OUI", "capacity": 0, "numdocksavailable": 6, "numbikesavailable": 22, "mechanical": 3, "ebike": 19, "is_renting": "OUI", "is_returning": "OUI", "duedate": "2025-04-16T08:38:13+00:00", "coordonnees_geo": {"lon": 2.301771435326, "lat": 48.874750203957}, "nom_arrondissement_communes": "Paris", "code_insee_commune": "75056", "station_opening_hours": null}, {"stationcode": "31706", "name": "Ch\u00e2teau - R\u00e9publique", "is_installed": "OUI", "capacity": 0, "numdocksavailable": 13, "numbikesavailable": 9, "mechanical": 5, "ebike": 4, "is_renting": "OUI", "is_returning": "OUI", "duedate": "2025-04-16T08:37:22+00:00", "coordonnees_geo": {"lon": 2.4155035614967, "lat": 48.862923800596}, "nom_arrondissement_communes": "Bagnolet", "code_insee_commune": "93006", "station_opening_hours": null}, {"stationcode": "22409", "name": "Henri Barbusse - Stalingrad", "is_installed": "OUI", "capacity": 0, "numdocksavailable": 11, "numbikesavailable": 4, "mechanical": 1, "ebike": 3, "is_renting": "OUI", "is_returning": "OUI", "duedate": "2025-04-16T08:39:00+00:00", "coordonnees_geo": {"lon": 2.2872862592339516, "lat": 48.814183748660554}, "nom_arrondissement_communes": "Malakoff", "code_insee_commune": "92046", "station_opening_hours": null}, {"stationcode": "19003", "name": "Quai de la Seine", "is_installed": "OUI", "capacity": 0, "numdocksavailable": 22, "numbikesavailable": 0, "mechanical": 0, "ebike": 0, "is_renting": "OUI", "is_returning": "OUI", "duedate": "2025-04-16T08:38:00+00:00", "coordonnees_geo": {"lon": 2.3703941702842717, "lat": 48.884492238407525}, "nom_arrondissement_communes": "Paris", "code_insee_commune": "75056", "station_opening_hours": null}, {"stationcode": "16026", "name": "Ranelagh - Mozart", "is_installed": "OUI", "capacity": 0, "numdocksavailable": 6, "numbikesavailable": 2, "mechanical": 1, "ebike": 1, "is_renting": "OUI", "is_returning": "OUI", "duedate": "2025-04-16T08:38:58+00:00", "coordonnees_geo": {"lon": 2.2704418, "lat": 48.8554439}, "nom_arrondissement_communes": "Paris", "code_insee_commune": "75056", "station_opening_hours": null}, {"stationcode": "10107", "name": "Gare du Nord - H\u00f4pital Lariboisi\u00e8re", "is_installed": "OUI", "capacity": 0, "numdocksavailable": 46, "numbikesavailable": 1, "mechanical": 0, "ebike": 1, "is_renting": "OUI", "is_returning": "OUI", "duedate": "2025-04-16T08:37:23+00:00", "coordonnees_geo": {"lon": 2.352339, "lat": 48.881949}, "nom_arrondissement_communes": "Paris", "code_insee_commune": "75056", "station_opening_hours": null}, {"stationcode": "17043", "name": "Belidor - Gouvion-Saint-Cyr", "is_installed": "OUI", "capacity": 26, "numdocksavailable": 27, "numbikesavailable": 10, "mechanical": 8, "ebike": 2, "is_renting": "OUI", "is_returning": "OUI", "duedate": "2025-04-16T08:36:37+00:00", "coordonnees_geo": {"lon": 2.2854680567979813, "lat": 48.88022154052015}, "nom_arrondissement_communes": "Paris", "code_insee_commune": "75056", "station_opening_hours": null}, {"stationcode": "19026", "name": "Place de Rhin et Danube", "is_installed": "OUI", "capacity": 0, "numdocksavailable": 14, "numbikesavailable": 1, "mechanical": 0, "ebike": 1, "is_renting": "OUI", "is_returning": "OUI", "duedate": "2025-04-16T08:38:38+00:00", "coordonnees_geo": {"lon": 2.392586767673493, "lat": 48.88192765861766}, "nom_arrondissement_communes": "Paris", "code_insee_commune": "75056", "station_opening_hours": null}, {"stationcode": "16039", "name": "Exelmans - Versailles", "is_installed": "OUI", "capacity": 0, "numdocksavailable": 21, "numbikesavailable": 26, "mechanical": 24, "ebike": 2, "is_renting": "OUI", "is_returning": "OUI", "duedate": "2025-04-16T08:35:09+00:00", "coordonnees_geo": {"lon": 2.264390252530575, "lat": 48.84097491091973}, "nom_arrondissement_communes": "Paris", "code_insee_commune": "75056", "station_opening_hours": null}, {"stationcode": "11023", "name": "Saint-Maur - Roquette", "is_installed": "OUI", "capacity": 0, "numdocksavailable": 31, "numbikesavailable": 13, "mechanical": 13, "ebike": 0, "is_renting": "OUI", "is_returning": "OUI", "duedate": "2025-04-16T08:38:55+00:00", "coordonnees_geo": {"lon": 2.383553994571467, "lat": 48.858688774062955}, "nom_arrondissement_communes": "Paris", "code_insee_commune": "75056", "station_opening_hours": null}, {"stationcode": "11002", "name": "Roquette - Thi\u00e9r\u00e9", "is_installed": "OUI", "capacity": 0, "numdocksavailable": 13, "numbikesavailable": 8, "mechanical": 4, "ebike": 4, "is_renting": "OUI", "is_returning": "OUI", "duedate": "2025-04-16T08:37:12+00:00", "coordonnees_geo": {"lon": 2.3733686318721463, "lat": 48.85507930579506}, "nom_arrondissement_communes": "Paris", "code_insee_commune": "75056", "station_opening_hours": null}, {"stationcode": "18107", "name": "Chartres - La Charbonni\u00e8re", "is_installed": "OUI", "capacity": 0, "numdocksavailable": 30, "numbikesavailable": 1, "mechanical": 0, "ebike": 1, "is_renting": "OUI", "is_returning": "OUI", "duedate": "2025-04-16T08:36:48+00:00", "coordonnees_geo": {"lon": 2.3534657, "lat": 48.8847601}, "nom_arrondissement_communes": "Paris", "code_insee_commune": "75056", "station_opening_hours": null}, {"stationcode": "6006", "name": "Notre-Dame-des-Champs - Stanislas", "is_installed": "OUI", "capacity": 0, "numdocksavailable": 4, "numbikesavailable": 15, "mechanical": 10, "ebike": 5, "is_renting": "OUI", "is_returning": "OUI", "duedate": "2025-04-16T08:35:58+00:00", "coordonnees_geo": {"lon": 2.329337755887181, "lat": 48.84479928858768}, "nom_arrondissement_communes": "Paris", "code_insee_commune": "75056", "station_opening_hours": null}, {"stationcode": "46002", "name": "Rouget de Lisle", "is_installed": "OUI", "capacity": 0, "numdocksavailable": 18, "numbikesavailable": 17, "mechanical": 10, "ebike": 7, "is_renting": "OUI", "is_returning": "OUI", "duedate": "2025-04-16T08:38:35+00:00", "coordonnees_geo": {"lon": 2.4071189761161804, "lat": 48.764615483395254}, "nom_arrondissement_communes": "Choisy-le-Roi", "code_insee_commune": "94022", "station_opening_hours": null}, {"stationcode": "10016", "name": "R\u00e9collets - Square Villemin", "is_installed": "OUI", "capacity": 0, "numdocksavailable": 15, "numbikesavailable": 2, "mechanical": 2, "ebike": 0, "is_renting": "OUI", "is_returning": "OUI", "duedate": "2025-04-16T08:31:30+00:00", "coordonnees_geo": {"lon": 2.359801238597928, "lat": 48.875034655883944}, "nom_arrondissement_communes": "Paris", "code_insee_commune": "75056", "station_opening_hours": null}, {"stationcode": "41302", "name": "Charles de Gaulle - Beaut\u00e9", "is_installed": "OUI", "capacity": 0, "numdocksavailable": 48, "numbikesavailable": 1, "mechanical": 0, "ebike": 1, "is_renting": "OUI", "is_returning": "OUI", "duedate": "2025-04-16T08:35:13+00:00", "coordonnees_geo": {"lon": 2.479562651149885, "lat": 48.83649602312711}, "nom_arrondissement_communes": "Nogent-sur-Marne", "code_insee_commune": "94052", "station_opening_hours": null}, {"stationcode": "14020", "name": "Cimeti\u00e8re de Montrouge", "is_installed": "OUI", "capacity": 0, "numdocksavailable": 54, "numbikesavailable": 2, "mechanical": 0, "ebike": 2, "is_renting": "OUI", "is_returning": "OUI", "duedate": "2025-04-16T08:36:36+00:00", "coordonnees_geo": {"lon": 2.3215785772007, "lat": 48.821466904768}, "nom_arrondissement_communes": "Paris", "code_insee_commune": "75056", "station_opening_hours": null}, {"stationcode": "33017", "name": "Anatole France - President Roosevelt", "is_installed": "OUI", "capacity": 0, "numdocksavailable": 21, "numbikesavailable": 7, "mechanical": 5, "ebike": 2, "is_renting": "OUI", "is_returning": "OUI", "duedate": "2025-04-16T08:33:49+00:00", "coordonnees_geo": {"lon": 2.3814103, "lat": 48.9155156}, "nom_arrondissement_communes": "Aubervilliers", "code_insee_commune": "93001", "station_opening_hours": null}, {"stationcode": "33102", "name": "Gabriel P\u00e9ri - Francisco Ferrer", "is_installed": "OUI", "capacity": 0, "numdocksavailable": 14, "numbikesavailable": 3, "mechanical": 2, "ebike": 1, "is_renting": "OUI", "is_returning": "OUI", "duedate": "2025-04-16T08:37:02+00:00", "coordonnees_geo": {"lon": 2.407338917255402, "lat": 48.88633710236977}, "nom_arrondissement_communes": "Le Pr\u00e9-Saint-Gervais", "code_insee_commune": "93061", "station_opening_hours": null}, {"stationcode": "42706", "name": "Roger Salengro - Fontainebleau", "is_installed": "OUI", "capacity": 0, "numdocksavailable": 16, "numbikesavailable": 9, "mechanical": 0, "ebike": 9, "is_renting": "OUI", "is_returning": "OUI", "duedate": "2025-04-16T08:38:46+00:00", "coordonnees_geo": {"lon": 2.3611663654447, "lat": 48.814548697325}, "nom_arrondissement_communes": "Le Kremlin-Bic\u00eatre", "code_insee_commune": "94043", "station_opening_hours": null}, {"stationcode": "21212", "name": "Marne - Germain Dardan", "is_installed": "OUI", "capacity": 0, "numdocksavailable": 17, "numbikesavailable": 5, "mechanical": 1, "ebike": 4, "is_renting": "OUI", "is_returning": "OUI", "duedate": "2025-04-16T08:38:13+00:00", "coordonnees_geo": {"lon": 2.3035024699104, "lat": 48.81217465201}, "nom_arrondissement_communes": "Montrouge", "code_insee_commune": "92049", "station_opening_hours": null}, {"stationcode": "18003", "name": "Cimeti\u00e8re de Montmartre", "is_installed": "OUI", "capacity": 0, "numdocksavailable": 39, "numbikesavailable": 1, "mechanical": 0, "ebike": 1, "is_renting": "OUI", "is_returning": "OUI", "duedate": "2025-04-16T08:32:25+00:00", "coordonnees_geo": {"lon": 2.3328901827335, "lat": 48.886472466142}, "nom_arrondissement_communes": "Paris", "code_insee_commune": "75056", "station_opening_hours": null}, {"stationcode": "11113", "name": "Richard Lenoir - Republique", "is_installed": "OUI", "capacity": 0, "numdocksavailable": 45, "numbikesavailable": 11, "mechanical": 7, "ebike": 4, "is_renting": "OUI", "is_returning": "OUI", "duedate": "2025-04-16T08:38:25+00:00", "coordonnees_geo": {"lon": 2.3692541, "lat": 48.8667175}, "nom_arrondissement_communes": "Paris", "code_insee_commune": "75056", "station_opening_hours": null}, {"stationcode": "15104", "name": "H\u00f4pital Europ\u00e9en Georges Pompidou", "is_installed": "OUI", "capacity": 0, "numdocksavailable": 5, "numbikesavailable": 58, "mechanical": 51, "ebike": 7, "is_renting": "OUI", "is_returning": "OUI", "duedate": "2025-04-16T08:38:19+00:00", "coordonnees_geo": {"lon": 2.2753742337227, "lat": 48.837695319163}, "nom_arrondissement_communes": "Paris", "code_insee_commune": "75056", "station_opening_hours": null}, {"stationcode": "14003", "name": "Schoelcher - Raspail", "is_installed": "OUI", "capacity": 0, "numdocksavailable": 36, "numbikesavailable": 11, "mechanical": 7, "ebike": 4, "is_renting": "OUI", "is_returning": "OUI", "duedate": "2025-04-16T08:33:18+00:00", "coordonnees_geo": {"lon": 2.3312794080411474, "lat": 48.83681733526843}, "nom_arrondissement_communes": "Paris", "code_insee_commune": "75056", "station_opening_hours": null}, {"stationcode": "19101", "name": "Square Simon Bolivar", "is_installed": "OUI", "capacity": 3, "numdocksavailable": 18, "numbikesavailable": 3, "mechanical": 1, "ebike": 2, "is_renting": "OUI", "is_returning": "OUI", "duedate": "2025-04-16T08:36:18+00:00", "coordonnees_geo": {"lon": 2.3826304078102, "lat": 48.875089888322}, "nom_arrondissement_communes": "Paris", "code_insee_commune": "75056", "station_opening_hours": null}, {"stationcode": "12114", "name": "Victor Hugo - Jeanne Jugan", "is_installed": "OUI", "capacity": 0, "numdocksavailable": 23, "numbikesavailable": 5, "mechanical": 2, "ebike": 3, "is_renting": "OUI", "is_returning": "OUI", "duedate": "2025-04-16T08:38:41+00:00", "coordonnees_geo": {"lon": 2.415081394834419, "lat": 48.843949064031825}, "nom_arrondissement_communes": "Paris", "code_insee_commune": "75056", "station_opening_hours": null}, {"stationcode": "41209", "name": "Cimeti\u00e8re de Fontenay-sous-Bois", "is_installed": "OUI", "capacity": 0, "numdocksavailable": 14, "numbikesavailable": 1, "mechanical": 0, "ebike": 1, "is_renting": "OUI", "is_returning": "OUI", "duedate": "2025-04-16T08:38:24+00:00", "coordonnees_geo": {"lon": 2.4787822365760808, "lat": 48.84706173362218}, "nom_arrondissement_communes": "Fontenay-sous-Bois", "code_insee_commune": "94033", "station_opening_hours": null}, {"stationcode": "21312", "name": "Lucie Aubrac - Fort", "is_installed": "OUI", "capacity": 0, "numdocksavailable": 29, "numbikesavailable": 0, "mechanical": 0, "ebike": 0, "is_renting": "OUI", "is_returning": "OUI", "duedate": "2025-04-16T08:38:22+00:00", "coordonnees_geo": {"lon": 2.271184623241425, "lat": 48.818144834008976}, "nom_arrondissement_communes": "Issy-les-Moulineaux", "code_insee_commune": "92040", "station_opening_hours": null}, {"stationcode": "13001", "name": "Port-Royal - H\u00f4pital du Val-de-Gr\u00e2ce", "is_installed": "OUI", "capacity": 0, "numdocksavailable": 15, "numbikesavailable": 3, "mechanical": 0, "ebike": 3, "is_renting": "OUI", "is_returning": "OUI", "duedate": "2025-04-16T08:32:51+00:00", "coordonnees_geo": {"lon": 2.3448138346607, "lat": 48.837668272811}, "nom_arrondissement_communes": "Paris", "code_insee_commune": "75056", "station_opening_hours": null}, {"stationcode": "18028", "name": "Championnet - Vauvenargues", "is_installed": "OUI", "capacity": 0, "numdocksavailable": 26, "numbikesavailable": 4, "mechanical": 1, "ebike": 3, "is_renting": "OUI", "is_returning": "OUI", "duedate": "2025-04-16T08:33:22+00:00", "coordonnees_geo": {"lon": 2.3319872841238976, "lat": 48.89401874744574}, "nom_arrondissement_communes": "Paris", "code_insee_commune": "75056", "station_opening_hours": null}, {"stationcode": "15054", "name": "Lecourbe - Jean Maridor", "is_installed": "OUI", "capacity": 0, "numdocksavailable": 15, "numbikesavailable": 4, "mechanical": 1, "ebike": 3, "is_renting": "OUI", "is_returning": "OUI", "duedate": "2025-04-16T08:33:18+00:00", "coordonnees_geo": {"lon": 2.2877392172813416, "lat": 48.83796366147599}, "nom_arrondissement_communes": "Paris", "code_insee_commune": "75056", "station_opening_hours": null}, {"stationcode": "5124", "name": "Erasme - Ulm", "is_installed": "OUI", "capacity": 0, "numdocksavailable": 0, "numbikesavailable": 24, "mechanical": 9, "ebike": 15, "is_renting": "OUI", "is_returning": "OUI", "duedate": "2025-04-16T08:39:02+00:00", "coordonnees_geo": {"lon": 2.3445946723222733, "lat": 48.84264375274712}, "nom_arrondissement_communes": "Paris", "code_insee_commune": "75056", "station_opening_hours": null}, {"stationcode": "14106", "name": "Marc Sangnier - Porte de Vanves", "is_installed": "OUI", "capacity": 0, "numdocksavailable": 20, "numbikesavailable": 1, "mechanical": 0, "ebike": 1, "is_renting": "OUI", "is_returning": "OUI", "duedate": "2025-04-16T08:34:13+00:00", "coordonnees_geo": {"lon": 2.3107116669416428, "lat": 48.825218683556734}, "nom_arrondissement_communes": "Paris", "code_insee_commune": "75056", "station_opening_hours": null}, {"stationcode": "31102", "name": "Boissi\u00e8re - Etienne Dolet", "is_installed": "OUI", "capacity": 0, "numdocksavailable": 19, "numbikesavailable": 0, "mechanical": 0, "ebike": 0, "is_renting": "OUI", "is_returning": "OUI", "duedate": "2025-04-16T08:33:21+00:00", "coordonnees_geo": {"lon": 2.4677312, "lat": 48.876111}, "nom_arrondissement_communes": "Montreuil", "code_insee_commune": "93048", "station_opening_hours": null}, {"stationcode": "2111", "name": "Chabanais - Petits Champs", "is_installed": "OUI", "capacity": 0, "numdocksavailable": 4, "numbikesavailable": 24, "mechanical": 13, "ebike": 11, "is_renting": "OUI", "is_returning": "OUI", "duedate": "2025-04-16T08:37:22+00:00", "coordonnees_geo": {"lon": 2.336716018617153, "lat": 48.86703740186721}, "nom_arrondissement_communes": "Paris", "code_insee_commune": "75056", "station_opening_hours": null}, {"stationcode": "8054", "name": "Bertie Albrecht - Hoche", "is_installed": "OUI", "capacity": 0, "numdocksavailable": 14, "numbikesavailable": 18, "mechanical": 6, "ebike": 12, "is_renting": "OUI", "is_returning": "OUI", "duedate": "2025-04-16T08:37:56+00:00", "coordonnees_geo": {"lon": 2.301303138307601, "lat": 48.87614039826388}, "nom_arrondissement_communes": "Paris", "code_insee_commune": "75056", "station_opening_hours": null}, {"stationcode": "15109", "name": "Cevennes - Bergers", "is_installed": "OUI", "capacity": 0, "numdocksavailable": 22, "numbikesavailable": 7, "mechanical": 4, "ebike": 3, "is_renting": "OUI", "is_returning": "OUI", "duedate": "2025-04-16T08:35:24+00:00", "coordonnees_geo": {"lon": 2.281037718057633, "lat": 48.84240765130395}, "nom_arrondissement_communes": "Paris", "code_insee_commune": "75056", "station_opening_hours": null}, {"stationcode": "21005", "name": "H\u00f4tel de Ville de Boulogne Billancourt", "is_installed": "OUI", "capacity": 0, "numdocksavailable": 2, "numbikesavailable": 22, "mechanical": 16, "ebike": 6, "is_renting": "OUI", "is_returning": "OUI", "duedate": "2025-04-16T08:38:56+00:00", "coordonnees_geo": {"lon": 2.2416803240776066, "lat": 48.83495885166784}, "nom_arrondissement_communes": "Boulogne-Billancourt", "code_insee_commune": "92012", "station_opening_hours": null}, {"stationcode": "14124", "name": "David Weill - Parc Montsouris", "is_installed": "OUI", "capacity": 0, "numdocksavailable": 21, "numbikesavailable": 1, "mechanical": 1, "ebike": 0, "is_renting": "OUI", "is_returning": "OUI", "duedate": "2025-04-16T08:35:44+00:00", "coordonnees_geo": {"lon": 2.333725690841675, "lat": 48.821092374256104}, "nom_arrondissement_communes": "Paris", "code_insee_commune": "75056", "station_opening_hours": null}, {"stationcode": "15133", "name": "Saint Lambert - Blomet", "is_installed": "OUI", "capacity": 0, "numdocksavailable": 23, "numbikesavailable": 0, "mechanical": 0, "ebike": 0, "is_renting": "OUI", "is_returning": "OUI", "duedate": "2025-04-16T08:34:45+00:00", "coordonnees_geo": {"lon": 2.2930556908249855, "lat": 48.83659148147257}, "nom_arrondissement_communes": "Paris", "code_insee_commune": "75056", "station_opening_hours": null}, {"stationcode": "21015", "name": "Nationale - Place Jules Guesde", "is_installed": "OUI", "capacity": 0, "numdocksavailable": 6, "numbikesavailable": 17, "mechanical": 12, "ebike": 5, "is_renting": "OUI", "is_returning": "OUI", "duedate": "2025-04-16T08:38:08+00:00", "coordonnees_geo": {"lon": 2.2416052222251897, "lat": 48.82753962462998}, "nom_arrondissement_communes": "Boulogne-Billancourt", "code_insee_commune": "92012", "station_opening_hours": null}, {"stationcode": "15034", "name": "Lakanal - Commerce", "is_installed": "OUI", "capacity": 0, "numdocksavailable": 28, "numbikesavailable": 20, "mechanical": 18, "ebike": 2, "is_renting": "OUI", "is_returning": "OUI", "duedate": "2025-04-16T08:37:58+00:00", "coordonnees_geo": {"lon": 2.294059172272682, "lat": 48.84442462786544}, "nom_arrondissement_communes": "Paris", "code_insee_commune": "75056", "station_opening_hours": null}, {"stationcode": "22203", "name": "Tertres - Fontaine", "is_installed": "OUI", "capacity": 0, "numdocksavailable": 26, "numbikesavailable": 2, "mechanical": 0, "ebike": 2, "is_renting": "OUI", "is_returning": "OUI", "duedate": "2025-04-16T08:37:32+00:00", "coordonnees_geo": {"lon": 2.306235730648041, "lat": 48.787553654715644}, "nom_arrondissement_communes": "Bagneux", "code_insee_commune": "92007", "station_opening_hours": null}, {"stationcode": "41202", "name": "Gare Rer de Fontenay sous Bois", "is_installed": "OUI", "capacity": 0, "numdocksavailable": 44, "numbikesavailable": 16, "mechanical": 12, "ebike": 4, "is_renting": "OUI", "is_returning": "OUI", "duedate": "2025-04-16T08:36:50+00:00", "coordonnees_geo": {"lon": 2.4630465, "lat": 48.8436279}, "nom_arrondissement_communes": "Fontenay-sous-Bois", "code_insee_commune": "94033", "station_opening_hours": null}, {"stationcode": "42021", "name": "Raspail - Manufacture des Oeillets", "is_installed": "OUI", "capacity": 0, "numdocksavailable": 19, "numbikesavailable": 13, "mechanical": 9, "ebike": 4, "is_renting": "OUI", "is_returning": "OUI", "duedate": "2025-04-16T08:37:48+00:00", "coordonnees_geo": {"lon": 2.3903009, "lat": 48.8094458}, "nom_arrondissement_communes": "Ivry-sur-Seine", "code_insee_commune": "94041", "station_opening_hours": null}, {"stationcode": "1119", "name": "Cossonnerie - S\u00e9bastopol", "is_installed": "OUI", "capacity": 0, "numdocksavailable": 6, "numbikesavailable": 18, "mechanical": 14, "ebike": 4, "is_renting": "OUI", "is_returning": "OUI", "duedate": "2025-04-16T08:36:50+00:00", "coordonnees_geo": {"lon": 2.349419631063938, "lat": 48.86132665908402}, "nom_arrondissement_communes": "Paris", "code_insee_commune": "75056", "station_opening_hours": null}, {"stationcode": "1020", "name": "Cambon - Rivoli", "is_installed": "OUI", "capacity": 0, "numdocksavailable": 1, "numbikesavailable": 34, "mechanical": 16, "ebike": 18, "is_renting": "OUI", "is_returning": "OUI", "duedate": "2025-04-16T08:38:22+00:00", "coordonnees_geo": {"lon": 2.3251800647137, "lat": 48.866143390992}, "nom_arrondissement_communes": "Paris", "code_insee_commune": "75056", "station_opening_hours": null}, {"stationcode": "25003", "name": "Henri Ste-Claire D\u00e9ville - Paul H\u00e9roult", "is_installed": "OUI", "capacity": 0, "numdocksavailable": 2, "numbikesavailable": 20, "mechanical": 14, "ebike": 6, "is_renting": "OUI", "is_returning": "OUI", "duedate": "2025-04-16T08:38:49+00:00", "coordonnees_geo": {"lon": 2.172411, "lat": 48.892663}, "nom_arrondissement_communes": "Rueil-Malmaison", "code_insee_commune": "92063", "station_opening_hours": null}, {"stationcode": "9116", "name": "Victoire - Chauss\u00e9e d'Antin", "is_installed": "OUI", "capacity": 0, "numdocksavailable": 0, "numbikesavailable": 20, "mechanical": 13, "ebike": 7, "is_renting": "OUI", "is_returning": "OUI", "duedate": "2025-04-16T08:37:01+00:00", "coordonnees_geo": {"lon": 2.3316738009452824, "lat": 48.875065791004396}, "nom_arrondissement_communes": "Paris", "code_insee_commune": "75056", "station_opening_hours": null}, {"stationcode": "11039", "name": "Richard Lenoir - Jean-Pierre Timbaud", "is_installed": "OUI", "capacity": 0, "numdocksavailable": 27, "numbikesavailable": 8, "mechanical": 6, "ebike": 2, "is_renting": "OUI", "is_returning": "OUI", "duedate": "2025-04-16T08:38:25+00:00", "coordonnees_geo": {"lon": 2.3693370749669, "lat": 48.865804276686}, "nom_arrondissement_communes": "Paris", "code_insee_commune": "75056", "station_opening_hours": null}, {"stationcode": "15021", "name": "Joseph Liouville - Croix Nivert", "is_installed": "OUI", "capacity": 0, "numdocksavailable": 56, "numbikesavailable": 8, "mechanical": 7, "ebike": 1, "is_renting": "OUI", "is_returning": "OUI", "duedate": "2025-04-16T08:38:46+00:00", "coordonnees_geo": {"lon": 2.297508493065834, "lat": 48.844835471244416}, "nom_arrondissement_communes": "Paris", "code_insee_commune": "75056", "station_opening_hours": null}, {"stationcode": "17105", "name": "Place Madeleine Dani\u00e9lou", "is_installed": "OUI", "capacity": 0, "numdocksavailable": 33, "numbikesavailable": 9, "mechanical": 8, "ebike": 1, "is_renting": "OUI", "is_returning": "OUI", "duedate": "2025-04-16T08:37:02+00:00", "coordonnees_geo": {"lon": 2.282015, "lat": 48.883498}, "nom_arrondissement_communes": "Paris", "code_insee_commune": "75056", "station_opening_hours": null}, {"stationcode": "9010", "name": "Rochechouart lamartine", "is_installed": "OUI", "capacity": 0, "numdocksavailable": 23, "numbikesavailable": 1, "mechanical": 0, "ebike": 1, "is_renting": "OUI", "is_returning": "OUI", "duedate": "2025-04-16T08:34:33+00:00", "coordonnees_geo": {"lon": 2.344393021854, "lat": 48.876719895109}, "nom_arrondissement_communes": "Paris", "code_insee_commune": "75056", "station_opening_hours": null}, {"stationcode": "11105", "name": "Parmentier - R\u00e9publique", "is_installed": "OUI", "capacity": 0, "numdocksavailable": 17, "numbikesavailable": 6, "mechanical": 4, "ebike": 2, "is_renting": "OUI", "is_returning": "OUI", "duedate": "2025-04-16T08:35:16+00:00", "coordonnees_geo": {"lon": 2.3750124, "lat": 48.8644954}, "nom_arrondissement_communes": "Paris", "code_insee_commune": "75056", "station_opening_hours": null}, {"stationcode": "16108", "name": "Sablons - Georges Mandel", "is_installed": "OUI", "capacity": 0, "numdocksavailable": 33, "numbikesavailable": 5, "mechanical": 4, "ebike": 1, "is_renting": "OUI", "is_returning": "OUI", "duedate": "2025-04-16T08:32:24+00:00", "coordonnees_geo": {"lon": 2.28189, "lat": 48.863875}, "nom_arrondissement_communes": "Paris", "code_insee_commune": "75056", "station_opening_hours": null}]}