{"total_count": 1471, "results": [{"stationcode": "12109", "name": "Mairie du 12\u00e8me", "is_installed": "OUI", "capacity": 30, "numdocksavailable": 21, "numbikesavailable": 9, "mechanical": 4, "ebike": 5, "is_renting": "OUI", "is_returning": "OUI", "duedate": "2024-01-06T15:23:45+00:00", "coordonnees_geo": {"lon": 2.3875549435616, "lat": 48.840855311763}, "nom_arrondissement_communes": "Paris", "code_insee_commune": null}, {"stationcode": "8026", "name": "Messine - Place Du P\u00e9rou", "is_installed": "OUI", "capacity": 12, "numdocksavailable": 4, "numbikesavailable": 5, "mechanical": 1, "ebike": 4, "is_renting": "OUI", "is_returning": "OUI", "duedate": "2024-01-06T15:22:13+00:00", "coordonnees_geo": {"lon": 2.315508019010038, "lat": 48.875448033960744}, "nom_arrondissement_communes": "Paris", "code_insee_commune": null}, {"stationcode": "13007", "name": "Le Brun - Gobelins", "is_installed": "OUI", "capacity": 48, "numdocksavailable": 44, "numbikesavailable": 3, "mechanical": 2, "ebike": 1, "is_renting": "OUI", "is_returning": "OUI", "duedate": "2024-01-06T15:21:08+00:00", "coordonnees_geo": {"lon": 2.3534681351338, "lat": 48.835092787824}, "nom_arrondissement_communes": "Paris", "code_insee_commune": null}, {"stationcode": "7002", "name": "Vaneau - S\u00e8vres", "is_installed": "OUI", "capacity": 35, "numdocksavailable": 23, "numbikesavailable": 9, "mechanical": 2, "ebike": 7, "is_renting": "OUI", "is_returning": "OUI", "duedate": "2024-01-06T15:24:03+00:00", "coordonnees_geo": {"lon": 2.3204218259346, "lat": 48.848563233059}, "nom_arrondissement_communes": "Paris", "code_insee_commune": null}, {"stationcode": "5110", "name": "Lac\u00e9p\u00e8de - Monge", "is_installed": "OUI", "capacity": 23, "numdocksavailable": 12, "numbikesavailable": 11, "mechanical": 3, "ebike": 8, "is_renting": "OUI", "is_returning": "OUI", "duedate": "2024-01-06T15:23:55+00:00", "coordonnees_geo": {"lon": 2.3519663885235786, "lat": 48.84389286531899}, "nom_arrondissement_communes": "Paris", "code_insee_commune": null}, {"stationcode": "6108", "name": "Saint-Romain - Cherche-Midi", "is_installed": "OUI", "capacity": 17, "numdocksavailable": 11, "numbikesavailable": 5, "mechanical": 4, "ebike": 1, "is_renting": "OUI", "is_returning": "OUI", "duedate": "2024-01-06T15:19:44+00:00", "coordonnees_geo": {"lon": 2.321374788880348, "lat": 48.84708159081946}, "nom_arrondissement_communes": "Paris", "code_insee_commune": null}, {"stationcode": "42016", "name": "Pierre et Marie Curie - Maurice Thorez", "is_installed": "OUI", "capacity": 27, "numdocksavailable": 23, "numbikesavailable": 4, "mechanical": 0, "ebike": 4, "is_renting": "OUI", "is_returning": "OUI", "duedate": "2024-01-06T15:16:40+00:00", "coordonnees_geo": {"lon": 2.376804985105991, "lat": 48.81580226360801}, "nom_arrondissement_communes": "Ivry-sur-Seine", "code_insee_commune": null}, {"stationcode": "41301", "name": "Bois de Vincennes - Gare", "is_installed": "OUI", "capacity": 50, "numdocksavailable": 48, "numbikesavailable": 2, "mechanical": 1, "ebike": 1, "is_renting": "OUI", "is_returning": "OUI", "duedate": "2024-01-06T15:23:53+00:00", "coordonnees_geo": {"lon": 2.4708339950830287, "lat": 48.836022242886884}, "nom_arrondissement_communes": "Nogent-sur-Marne", "code_insee_commune": null}, {"stationcode": "6021", "name": "Beaux-Arts - Bonaparte", "is_installed": "OUI", "capacity": 20, "numdocksavailable": 6, "numbikesavailable": 14, "mechanical": 9, "ebike": 5, "is_renting": "OUI", "is_returning": "OUI", "duedate": "2024-01-06T15:17:41+00:00", "coordonnees_geo": {"lon": 2.334851883351803, "lat": 48.856451985395786}, "nom_arrondissement_communes": "Paris", "code_insee_commune": null}, {"stationcode": "21010", "name": "Silly - Galli\u00e9ni", "is_installed": "OUI", "capacity": 25, "numdocksavailable": 25, "numbikesavailable": 0, "mechanical": 0, "ebike": 0, "is_renting": "OUI", "is_returning": "OUI", "duedate": "2024-01-06T15:24:05+00:00", "coordonnees_geo": {"lon": 2.2325500845909, "lat": 48.835583838706}, "nom_arrondissement_communes": "Boulogne-Billancourt", "code_insee_commune": null}, {"stationcode": "25006", "name": "Place Nelson Mandela", "is_installed": "OUI", "capacity": 22, "numdocksavailable": 17, "numbikesavailable": 5, "mechanical": 3, "ebike": 2, "is_renting": "OUI", "is_returning": "OUI", "duedate": "2024-01-06T15:18:03+00:00", "coordonnees_geo": {"lon": 2.1961666225454, "lat": 48.862453313908}, "nom_arrondissement_communes": "Rueil-Malmaison", "code_insee_commune": null}, {"stationcode": "30002", "name": "Jean Rostand - Paul Vaillant Couturier", "is_installed": "OUI", "capacity": 40, "numdocksavailable": 26, "numbikesavailable": 11, "mechanical": 10, "ebike": 1, "is_renting": "OUI", "is_returning": "OUI", "duedate": "2024-01-06T15:23:41+00:00", "coordonnees_geo": {"lon": 2.4530601033354, "lat": 48.908168131015}, "nom_arrondissement_communes": "Bobigny", "code_insee_commune": null}, {"stationcode": "15202", "name": "Bracion - P\u00e9riph\u00e9rique", "is_installed": "OUI", "capacity": 30, "numdocksavailable": 20, "numbikesavailable": 10, "mechanical": 2, "ebike": 8, "is_renting": "OUI", "is_returning": "OUI", "duedate": "2024-01-06T15:18:39+00:00", "coordonnees_geo": {"lon": 2.3004549373748, "lat": 48.826103771275}, "nom_arrondissement_communes": "Paris", "code_insee_commune": null}, {"stationcode": "17041", "name": "Guersant - Gouvion-Saint-Cyr", "is_installed": "OUI", "capacity": 36, "numdocksavailable": 17, "numbikesavailable": 15, "mechanical": 9, "ebike": 6, "is_renting": "OUI", "is_returning": "OUI", "duedate": "2024-01-06T15:24:05+00:00", "coordonnees_geo": {"lon": 2.287667370814871, "lat": 48.88287775178599}, "nom_arrondissement_communes": "Paris", "code_insee_commune": null}, {"stationcode": "17026", "name": "Jouffroy d'Abbans - Wagram", "is_installed": "OUI", "capacity": 40, "numdocksavailable": 31, "numbikesavailable": 7, "mechanical": 3, "ebike": 4, "is_renting": "OUI", "is_returning": "OUI", "duedate": "2024-01-06T15:19:56+00:00", "coordonnees_geo": {"lon": 2.301132157445, "lat": 48.881973298352}, "nom_arrondissement_communes": "Paris", "code_insee_commune": null}, {"stationcode": "15047", "name": "Morillons - Dantzig", "is_installed": "OUI", "capacity": 52, "numdocksavailable": 51, "numbikesavailable": 0, "mechanical": 0, "ebike": 0, "is_renting": "OUI", "is_returning": "OUI", "duedate": "2024-01-06T15:23:08+00:00", "coordonnees_geo": {"lon": 2.299380004405976, "lat": 48.83310149953933}, "nom_arrondissement_communes": "Paris", "code_insee_commune": null}, {"stationcode": "8050", "name": "Bo\u00e9tie - Ponthieu", "is_installed": "OUI", "capacity": 33, "numdocksavailable": 24, "numbikesavailable": 8, "mechanical": 4, "ebike": 4, "is_renting": "OUI", "is_returning": "OUI", "duedate": "2024-01-06T15:23:55+00:00", "coordonnees_geo": {"lon": 2.3076787590981, "lat": 48.871417284355}, "nom_arrondissement_communes": "Paris", "code_insee_commune": null}, {"stationcode": "17044", "name": "Porte de Saint-Ouen - Bessi\u00e8res", "is_installed": "OUI", "capacity": 42, "numdocksavailable": 23, "numbikesavailable": 5, "mechanical": 2, "ebike": 3, "is_renting": "OUI", "is_returning": "OUI", "duedate": "2024-01-06T15:23:32+00:00", "coordonnees_geo": {"lon": 2.32851451022192, "lat": 48.89792240854517}, "nom_arrondissement_communes": "Paris", "code_insee_commune": null}, {"stationcode": "19033", "name": "Cambrai - Benjamin Constant", "is_installed": "OUI", "capacity": 43, "numdocksavailable": 41, "numbikesavailable": 1, "mechanical": 0, "ebike": 1, "is_renting": "OUI", "is_returning": "OUI", "duedate": "2024-01-06T15:19:38+00:00", "coordonnees_geo": {"lon": 2.381133802246315, "lat": 48.89594736851349}, "nom_arrondissement_communes": "Paris", "code_insee_commune": null}, {"stationcode": "21326", "name": "Moulin de Pierre - Abb\u00e9 Gr\u00e9goire", "is_installed": "OUI", "capacity": 20, "numdocksavailable": 15, "numbikesavailable": 4, "mechanical": 0, "ebike": 4, "is_renting": "OUI", "is_returning": "OUI", "duedate": "2024-01-06T15:15:20+00:00", "coordonnees_geo": {"lon": 2.2754641655975, "lat": 48.822036188382}, "nom_arrondissement_communes": "Issy-les-Moulineaux", "code_insee_commune": null}, {"stationcode": "20143", "name": "Ramponeau - Belleville", "is_installed": "OUI", "capacity": 44, "numdocksavailable": 39, "numbikesavailable": 3, "mechanical": 2, "ebike": 1, "is_renting": "OUI", "is_returning": "OUI", "duedate": "2024-01-06T15:24:05+00:00", "coordonnees_geo": {"lon": 2.379056852114, "lat": 48.871031137596}, "nom_arrondissement_communes": "Paris", "code_insee_commune": null}, {"stationcode": "16138", "name": "Saint-Cloud - Hippodrome", "is_installed": "OUI", "capacity": 30, "numdocksavailable": 24, "numbikesavailable": 5, "mechanical": 2, "ebike": 3, "is_renting": "OUI", "is_returning": "OUI", "duedate": "2024-01-06T15:16:14+00:00", "coordonnees_geo": {"lon": 2.2549109905958176, "lat": 48.85772148887421}, "nom_arrondissement_communes": "Paris", "code_insee_commune": null}, {"stationcode": "7004", "name": "Raspail - Varenne", "is_installed": "OUI", "capacity": 18, "numdocksavailable": 7, "numbikesavailable": 10, "mechanical": 5, "ebike": 5, "is_renting": "OUI", "is_returning": "OUI", "duedate": "2024-01-06T15:22:16+00:00", "coordonnees_geo": {"lon": 2.3263905197382, "lat": 48.853147816545}, "nom_arrondissement_communes": "Paris", "code_insee_commune": null}, {"stationcode": "13030", "name": "Italie - Tolbiac", "is_installed": "OUI", "capacity": 21, "numdocksavailable": 20, "numbikesavailable": 1, "mechanical": 0, "ebike": 1, "is_renting": "OUI", "is_returning": "OUI", "duedate": "2024-01-06T15:21:18+00:00", "coordonnees_geo": {"lon": 2.3576171323657036, "lat": 48.82557229464416}, "nom_arrondissement_communes": "Paris", "code_insee_commune": null}, {"stationcode": "31028", "name": "Raspail Barb\u00e8s", "is_installed": "OUI", "capacity": 28, "numdocksavailable": 26, "numbikesavailable": 2, "mechanical": 2, "ebike": 0, "is_renting": "OUI", "is_returning": "OUI", "duedate": "2024-01-06T15:23:40+00:00", "coordonnees_geo": {"lon": 2.4247387, "lat": 48.8529945}, "nom_arrondissement_communes": "Montreuil", "code_insee_commune": null}, {"stationcode": "18111", "name": "F\u00e9lix Ziem - Armand Gauthier", "is_installed": "OUI", "capacity": 25, "numdocksavailable": 23, "numbikesavailable": 1, "mechanical": 0, "ebike": 1, "is_renting": "OUI", "is_returning": "OUI", "duedate": "2024-01-06T15:21:29+00:00", "coordonnees_geo": {"lon": 2.333393658804396, "lat": 48.88949630486821}, "nom_arrondissement_communes": "Paris", "code_insee_commune": null}, {"stationcode": "48003", "name": "Youri Gagarine - Karl Marx", "is_installed": "OUI", "capacity": 22, "numdocksavailable": 17, "numbikesavailable": 4, "mechanical": 1, "ebike": 3, "is_renting": "OUI", "is_returning": "OUI", "duedate": "2024-01-06T15:16:11+00:00", "coordonnees_geo": {"lon": 2.35908430069685, "lat": 48.78448485079149}, "nom_arrondissement_communes": "Villejuif", "code_insee_commune": null}, {"stationcode": "14002", "name": "Edgar Quinet - Raspail", "is_installed": "OUI", "capacity": 46, "numdocksavailable": 23, "numbikesavailable": 21, "mechanical": 8, "ebike": 13, "is_renting": "OUI", "is_returning": "OUI", "duedate": "2024-01-06T15:23:56+00:00", "coordonnees_geo": {"lon": 2.32971478253603, "lat": 48.83940266673835}, "nom_arrondissement_communes": "Paris", "code_insee_commune": null}, {"stationcode": "10029", "name": "Dunkerque - Rocroy", "is_installed": "OUI", "capacity": 24, "numdocksavailable": 19, "numbikesavailable": 4, "mechanical": 0, "ebike": 4, "is_renting": "OUI", "is_returning": "OUI", "duedate": "2024-01-06T15:21:39+00:00", "coordonnees_geo": {"lon": 2.351464, "lat": 48.880726}, "nom_arrondissement_communes": "Paris", "code_insee_commune": null}, {"stationcode": "10161", "name": "Gare de l'Est - Faubourg-Saint-Martin", "is_installed": "OUI", "capacity": 32, "numdocksavailable": 22, "numbikesavailable": 8, "mechanical": 6, "ebike": 2, "is_renting": "OUI", "is_returning": "OUI", "duedate": "2024-01-06T15:22:42+00:00", "coordonnees_geo": {"lon": 2.3594588041306, "lat": 48.875642647477}, "nom_arrondissement_communes": "Paris", "code_insee_commune": null}, {"stationcode": "12031", "name": "Gabriel Lam\u00e9", "is_installed": "OUI", "capacity": 36, "numdocksavailable": 2, "numbikesavailable": 34, "mechanical": 32, "ebike": 2, "is_renting": "OUI", "is_returning": "OUI", "duedate": "2024-01-06T15:23:26+00:00", "coordonnees_geo": {"lon": 2.385534569621086, "lat": 48.8351212784276}, "nom_arrondissement_communes": "Paris", "code_insee_commune": null}, {"stationcode": "17040", "name": "Pereire - Ternes", "is_installed": "OUI", "capacity": 48, "numdocksavailable": 34, "numbikesavailable": 11, "mechanical": 9, "ebike": 2, "is_renting": "OUI", "is_returning": "OUI", "duedate": "2024-01-06T15:23:46+00:00", "coordonnees_geo": {"lon": 2.288012132048607, "lat": 48.87973954830735}, "nom_arrondissement_communes": "Paris", "code_insee_commune": null}, {"stationcode": "9038", "name": "Douai - Bruxelles", "is_installed": "OUI", "capacity": 27, "numdocksavailable": 24, "numbikesavailable": 1, "mechanical": 0, "ebike": 1, "is_renting": "OUI", "is_returning": "OUI", "duedate": "2024-01-06T15:23:47+00:00", "coordonnees_geo": {"lon": 2.3308449949028507, "lat": 48.88320784122797}, "nom_arrondissement_communes": "Paris", "code_insee_commune": null}, {"stationcode": "31103", "name": "Gare Rosny-Bois-Perrier", "is_installed": "OUI", "capacity": 36, "numdocksavailable": 16, "numbikesavailable": 19, "mechanical": 4, "ebike": 15, "is_renting": "OUI", "is_returning": "OUI", "duedate": "2024-01-06T15:23:23+00:00", "coordonnees_geo": {"lon": 2.480436824262142, "lat": 48.88115023337061}, "nom_arrondissement_communes": "Rosny-sous-Bois", "code_insee_commune": null}, {"stationcode": "22409", "name": "Henri Barbusse - Stalingrad", "is_installed": "OUI", "capacity": 16, "numdocksavailable": 15, "numbikesavailable": 1, "mechanical": 1, "ebike": 0, "is_renting": "OUI", "is_returning": "OUI", "duedate": "2024-01-06T15:19:13+00:00", "coordonnees_geo": {"lon": 2.2872862592339516, "lat": 48.814183748660554}, "nom_arrondissement_communes": "Malakoff", "code_insee_commune": null}, {"stationcode": "19015", "name": "Thionville - Ourcq", "is_installed": "OUI", "capacity": 24, "numdocksavailable": 21, "numbikesavailable": 3, "mechanical": 1, "ebike": 2, "is_renting": "OUI", "is_returning": "OUI", "duedate": "2024-01-06T15:20:35+00:00", "coordonnees_geo": {"lon": 2.3833653330802917, "lat": 48.88917613743794}, "nom_arrondissement_communes": "Paris", "code_insee_commune": null}, {"stationcode": "9022", "name": "Rossini - Laffitte", "is_installed": "OUI", "capacity": 33, "numdocksavailable": 23, "numbikesavailable": 7, "mechanical": 5, "ebike": 2, "is_renting": "OUI", "is_returning": "OUI", "duedate": "2024-01-06T15:22:57+00:00", "coordonnees_geo": {"lon": 2.337980867701675, "lat": 48.87334627510507}, "nom_arrondissement_communes": "Paris", "code_insee_commune": null}, {"stationcode": "26003", "name": "Argenteuil - Voltaire", "is_installed": "OUI", "capacity": 16, "numdocksavailable": 13, "numbikesavailable": 3, "mechanical": 1, "ebike": 2, "is_renting": "OUI", "is_returning": "OUI", "duedate": "2024-01-06T15:21:01+00:00", "coordonnees_geo": {"lon": 2.2814112156629562, "lat": 48.91864865955558}, "nom_arrondissement_communes": "Asni\u00e8res-sur-Seine", "code_insee_commune": null}, {"stationcode": "17004", "name": "Legendre - Clichy", "is_installed": "OUI", "capacity": 40, "numdocksavailable": 36, "numbikesavailable": 2, "mechanical": 0, "ebike": 2, "is_renting": "OUI", "is_returning": "OUI", "duedate": "2024-01-06T15:20:41+00:00", "coordonnees_geo": {"lon": 2.322528975094376, "lat": 48.88896161855884}, "nom_arrondissement_communes": "Paris", "code_insee_commune": null}, {"stationcode": "19003", "name": "Quai de la Seine", "is_installed": "OUI", "capacity": 24, "numdocksavailable": 19, "numbikesavailable": 5, "mechanical": 0, "ebike": 5, "is_renting": "OUI", "is_returning": "OUI", "duedate": "2024-01-06T15:22:01+00:00", "coordonnees_geo": {"lon": 2.3703941702842717, "lat": 48.884492238407525}, "nom_arrondissement_communes": "Paris", "code_insee_commune": null}, {"stationcode": "18107", "name": "Chartres - La Charbonni\u00e8re", "is_installed": "OUI", "capacity": 34, "numdocksavailable": 32, "numbikesavailable": 2, "mechanical": 1, "ebike": 1, "is_renting": "OUI", "is_returning": "OUI", "duedate": "2024-01-06T15:16:29+00:00", "coordonnees_geo": {"lon": 2.3534657, "lat": 48.8847601}, "nom_arrondissement_communes": "Paris", "code_insee_commune": null}, {"stationcode": "10107", "name": "Gare du Nord - H\u00f4pital Lariboisi\u00e8re", "is_installed": "OUI", "capacity": 49, "numdocksavailable": 44, "numbikesavailable": 4, "mechanical": 1, "ebike": 3, "is_renting": "OUI", "is_returning": "OUI", "duedate": "2024-01-06T15:18:17+00:00", "coordonnees_geo": {"lon": 2.352339, "lat": 48.881949}, "nom_arrondissement_communes": "Paris", "code_insee_commune": null}, {"stationcode": "26002", "name": "Redoute - Les Courtilles", "is_installed": "OUI", "capacity": 40, "numdocksavailable": 27, "numbikesavailable": 8, "mechanical": 3, "ebike": 5, "is_renting": "OUI", "is_returning": "OUI", "duedate": "2024-01-06T15:23:28+00:00", "coordonnees_geo": {"lon": 2.2836696356535, "lat": 48.929867194519}, "nom_arrondissement_communes": "Asni\u00e8res-sur-Seine", "code_insee_commune": null}, {"stationcode": "17043", "name": "Belidor - Gouvion-Saint-Cyr", "is_installed": "OUI", "capacity": 39, "numdocksavailable": 32, "numbikesavailable": 6, "mechanical": 1, "ebike": 5, "is_renting": "OUI", "is_returning": "OUI", "duedate": "2024-01-06T15:17:18+00:00", "coordonnees_geo": {"lon": 2.2854680567979813, "lat": 48.88022154052015}, "nom_arrondissement_communes": "Paris", "code_insee_commune": null}, {"stationcode": "19026", "name": "Place de Rhin et Danube", "is_installed": "OUI", "capacity": 17, "numdocksavailable": 16, "numbikesavailable": 1, "mechanical": 0, "ebike": 1, "is_renting": "OUI", "is_returning": "OUI", "duedate": "2024-01-06T15:21:47+00:00", "coordonnees_geo": {"lon": 2.392586767673493, "lat": 48.88192765861766}, "nom_arrondissement_communes": "Paris", "code_insee_commune": null}, {"stationcode": "11023", "name": "Saint-Maur - Roquette", "is_installed": "OUI", "capacity": 46, "numdocksavailable": 42, "numbikesavailable": 2, "mechanical": 1, "ebike": 1, "is_renting": "OUI", "is_returning": "OUI", "duedate": "2024-01-06T15:23:01+00:00", "coordonnees_geo": {"lon": 2.383553994571467, "lat": 48.858688774062955}, "nom_arrondissement_communes": "Paris", "code_insee_commune": null}, {"stationcode": "11002", "name": "Roquette - Thi\u00e9r\u00e9", "is_installed": "OUI", "capacity": 23, "numdocksavailable": 4, "numbikesavailable": 18, "mechanical": 12, "ebike": 6, "is_renting": "OUI", "is_returning": "OUI", "duedate": "2024-01-06T15:23:05+00:00", "coordonnees_geo": {"lon": 2.3733686318721463, "lat": 48.85507930579506}, "nom_arrondissement_communes": "Paris", "code_insee_commune": null}, {"stationcode": "11047", "name": "Amelot - Saint-S\u00e9bastien", "is_installed": "OUI", "capacity": 30, "numdocksavailable": 4, "numbikesavailable": 26, "mechanical": 14, "ebike": 12, "is_renting": "OUI", "is_returning": "OUI", "duedate": "2024-01-06T15:23:12+00:00", "coordonnees_geo": {"lon": 2.3677996181077, "lat": 48.861142162761}, "nom_arrondissement_communes": "Paris", "code_insee_commune": null}, {"stationcode": "5032", "name": "Panth\u00e9on - Valette", "is_installed": "OUI", "capacity": 39, "numdocksavailable": 12, "numbikesavailable": 27, "mechanical": 3, "ebike": 24, "is_renting": "OUI", "is_returning": "OUI", "duedate": "2024-01-06T15:23:49+00:00", "coordonnees_geo": {"lon": 2.3464982619671075, "lat": 48.84702057165222}, "nom_arrondissement_communes": "Paris", "code_insee_commune": null}, {"stationcode": "6006", "name": "Notre-Dame-des-Champs - Stanislas", "is_installed": "OUI", "capacity": 19, "numdocksavailable": 3, "numbikesavailable": 14, "mechanical": 7, "ebike": 7, "is_renting": "OUI", "is_returning": "OUI", "duedate": "2024-01-06T15:21:58+00:00", "coordonnees_geo": {"lon": 2.329337755887181, "lat": 48.84479928858768}, "nom_arrondissement_communes": "Paris", "code_insee_commune": null}, {"stationcode": "12128", "name": "Pyramide - Ecole du Breuil", "is_installed": "OUI", "capacity": 34, "numdocksavailable": 27, "numbikesavailable": 7, "mechanical": 5, "ebike": 2, "is_renting": "OUI", "is_returning": "OUI", "duedate": "2024-01-06T15:15:08+00:00", "coordonnees_geo": {"lon": 2.4586871266365056, "lat": 48.82237977153955}, "nom_arrondissement_communes": "Paris", "code_insee_commune": null}, {"stationcode": "8010", "name": "Li\u00e8ge - Moscou", "is_installed": "OUI", "capacity": 17, "numdocksavailable": 14, "numbikesavailable": 3, "mechanical": 2, "ebike": 1, "is_renting": "OUI", "is_returning": "OUI", "duedate": "2024-01-06T15:23:25+00:00", "coordonnees_geo": {"lon": 2.3264628, "lat": 48.8795431}, "nom_arrondissement_communes": "Paris", "code_insee_commune": null}, {"stationcode": "31022", "name": "Mairie de Montreuil", "is_installed": "OUI", "capacity": 52, "numdocksavailable": 23, "numbikesavailable": 28, "mechanical": 3, "ebike": 25, "is_renting": "OUI", "is_returning": "OUI", "duedate": "2024-01-06T15:22:18+00:00", "coordonnees_geo": {"lon": 2.440614402294159, "lat": 48.86131452758348}, "nom_arrondissement_communes": "Montreuil", "code_insee_commune": null}, {"stationcode": "18003", "name": "Cimeti\u00e8re de Montmartre", "is_installed": "OUI", "capacity": 43, "numdocksavailable": 39, "numbikesavailable": 4, "mechanical": 0, "ebike": 4, "is_renting": "OUI", "is_returning": "OUI", "duedate": "2024-01-06T15:23:34+00:00", "coordonnees_geo": {"lon": 2.3328901827335, "lat": 48.886472466142}, "nom_arrondissement_communes": "Paris", "code_insee_commune": null}, {"stationcode": "41302", "name": "Charles de Gaulle - Beaut\u00e9", "is_installed": "OUI", "capacity": 49, "numdocksavailable": 32, "numbikesavailable": 17, "mechanical": 4, "ebike": 13, "is_renting": "OUI", "is_returning": "OUI", "duedate": "2024-01-06T15:21:51+00:00", "coordonnees_geo": {"lon": 2.479562651149885, "lat": 48.83649602312711}, "nom_arrondissement_communes": "Nogent-sur-Marne", "code_insee_commune": null}, {"stationcode": "5018", "name": "Mutualit\u00e9", "is_installed": "OUI", "capacity": 37, "numdocksavailable": 1, "numbikesavailable": 33, "mechanical": 26, "ebike": 7, "is_renting": "OUI", "is_returning": "OUI", "duedate": "2024-01-06T15:23:11+00:00", "coordonnees_geo": {"lon": 2.3502873256803, "lat": 48.848225572724}, "nom_arrondissement_communes": "Paris", "code_insee_commune": null}, {"stationcode": "15042", "name": "Henry Farman", "is_installed": "OUI", "capacity": 16, "numdocksavailable": 5, "numbikesavailable": 11, "mechanical": 7, "ebike": 4, "is_renting": "OUI", "is_returning": "OUI", "duedate": "2024-01-06T15:23:46+00:00", "coordonnees_geo": {"lon": 2.2713854536414146, "lat": 48.83372430280548}, "nom_arrondissement_communes": "Paris", "code_insee_commune": null}, {"stationcode": "18011", "name": "Pajol - Place Herbert", "is_installed": "OUI", "capacity": 39, "numdocksavailable": 33, "numbikesavailable": 4, "mechanical": 1, "ebike": 3, "is_renting": "OUI", "is_returning": "OUI", "duedate": "2024-01-06T15:23:29+00:00", "coordonnees_geo": {"lon": 2.3635598, "lat": 48.8927825}, "nom_arrondissement_communes": "Paris", "code_insee_commune": null}, {"stationcode": "43008", "name": "Fontenay - Lib\u00e9ration", "is_installed": "OUI", "capacity": 25, "numdocksavailable": 23, "numbikesavailable": 2, "mechanical": 2, "ebike": 0, "is_renting": "OUI", "is_returning": "OUI", "duedate": "2024-01-06T15:19:57+00:00", "coordonnees_geo": {"lon": 2.445141971111298, "lat": 48.84780306364685}, "nom_arrondissement_communes": "Vincennes", "code_insee_commune": null}, {"stationcode": "5004", "name": "Saint-Jacques - Val de Gr\u00e2ce", "is_installed": "OUI", "capacity": 19, "numdocksavailable": 12, "numbikesavailable": 7, "mechanical": 1, "ebike": 6, "is_renting": "OUI", "is_returning": "OUI", "duedate": "2024-01-06T15:21:26+00:00", "coordonnees_geo": {"lon": 2.3413893, "lat": 48.8417514}, "nom_arrondissement_communes": "Paris", "code_insee_commune": null}, {"stationcode": "19103", "name": "Manin - Carri\u00e8res d'Am\u00e9rique", "is_installed": "OUI", "capacity": 20, "numdocksavailable": 18, "numbikesavailable": 1, "mechanical": 0, "ebike": 1, "is_renting": "OUI", "is_returning": "OUI", "duedate": "2024-01-06T15:23:20+00:00", "coordonnees_geo": {"lon": 2.3919698596000676, "lat": 48.88467214209463}, "nom_arrondissement_communes": "Paris", "code_insee_commune": null}, {"stationcode": "21312", "name": "Lucie Aubrac - Fort", "is_installed": "OUI", "capacity": 30, "numdocksavailable": 11, "numbikesavailable": 18, "mechanical": 9, "ebike": 9, "is_renting": "OUI", "is_returning": "OUI", "duedate": "2024-01-06T15:18:38+00:00", "coordonnees_geo": {"lon": 2.271184623241425, "lat": 48.818144834008976}, "nom_arrondissement_communes": "Issy-les-Moulineaux", "code_insee_commune": null}, {"stationcode": "10024", "name": "Buisson Saint-Louis - Saint-Maur", "is_installed": "OUI", "capacity": 19, "numdocksavailable": 17, "numbikesavailable": 1, "mechanical": 0, "ebike": 1, "is_renting": "OUI", "is_returning": "OUI", "duedate": "2024-01-06T15:22:39+00:00", "coordonnees_geo": {"lon": 2.3722528328789854, "lat": 48.87174684930295}, "nom_arrondissement_communes": "Paris", "code_insee_commune": null}, {"stationcode": "13001", "name": "Port-Royal - H\u00f4pital du Val-de-Gr\u00e2ce", "is_installed": "OUI", "capacity": 18, "numdocksavailable": 13, "numbikesavailable": 3, "mechanical": 2, "ebike": 1, "is_renting": "OUI", "is_returning": "OUI", "duedate": "2024-01-06T15:21:56+00:00", "coordonnees_geo": {"lon": 2.3448138346607, "lat": 48.837668272811}, "nom_arrondissement_communes": "Paris", "code_insee_commune": null}, {"stationcode": "8045", "name": "Place de la Reine Astrid", "is_installed": "OUI", "capacity": 54, "numdocksavailable": 32, "numbikesavailable": 21, "mechanical": 17, "ebike": 4, "is_renting": "OUI", "is_returning": "OUI", "duedate": "2024-01-06T15:23:09+00:00", "coordonnees_geo": {"lon": 2.3025491823859, "lat": 48.864920982538}, "nom_arrondissement_communes": "Paris", "code_insee_commune": null}, {"stationcode": "18028", "name": "Championnet - Vauvenargues", "is_installed": "OUI", "capacity": 33, "numdocksavailable": 26, "numbikesavailable": 4, "mechanical": 2, "ebike": 2, "is_renting": "OUI", "is_returning": "OUI", "duedate": "2024-01-06T15:23:44+00:00", "coordonnees_geo": {"lon": 2.3319872841238976, "lat": 48.89401874744574}, "nom_arrondissement_communes": "Paris", "code_insee_commune": null}, {"stationcode": "42014", "name": "Place Marcel Cachin", "is_installed": "OUI", "capacity": 32, "numdocksavailable": 23, "numbikesavailable": 8, "mechanical": 5, "ebike": 3, "is_renting": "OUI", "is_returning": "OUI", "duedate": "2024-01-06T15:18:20+00:00", "coordonnees_geo": {"lon": 2.39090770483017, "lat": 48.81411442356866}, "nom_arrondissement_communes": "Ivry-sur-Seine", "code_insee_commune": null}, {"stationcode": "17203", "name": "Place de la Porte de Champeret", "is_installed": "NON", "capacity": 0, "numdocksavailable": 0, "numbikesavailable": 0, "mechanical": 0, "ebike": 0, "is_renting": "NON", "is_returning": "NON", "duedate": "2023-07-25T10:08:24+00:00", "coordonnees_geo": {"lon": 2.2917001576821, "lat": 48.886062068226}, "nom_arrondissement_communes": "Paris", "code_insee_commune": null}, {"stationcode": "8017", "name": "Rocher - Laborde", "is_installed": "OUI", "capacity": 65, "numdocksavailable": 35, "numbikesavailable": 30, "mechanical": 25, "ebike": 5, "is_renting": "OUI", "is_returning": "OUI", "duedate": "2024-01-06T15:23:59+00:00", "coordonnees_geo": {"lon": 2.322616316378116, "lat": 48.87590240712654}, "nom_arrondissement_communes": "Paris", "code_insee_commune": null}, {"stationcode": "18046", "name": "Etienne Jodelle - Saint Ouen", "is_installed": "OUI", "capacity": 33, "numdocksavailable": 30, "numbikesavailable": 1, "mechanical": 0, "ebike": 1, "is_renting": "OUI", "is_returning": "OUI", "duedate": "2024-01-06T15:23:38+00:00", "coordonnees_geo": {"lon": 2.326124420314341, "lat": 48.88794016394694}, "nom_arrondissement_communes": "Paris", "code_insee_commune": null}, {"stationcode": "31102", "name": "Boissi\u00e8re - Etienne Dolet", "is_installed": "OUI", "capacity": 21, "numdocksavailable": 20, "numbikesavailable": 1, "mechanical": 0, "ebike": 1, "is_renting": "OUI", "is_returning": "OUI", "duedate": "2024-01-06T15:22:41+00:00", "coordonnees_geo": {"lon": 2.4677312, "lat": 48.876111}, "nom_arrondissement_communes": "Montreuil", "code_insee_commune": null}, {"stationcode": "8054", "name": "Bertie Albrecht - Hoche", "is_installed": "OUI", "capacity": 32, "numdocksavailable": 31, "numbikesavailable": 1, "mechanical": 1, "ebike": 0, "is_renting": "OUI", "is_returning": "OUI", "duedate": "2024-01-06T15:14:54+00:00", "coordonnees_geo": {"lon": 2.301303138307601, "lat": 48.87614039826388}, "nom_arrondissement_communes": "Paris", "code_insee_commune": null}, {"stationcode": "15109", "name": "Cevennes - Bergers", "is_installed": "OUI", "capacity": 29, "numdocksavailable": 13, "numbikesavailable": 15, "mechanical": 8, "ebike": 7, "is_renting": "OUI", "is_returning": "OUI", "duedate": "2024-01-06T15:23:37+00:00", "coordonnees_geo": {"lon": 2.281037718057633, "lat": 48.84240765130395}, "nom_arrondissement_communes": "Paris", "code_insee_commune": null}, {"stationcode": "14012", "name": "Sibelle - Al\u00e9sia", "is_installed": "OUI", "capacity": 25, "numdocksavailable": 23, "numbikesavailable": 2, "mechanical": 0, "ebike": 2, "is_renting": "OUI", "is_returning": "OUI", "duedate": "2024-01-06T15:17:13+00:00", "coordonnees_geo": {"lon": 2.3384983465075493, "lat": 48.826701758539215}, "nom_arrondissement_communes": "Paris", "code_insee_commune": null}, {"stationcode": "35010", "name": "Hoche - Jean Lolive", "is_installed": "OUI", "capacity": 24, "numdocksavailable": 17, "numbikesavailable": 4, "mechanical": 2, "ebike": 2, "is_renting": "OUI", "is_returning": "OUI", "duedate": "2024-01-06T15:19:00+00:00", "coordonnees_geo": {"lon": 2.402843534946442, "lat": 48.89110239200789}, "nom_arrondissement_communes": "Pantin", "code_insee_commune": null}, {"stationcode": "10042", "name": "Enghien - Faubourg Poissonni\u00e8re", "is_installed": "OUI", "capacity": 33, "numdocksavailable": 29, "numbikesavailable": 2, "mechanical": 1, "ebike": 1, "is_renting": "OUI", "is_returning": "OUI", "duedate": "2024-01-06T15:20:19+00:00", "coordonnees_geo": {"lon": 2.3483952362828, "lat": 48.872420063053}, "nom_arrondissement_communes": "Paris", "code_insee_commune": null}, {"stationcode": "14124", "name": "David Weill - Parc Montsouris", "is_installed": "OUI", "capacity": 22, "numdocksavailable": 18, "numbikesavailable": 4, "mechanical": 1, "ebike": 3, "is_renting": "OUI", "is_returning": "OUI", "duedate": "2024-01-06T15:23:12+00:00", "coordonnees_geo": {"lon": 2.333725690841675, "lat": 48.821092374256104}, "nom_arrondissement_communes": "Paris", "code_insee_commune": null}, {"stationcode": "21006", "name": "Marcelin Berthelot", "is_installed": "OUI", "capacity": 27, "numdocksavailable": 12, "numbikesavailable": 15, "mechanical": 6, "ebike": 9, "is_renting": "OUI", "is_returning": "OUI", "duedate": "2024-01-06T15:22:55+00:00", "coordonnees_geo": {"lon": 2.233161628246308, "lat": 48.8415473058801}, "nom_arrondissement_communes": "Boulogne-Billancourt", "code_insee_commune": null}, {"stationcode": "44013", "name": "Edouard Tremblay - Julian Grimaux", "is_installed": "OUI", "capacity": 30, "numdocksavailable": 15, "numbikesavailable": 15, "mechanical": 14, "ebike": 1, "is_renting": "OUI", "is_returning": "OUI", "duedate": "2024-01-06T15:23:59+00:00", "coordonnees_geo": {"lon": 2.3723508417606, "lat": 48.781383825117}, "nom_arrondissement_communes": "Vitry-sur-Seine", "code_insee_commune": null}, {"stationcode": "31008", "name": "Fran\u00e7ois Debergue - Croix de Chavaux", "is_installed": "OUI", "capacity": 57, "numdocksavailable": 41, "numbikesavailable": 15, "mechanical": 8, "ebike": 7, "is_renting": "OUI", "is_returning": "OUI", "duedate": "2024-01-06T15:21:04+00:00", "coordonnees_geo": {"lon": 2.437578141689301, "lat": 48.857421708072074}, "nom_arrondissement_communes": "Montreuil", "code_insee_commune": null}, {"stationcode": "41404", "name": "Carnot - P\u00e2querettes", "is_installed": "OUI", "capacity": 26, "numdocksavailable": 11, "numbikesavailable": 13, "mechanical": 1, "ebike": 12, "is_renting": "OUI", "is_returning": "OUI", "duedate": "2024-01-06T15:20:32+00:00", "coordonnees_geo": {"lon": 2.4261841177940373, "lat": 48.79592939432515}, "nom_arrondissement_communes": "Alfortville", "code_insee_commune": null}, {"stationcode": "48010", "name": "Karl Marx", "is_installed": "OUI", "capacity": 16, "numdocksavailable": 5, "numbikesavailable": 11, "mechanical": 5, "ebike": 6, "is_renting": "OUI", "is_returning": "OUI", "duedate": "2024-01-06T15:19:25+00:00", "coordonnees_geo": {"lon": 2.3646667979455587, "lat": 48.784527937293184}, "nom_arrondissement_communes": "Villejuif", "code_insee_commune": null}, {"stationcode": "22203", "name": "Tertres - Fontaine", "is_installed": "OUI", "capacity": 28, "numdocksavailable": 26, "numbikesavailable": 1, "mechanical": 0, "ebike": 1, "is_renting": "OUI", "is_returning": "OUI", "duedate": "2024-01-06T15:23:54+00:00", "coordonnees_geo": {"lon": 2.306235730648041, "lat": 48.787553654715644}, "nom_arrondissement_communes": "Bagneux", "code_insee_commune": null}, {"stationcode": "41202", "name": "Gare Rer de Fontenay sous Bois", "is_installed": "OUI", "capacity": 61, "numdocksavailable": 46, "numbikesavailable": 15, "mechanical": 12, "ebike": 3, "is_renting": "OUI", "is_returning": "OUI", "duedate": "2024-01-06T15:21:54+00:00", "coordonnees_geo": {"lon": 2.4630465, "lat": 48.8436279}, "nom_arrondissement_communes": "Fontenay-sous-Bois", "code_insee_commune": null}, {"stationcode": "11030", "name": "Oberkampf - R\u00e9publique", "is_installed": "OUI", "capacity": 24, "numdocksavailable": 21, "numbikesavailable": 1, "mechanical": 0, "ebike": 1, "is_renting": "OUI", "is_returning": "OUI", "duedate": "2024-01-06T15:22:23+00:00", "coordonnees_geo": {"lon": 2.37611478491, "lat": 48.86531608707}, "nom_arrondissement_communes": "Paris", "code_insee_commune": null}, {"stationcode": "1119", "name": "Cossonnerie - S\u00e9bastopol", "is_installed": "OUI", "capacity": 24, "numdocksavailable": 3, "numbikesavailable": 22, "mechanical": 12, "ebike": 10, "is_renting": "OUI", "is_returning": "OUI", "duedate": "2024-01-06T15:22:06+00:00", "coordonnees_geo": {"lon": 2.349419631063938, "lat": 48.86132665908402}, "nom_arrondissement_communes": "Paris", "code_insee_commune": null}, {"stationcode": "5106", "name": "Cujas - Saint-Michel", "is_installed": "OUI", "capacity": 19, "numdocksavailable": 3, "numbikesavailable": 16, "mechanical": 1, "ebike": 15, "is_renting": "OUI", "is_returning": "OUI", "duedate": "2024-01-06T15:24:02+00:00", "coordonnees_geo": {"lon": 2.341831654854, "lat": 48.848191348584}, "nom_arrondissement_communes": "Paris", "code_insee_commune": null}, {"stationcode": "25003", "name": "Henri Ste-Claire D\u00e9ville - Paul H\u00e9roult", "is_installed": "OUI", "capacity": 24, "numdocksavailable": 15, "numbikesavailable": 9, "mechanical": 4, "ebike": 5, "is_renting": "OUI", "is_returning": "OUI", "duedate": "2024-01-06T15:23:59+00:00", "coordonnees_geo": {"lon": 2.172411, "lat": 48.892663}, "nom_arrondissement_communes": "Rueil-Malmaison", "code_insee_commune": null}, {"stationcode": "22402", "name": "Jean Jaur\u00e8s - Salvador Allende", "is_installed": "OUI", "capacity": 43, "numdocksavailable": 38, "numbikesavailable": 4, "mechanical": 3, "ebike": 1, "is_renting": "OUI", "is_returning": "OUI", "duedate": "2024-01-06T15:23:55+00:00", "coordonnees_geo": {"lon": 2.3026576638221745, "lat": 48.821475594736775}, "nom_arrondissement_communes": "Malakoff", "code_insee_commune": null}, {"stationcode": "9116", "name": "Victoire - Chauss\u00e9e d'Antin", "is_installed": "OUI", "capacity": 24, "numdocksavailable": 3, "numbikesavailable": 20, "mechanical": 16, "ebike": 4, "is_renting": "OUI", "is_returning": "OUI", "duedate": "2024-01-06T15:20:47+00:00", "coordonnees_geo": {"lon": 2.3316738009452824, "lat": 48.875065791004396}, "nom_arrondissement_communes": "Paris", "code_insee_commune": null}, {"stationcode": "11039", "name": "Richard Lenoir - Jean-Pierre Timbaud", "is_installed": "OUI", "capacity": 36, "numdocksavailable": 7, "numbikesavailable": 28, "mechanical": 23, "ebike": 5, "is_renting": "OUI", "is_returning": "OUI", "duedate": "2024-01-06T15:23:54+00:00", "coordonnees_geo": {"lon": 2.3693370749669, "lat": 48.865804276686}, "nom_arrondissement_communes": "Paris", "code_insee_commune": null}, {"stationcode": "17013", "name": "Legendre - Dulong", "is_installed": "OUI", "capacity": 23, "numdocksavailable": 19, "numbikesavailable": 3, "mechanical": 0, "ebike": 3, "is_renting": "OUI", "is_returning": "OUI", "duedate": "2024-01-06T15:20:39+00:00", "coordonnees_geo": {"lon": 2.316423766314984, "lat": 48.885325169402904}, "nom_arrondissement_communes": "Paris", "code_insee_commune": null}, {"stationcode": "19024", "name": "Botzaris - Parc des Buttes Chaumont", "is_installed": "OUI", "capacity": 20, "numdocksavailable": 19, "numbikesavailable": 0, "mechanical": 0, "ebike": 0, "is_renting": "OUI", "is_returning": "OUI", "duedate": "2024-01-06T15:23:20+00:00", "coordonnees_geo": {"lon": 2.381464, "lat": 48.877951}, "nom_arrondissement_communes": "Paris", "code_insee_commune": null}, {"stationcode": "41601", "name": "G\u00e9n\u00e9ral De Gaulle - Alouette", "is_installed": "OUI", "capacity": 26, "numdocksavailable": 20, "numbikesavailable": 5, "mechanical": 0, "ebike": 5, "is_renting": "OUI", "is_returning": "OUI", "duedate": "2024-01-06T15:21:16+00:00", "coordonnees_geo": {"lon": 2.4175664, "lat": 48.839109}, "nom_arrondissement_communes": "Saint-Mand\u00e9", "code_insee_commune": null}, {"stationcode": "17105", "name": "Place Madeleine Dani\u00e9lou", "is_installed": "OUI", "capacity": 42, "numdocksavailable": 27, "numbikesavailable": 13, "mechanical": 7, "ebike": 6, "is_renting": "OUI", "is_returning": "OUI", "duedate": "2024-01-06T15:22:25+00:00", "coordonnees_geo": {"lon": 2.282015, "lat": 48.883498}, "nom_arrondissement_communes": "Paris", "code_insee_commune": null}, {"stationcode": "18009", "name": "Jean-Fran\u00e7ois L\u00e9pine - Stephenson", "is_installed": "OUI", "capacity": 22, "numdocksavailable": 20, "numbikesavailable": 1, "mechanical": 1, "ebike": 0, "is_renting": "OUI", "is_returning": "OUI", "duedate": "2024-01-06T15:22:00+00:00", "coordonnees_geo": {"lon": 2.356855627529275, "lat": 48.88611466796807}, "nom_arrondissement_communes": "Paris", "code_insee_commune": null}, {"stationcode": "43005", "name": "Gare RER de Vincennes", "is_installed": "OUI", "capacity": 51, "numdocksavailable": 21, "numbikesavailable": 30, "mechanical": 22, "ebike": 8, "is_renting": "OUI", "is_returning": "OUI", "duedate": "2024-01-06T15:24:04+00:00", "coordonnees_geo": {"lon": 2.433383166790009, "lat": 48.847563015126106}, "nom_arrondissement_communes": "Vincennes", "code_insee_commune": null}, {"stationcode": "16136", "name": "Th\u00e9ophile Gautier - Fran\u00e7ois Millet", "is_installed": "OUI", "capacity": 30, "numdocksavailable": 20, "numbikesavailable": 10, "mechanical": 7, "ebike": 3, "is_renting": "OUI", "is_returning": "OUI", "duedate": "2024-01-06T15:16:41+00:00", "coordonnees_geo": {"lon": 2.273029983043671, "lat": 48.85034821320644}, "nom_arrondissement_communes": "Paris", "code_insee_commune": null}, {"stationcode": "19022", "name": "March\u00e9 Secr\u00e9tan", "is_installed": "OUI", "capacity": 26, "numdocksavailable": 19, "numbikesavailable": 6, "mechanical": 1, "ebike": 5, "is_renting": "OUI", "is_returning": "OUI", "duedate": "2024-01-06T15:23:48+00:00", "coordonnees_geo": {"lon": 2.373463287949562, "lat": 48.88125496379482}, "nom_arrondissement_communes": "Paris", "code_insee_commune": null}, {"stationcode": "11024", "name": "Mairie du 11\u00e8me", "is_installed": "OUI", "capacity": 51, "numdocksavailable": 30, "numbikesavailable": 16, "mechanical": 14, "ebike": 2, "is_renting": "OUI", "is_returning": "OUI", "duedate": "2024-01-06T15:22:54+00:00", "coordonnees_geo": {"lon": 2.3789759, "lat": 48.858925}, "nom_arrondissement_communes": "Paris", "code_insee_commune": null}]}