{"total_count": 1468, "results": [{"stationcode": "44015", "name": "Rouget de L'isle - Watteau", "is_installed": "OUI", "capacity": 20, "numdocksavailable": 16, "numbikesavailable": 4, "mechanical": 1, "ebike": 3, "is_renting": "OUI", "is_returning": "OUI", "duedate": "2023-12-06T16:10:03+00:00", "coordonnees_geo": {"lon": 2.3963020229163, "lat": 48.778192750803}, "nom_arrondissement_communes": "Vitry-sur-Seine", "code_insee_commune": null}, {"stationcode": "14111", "name": "Cassini - Denfert-Rochereau", "is_installed": "OUI", "capacity": 25, "numdocksavailable": 22, "numbikesavailable": 3, "mechanical": 1, "ebike": 2, "is_renting": "OUI", "is_returning": "OUI", "duedate": "2023-12-06T16:03:18+00:00", "coordonnees_geo": {"lon": 2.3360354080796, "lat": 48.837525839067}, "nom_arrondissement_communes": "Paris", "code_insee_commune": null}, {"stationcode": "11104", "name": "Charonne - Robert et Sonia Delaunay", "is_installed": "OUI", "capacity": 20, "numdocksavailable": 14, "numbikesavailable": 4, "mechanical": 3, "ebike": 1, "is_renting": "OUI", "is_returning": "OUI", "duedate": "2023-12-06T16:08:41+00:00", "coordonnees_geo": {"lon": 2.3925706744194, "lat": 48.855907555969}, "nom_arrondissement_communes": "Paris", "code_insee_commune": null}, {"stationcode": "13007", "name": "Le Brun - Gobelins", "is_installed": "OUI", "capacity": 48, "numdocksavailable": 37, "numbikesavailable": 10, "mechanical": 6, "ebike": 4, "is_renting": "OUI", "is_returning": "OUI", "duedate": "2023-12-06T16:10:20+00:00", "coordonnees_geo": {"lon": 2.3534681351338, "lat": 48.835092787824}, "nom_arrondissement_communes": "Paris", "code_insee_commune": null}, {"stationcode": "7002", "name": "Vaneau - S\u00e8vres", "is_installed": "OUI", "capacity": 35, "numdocksavailable": 27, "numbikesavailable": 4, "mechanical": 3, "ebike": 1, "is_renting": "OUI", "is_returning": "OUI", "duedate": "2023-12-06T16:09:25+00:00", "coordonnees_geo": {"lon": 2.3204218259346, "lat": 48.848563233059}, "nom_arrondissement_communes": "Paris", "code_insee_commune": null}, {"stationcode": "33006", "name": "Andr\u00e9 Karman - R\u00e9publique", "is_installed": "OUI", "capacity": 31, "numdocksavailable": 19, "numbikesavailable": 11, "mechanical": 5, "ebike": 6, "is_renting": "OUI", "is_returning": "OUI", "duedate": "2023-12-06T16:09:28+00:00", "coordonnees_geo": {"lon": 2.3851355910301213, "lat": 48.91039875761846}, "nom_arrondissement_communes": "Aubervilliers", "code_insee_commune": null}, {"stationcode": "42016", "name": "Pierre et Marie Curie - Maurice Thorez", "is_installed": "OUI", "capacity": 27, "numdocksavailable": 18, "numbikesavailable": 8, "mechanical": 1, "ebike": 7, "is_renting": "OUI", "is_returning": "OUI", "duedate": "2023-12-06T16:08:53+00:00", "coordonnees_geo": {"lon": 2.376804985105991, "lat": 48.81580226360801}, "nom_arrondissement_communes": "Ivry-sur-Seine", "code_insee_commune": null}, {"stationcode": "6021", "name": "Beaux-Arts - Bonaparte", "is_installed": "OUI", "capacity": 20, "numdocksavailable": 7, "numbikesavailable": 13, "mechanical": 3, "ebike": 10, "is_renting": "OUI", "is_returning": "OUI", "duedate": "2023-12-06T16:08:49+00:00", "coordonnees_geo": {"lon": 2.334851883351803, "lat": 48.856451985395786}, "nom_arrondissement_communes": "Paris", "code_insee_commune": null}, {"stationcode": "21010", "name": "Silly - Galli\u00e9ni", "is_installed": "OUI", "capacity": 25, "numdocksavailable": 12, "numbikesavailable": 12, "mechanical": 6, "ebike": 6, "is_renting": "OUI", "is_returning": "OUI", "duedate": "2023-12-06T16:08:14+00:00", "coordonnees_geo": {"lon": 2.2325500845909, "lat": 48.835583838706}, "nom_arrondissement_communes": "Boulogne-Billancourt", "code_insee_commune": null}, {"stationcode": "25006", "name": "Place Nelson Mandela", "is_installed": "OUI", "capacity": 22, "numdocksavailable": 20, "numbikesavailable": 1, "mechanical": 0, "ebike": 1, "is_renting": "OUI", "is_returning": "OUI", "duedate": "2023-12-06T16:03:29+00:00", "coordonnees_geo": {"lon": 2.1961666225454, "lat": 48.862453313908}, "nom_arrondissement_communes": "Rueil-Malmaison", "code_insee_commune": null}, {"stationcode": "15202", "name": "Bracion - P\u00e9riph\u00e9rique", "is_installed": "OUI", "capacity": 30, "numdocksavailable": 28, "numbikesavailable": 2, "mechanical": 1, "ebike": 1, "is_renting": "OUI", "is_returning": "OUI", "duedate": "2023-12-06T14:00:29+00:00", "coordonnees_geo": {"lon": 2.3004549373748, "lat": 48.826103771275}, "nom_arrondissement_communes": "Paris", "code_insee_commune": null}, {"stationcode": "17026", "name": "Jouffroy d'Abbans - Wagram", "is_installed": "OUI", "capacity": 40, "numdocksavailable": 27, "numbikesavailable": 11, "mechanical": 8, "ebike": 3, "is_renting": "OUI", "is_returning": "OUI", "duedate": "2023-12-06T16:10:19+00:00", "coordonnees_geo": {"lon": 2.301132157445, "lat": 48.881973298352}, "nom_arrondissement_communes": "Paris", "code_insee_commune": null}, {"stationcode": "8050", "name": "Bo\u00e9tie - Ponthieu", "is_installed": "OUI", "capacity": 33, "numdocksavailable": 8, "numbikesavailable": 24, "mechanical": 10, "ebike": 14, "is_renting": "OUI", "is_returning": "OUI", "duedate": "2023-12-06T16:09:34+00:00", "coordonnees_geo": {"lon": 2.3076787590981, "lat": 48.871417284355}, "nom_arrondissement_communes": "Paris", "code_insee_commune": null}, {"stationcode": "13101", "name": "Croulebarde - Corvisart", "is_installed": "OUI", "capacity": 34, "numdocksavailable": 15, "numbikesavailable": 16, "mechanical": 16, "ebike": 0, "is_renting": "OUI", "is_returning": "OUI", "duedate": "2023-12-06T16:09:59+00:00", "coordonnees_geo": {"lon": 2.3481646925210953, "lat": 48.830981659316855}, "nom_arrondissement_communes": "Paris", "code_insee_commune": null}, {"stationcode": "31024", "name": "Romainville - Vaillant-Couturier", "is_installed": "OUI", "capacity": 38, "numdocksavailable": 29, "numbikesavailable": 8, "mechanical": 0, "ebike": 8, "is_renting": "OUI", "is_returning": "OUI", "duedate": "2023-12-06T16:09:13+00:00", "coordonnees_geo": {"lon": 2.446748, "lat": 48.86785}, "nom_arrondissement_communes": "Montreuil", "code_insee_commune": null}, {"stationcode": "47007", "name": "Libert\u00e9 - Vert-de-Maisons", "is_installed": "OUI", "capacity": 20, "numdocksavailable": 20, "numbikesavailable": 0, "mechanical": 0, "ebike": 0, "is_renting": "NON", "is_returning": "NON", "duedate": "2023-09-16T03:55:03+00:00", "coordonnees_geo": {"lon": 2.4328628182411, "lat": 48.790147809608}, "nom_arrondissement_communes": "Maisons-Alfort", "code_insee_commune": null}, {"stationcode": "17025", "name": "Chazelles - Courcelles", "is_installed": "OUI", "capacity": 35, "numdocksavailable": 30, "numbikesavailable": 2, "mechanical": 0, "ebike": 2, "is_renting": "OUI", "is_returning": "OUI", "duedate": "2023-12-06T16:07:30+00:00", "coordonnees_geo": {"lon": 2.3034455627202988, "lat": 48.879406604954}, "nom_arrondissement_communes": "Paris", "code_insee_commune": null}, {"stationcode": "21326", "name": "Moulin de Pierre - Abb\u00e9 Gr\u00e9goire", "is_installed": "OUI", "capacity": 20, "numdocksavailable": 16, "numbikesavailable": 4, "mechanical": 0, "ebike": 4, "is_renting": "OUI", "is_returning": "OUI", "duedate": "2023-12-06T16:01:53+00:00", "coordonnees_geo": {"lon": 2.2754641655975, "lat": 48.822036188382}, "nom_arrondissement_communes": "Issy-les-Moulineaux", "code_insee_commune": null}, {"stationcode": "43002", "name": "Lagny - Victor Basch", "is_installed": "OUI", "capacity": 26, "numdocksavailable": 23, "numbikesavailable": 3, "mechanical": 1, "ebike": 2, "is_renting": "OUI", "is_returning": "OUI", "duedate": "2023-12-06T16:07:19+00:00", "coordonnees_geo": {"lon": 2.426325418925233, "lat": 48.84884147189881}, "nom_arrondissement_communes": "Vincennes", "code_insee_commune": null}, {"stationcode": "16138", "name": "Saint-Cloud - Hippodrome", "is_installed": "OUI", "capacity": 30, "numdocksavailable": 25, "numbikesavailable": 5, "mechanical": 3, "ebike": 2, "is_renting": "OUI", "is_returning": "OUI", "duedate": "2023-12-06T16:08:14+00:00", "coordonnees_geo": {"lon": 2.2549109905958176, "lat": 48.85772148887421}, "nom_arrondissement_communes": "Paris", "code_insee_commune": null}, {"stationcode": "21216", "name": "Louis Lejeune - Barb\u00e8s", "is_installed": "OUI", "capacity": 25, "numdocksavailable": 24, "numbikesavailable": 0, "mechanical": 0, "ebike": 0, "is_renting": "OUI", "is_returning": "OUI", "duedate": "2023-12-06T16:08:27+00:00", "coordonnees_geo": {"lon": 2.3267009854316716, "lat": 48.81807418981508}, "nom_arrondissement_communes": "Montrouge", "code_insee_commune": null}, {"stationcode": "22207", "name": "Rond-point du Dr Albert Schweitzer", "is_installed": "OUI", "capacity": 22, "numdocksavailable": 18, "numbikesavailable": 4, "mechanical": 0, "ebike": 4, "is_renting": "OUI", "is_returning": "OUI", "duedate": "2023-12-06T16:10:27+00:00", "coordonnees_geo": {"lon": 2.3143940046429634, "lat": 48.78980918988166}, "nom_arrondissement_communes": "Bagneux", "code_insee_commune": null}, {"stationcode": "7004", "name": "Raspail - Varenne", "is_installed": "OUI", "capacity": 18, "numdocksavailable": 5, "numbikesavailable": 11, "mechanical": 9, "ebike": 2, "is_renting": "OUI", "is_returning": "OUI", "duedate": "2023-12-06T16:08:34+00:00", "coordonnees_geo": {"lon": 2.3263905197382, "lat": 48.853147816545}, "nom_arrondissement_communes": "Paris", "code_insee_commune": null}, {"stationcode": "19027", "name": "Serrurier", "is_installed": "OUI", "capacity": 18, "numdocksavailable": 17, "numbikesavailable": 1, "mechanical": 0, "ebike": 1, "is_renting": "OUI", "is_returning": "OUI", "duedate": "2023-12-06T16:05:35+00:00", "coordonnees_geo": {"lon": 2.39806417375803, "lat": 48.8804934032465}, "nom_arrondissement_communes": "Paris", "code_insee_commune": null}, {"stationcode": "31028", "name": "Raspail Barb\u00e8s", "is_installed": "OUI", "capacity": 28, "numdocksavailable": 24, "numbikesavailable": 4, "mechanical": 1, "ebike": 3, "is_renting": "OUI", "is_returning": "OUI", "duedate": "2023-12-06T16:03:04+00:00", "coordonnees_geo": {"lon": 2.4247387, "lat": 48.8529945}, "nom_arrondissement_communes": "Montreuil", "code_insee_commune": null}, {"stationcode": "10013", "name": "Alibert - Jemmapes", "is_installed": "OUI", "capacity": 60, "numdocksavailable": 56, "numbikesavailable": 4, "mechanical": 1, "ebike": 3, "is_renting": "OUI", "is_returning": "OUI", "duedate": "2023-12-06T16:10:32+00:00", "coordonnees_geo": {"lon": 2.3661044619878, "lat": 48.871044051984}, "nom_arrondissement_communes": "Paris", "code_insee_commune": null}, {"stationcode": "16118", "name": "Michel-Ange - Parent de Rosan", "is_installed": "OUI", "capacity": 26, "numdocksavailable": 18, "numbikesavailable": 6, "mechanical": 2, "ebike": 4, "is_renting": "OUI", "is_returning": "OUI", "duedate": "2023-12-06T16:04:10+00:00", "coordonnees_geo": {"lon": 2.2584119439125065, "lat": 48.840579923690115}, "nom_arrondissement_communes": "Paris", "code_insee_commune": null}, {"stationcode": "8048", "name": "Marceau - Chaillot", "is_installed": "OUI", "capacity": 21, "numdocksavailable": 7, "numbikesavailable": 14, "mechanical": 4, "ebike": 10, "is_renting": "OUI", "is_returning": "OUI", "duedate": "2023-12-06T16:09:56+00:00", "coordonnees_geo": {"lon": 2.2986030816809, "lat": 48.868834023334}, "nom_arrondissement_communes": "Paris", "code_insee_commune": null}, {"stationcode": "14013", "name": "Liard - Amiral Mouchez", "is_installed": "OUI", "capacity": 14, "numdocksavailable": 7, "numbikesavailable": 7, "mechanical": 2, "ebike": 5, "is_renting": "OUI", "is_returning": "OUI", "duedate": "2023-12-06T16:09:20+00:00", "coordonnees_geo": {"lon": 2.342167, "lat": 48.8214169}, "nom_arrondissement_communes": "Paris", "code_insee_commune": null}, {"stationcode": "18111", "name": "F\u00e9lix Ziem - Armand Gauthier", "is_installed": "OUI", "capacity": 25, "numdocksavailable": 23, "numbikesavailable": 1, "mechanical": 0, "ebike": 1, "is_renting": "OUI", "is_returning": "OUI", "duedate": "2023-12-06T16:01:32+00:00", "coordonnees_geo": {"lon": 2.333393658804396, "lat": 48.88949630486821}, "nom_arrondissement_communes": "Paris", "code_insee_commune": null}, {"stationcode": "9002", "name": "Abbeville - Faubourg Poissonni\u00e8re", "is_installed": "OUI", "capacity": 14, "numdocksavailable": 13, "numbikesavailable": 1, "mechanical": 0, "ebike": 1, "is_renting": "OUI", "is_returning": "OUI", "duedate": "2023-12-06T16:10:00+00:00", "coordonnees_geo": {"lon": 2.349147, "lat": 48.879223}, "nom_arrondissement_communes": "Paris", "code_insee_commune": null}, {"stationcode": "16110", "name": "Octave Feuillet - Alb\u00e9ric Magnard", "is_installed": "OUI", "capacity": 21, "numdocksavailable": 18, "numbikesavailable": 3, "mechanical": 1, "ebike": 2, "is_renting": "OUI", "is_returning": "OUI", "duedate": "2023-12-06T16:10:14+00:00", "coordonnees_geo": {"lon": 2.2730283066630363, "lat": 48.86106902949534}, "nom_arrondissement_communes": "Paris", "code_insee_commune": null}, {"stationcode": "9001", "name": "Bellefond - Poissonni\u00e8re", "is_installed": "OUI", "capacity": 17, "numdocksavailable": 12, "numbikesavailable": 4, "mechanical": 2, "ebike": 2, "is_renting": "OUI", "is_returning": "OUI", "duedate": "2023-12-06T16:07:08+00:00", "coordonnees_geo": {"lon": 2.348463758826256, "lat": 48.87759897050706}, "nom_arrondissement_communes": "Paris", "code_insee_commune": null}, {"stationcode": "10162", "name": "Alexandre Parodi - Quai de Valmy", "is_installed": "OUI", "capacity": 24, "numdocksavailable": 22, "numbikesavailable": 1, "mechanical": 0, "ebike": 1, "is_renting": "OUI", "is_returning": "OUI", "duedate": "2023-12-06T16:09:29+00:00", "coordonnees_geo": {"lon": 2.366596162319184, "lat": 48.87935941942529}, "nom_arrondissement_communes": "Paris", "code_insee_commune": null}, {"stationcode": "10029", "name": "Dunkerque - Rocroy", "is_installed": "OUI", "capacity": 24, "numdocksavailable": 18, "numbikesavailable": 6, "mechanical": 2, "ebike": 4, "is_renting": "OUI", "is_returning": "OUI", "duedate": "2023-12-06T16:10:29+00:00", "coordonnees_geo": {"lon": 2.351464, "lat": 48.880726}, "nom_arrondissement_communes": "Paris", "code_insee_commune": null}, {"stationcode": "5005", "name": "Gay Lussac - Saint-Jacques", "is_installed": "OUI", "capacity": 24, "numdocksavailable": 24, "numbikesavailable": 0, "mechanical": 0, "ebike": 0, "is_renting": "OUI", "is_returning": "OUI", "duedate": "2023-12-06T16:10:21+00:00", "coordonnees_geo": {"lon": 2.341923944866407, "lat": 48.844730256132095}, "nom_arrondissement_communes": "Paris", "code_insee_commune": null}, {"stationcode": "41303", "name": "Gare de Nogent-le-Perreux", "is_installed": "OUI", "capacity": 32, "numdocksavailable": 14, "numbikesavailable": 17, "mechanical": 15, "ebike": 2, "is_renting": "OUI", "is_returning": "OUI", "duedate": "2023-12-06T16:08:18+00:00", "coordonnees_geo": {"lon": 2.493693307042122, "lat": 48.83842553348809}, "nom_arrondissement_communes": "Nogent-sur-Marne", "code_insee_commune": null}, {"stationcode": "9106", "name": "Boudreau - Auber", "is_installed": "OUI", "capacity": 14, "numdocksavailable": 6, "numbikesavailable": 7, "mechanical": 2, "ebike": 5, "is_renting": "OUI", "is_returning": "OUI", "duedate": "2023-12-06T16:10:22+00:00", "coordonnees_geo": {"lon": 2.329423, "lat": 48.87219}, "nom_arrondissement_communes": "Paris", "code_insee_commune": null}, {"stationcode": "21323", "name": "Charlot - Stade Gabriel Voisin", "is_installed": "OUI", "capacity": 31, "numdocksavailable": 1, "numbikesavailable": 22, "mechanical": 17, "ebike": 5, "is_renting": "OUI", "is_returning": "OUI", "duedate": "2023-12-06T16:08:51+00:00", "coordonnees_geo": {"lon": 2.268122527474, "lat": 48.827228120536}, "nom_arrondissement_communes": "Issy-les-Moulineaux", "code_insee_commune": null}, {"stationcode": "17040", "name": "Pereire - Ternes", "is_installed": "OUI", "capacity": 48, "numdocksavailable": 26, "numbikesavailable": 22, "mechanical": 17, "ebike": 5, "is_renting": "OUI", "is_returning": "OUI", "duedate": "2023-12-06T16:05:15+00:00", "coordonnees_geo": {"lon": 2.288012132048607, "lat": 48.87973954830735}, "nom_arrondissement_communes": "Paris", "code_insee_commune": null}, {"stationcode": "31103", "name": "Gare Rosny-Bois-Perrier", "is_installed": "OUI", "capacity": 36, "numdocksavailable": 11, "numbikesavailable": 23, "mechanical": 4, "ebike": 19, "is_renting": "OUI", "is_returning": "OUI", "duedate": "2023-12-06T16:09:44+00:00", "coordonnees_geo": {"lon": 2.480436824262142, "lat": 48.88115023337061}, "nom_arrondissement_communes": "Rosny-sous-Bois", "code_insee_commune": null}, {"stationcode": "19105", "name": "Ambroise Rendu - Porte Brunet", "is_installed": "OUI", "capacity": 17, "numdocksavailable": 15, "numbikesavailable": 2, "mechanical": 0, "ebike": 2, "is_renting": "OUI", "is_returning": "OUI", "duedate": "2023-12-06T16:10:37+00:00", "coordonnees_geo": {"lon": 2.395733, "lat": 48.883667}, "nom_arrondissement_communes": "Paris", "code_insee_commune": null}, {"stationcode": "31706", "name": "Ch\u00e2teau - R\u00e9publique", "is_installed": "OUI", "capacity": 26, "numdocksavailable": 22, "numbikesavailable": 3, "mechanical": 1, "ebike": 2, "is_renting": "OUI", "is_returning": "OUI", "duedate": "2023-12-06T16:06:56+00:00", "coordonnees_geo": {"lon": 2.4155035614967, "lat": 48.862923800596}, "nom_arrondissement_communes": "Bagnolet", "code_insee_commune": null}, {"stationcode": "5020", "name": "Institut du Monde Arabe - Saint-Germain", "is_installed": "OUI", "capacity": 40, "numdocksavailable": 13, "numbikesavailable": 24, "mechanical": 21, "ebike": 3, "is_renting": "OUI", "is_returning": "OUI", "duedate": "2023-12-06T16:08:12+00:00", "coordonnees_geo": {"lon": 2.3558086529374, "lat": 48.849063299501}, "nom_arrondissement_communes": "Paris", "code_insee_commune": null}, {"stationcode": "19015", "name": "Thionville - Ourcq", "is_installed": "OUI", "capacity": 24, "numdocksavailable": 21, "numbikesavailable": 3, "mechanical": 1, "ebike": 2, "is_renting": "OUI", "is_returning": "OUI", "duedate": "2023-12-06T16:04:50+00:00", "coordonnees_geo": {"lon": 2.3833653330802917, "lat": 48.88917613743794}, "nom_arrondissement_communes": "Paris", "code_insee_commune": null}, {"stationcode": "19003", "name": "Quai de la Seine", "is_installed": "OUI", "capacity": 24, "numdocksavailable": 20, "numbikesavailable": 3, "mechanical": 1, "ebike": 2, "is_renting": "OUI", "is_returning": "OUI", "duedate": "2023-12-06T16:09:47+00:00", "coordonnees_geo": {"lon": 2.3703941702842717, "lat": 48.884492238407525}, "nom_arrondissement_communes": "Paris", "code_insee_commune": null}, {"stationcode": "8036", "name": "Lisbonne - Monceau", "is_installed": "OUI", "capacity": 33, "numdocksavailable": 8, "numbikesavailable": 25, "mechanical": 9, "ebike": 16, "is_renting": "OUI", "is_returning": "OUI", "duedate": "2023-12-06T16:10:19+00:00", "coordonnees_geo": {"lon": 2.309694221419506, "lat": 48.87745567681383}, "nom_arrondissement_communes": "Paris", "code_insee_commune": null}, {"stationcode": "16026", "name": "Ranelagh - Mozart", "is_installed": "OUI", "capacity": 23, "numdocksavailable": 17, "numbikesavailable": 4, "mechanical": 2, "ebike": 2, "is_renting": "OUI", "is_returning": "OUI", "duedate": "2023-12-06T16:07:18+00:00", "coordonnees_geo": {"lon": 2.2704418, "lat": 48.8554439}, "nom_arrondissement_communes": "Paris", "code_insee_commune": null}, {"stationcode": "9028", "name": "Moncey - Blanche", "is_installed": "OUI", "capacity": 17, "numdocksavailable": 9, "numbikesavailable": 6, "mechanical": 2, "ebike": 4, "is_renting": "OUI", "is_returning": "OUI", "duedate": "2023-12-06T16:09:39+00:00", "coordonnees_geo": {"lon": 2.3310810327529907, "lat": 48.88006587474148}, "nom_arrondissement_communes": "Paris", "code_insee_commune": null}, {"stationcode": "10107", "name": "Gare du Nord - H\u00f4pital Lariboisi\u00e8re", "is_installed": "OUI", "capacity": 49, "numdocksavailable": 47, "numbikesavailable": 1, "mechanical": 0, "ebike": 1, "is_renting": "OUI", "is_returning": "OUI", "duedate": "2023-12-06T16:09:36+00:00", "coordonnees_geo": {"lon": 2.352339, "lat": 48.881949}, "nom_arrondissement_communes": "Paris", "code_insee_commune": null}, {"stationcode": "26002", "name": "Redoute - Les Courtilles", "is_installed": "OUI", "capacity": 40, "numdocksavailable": 17, "numbikesavailable": 21, "mechanical": 18, "ebike": 3, "is_renting": "OUI", "is_returning": "OUI", "duedate": "2023-12-06T16:10:34+00:00", "coordonnees_geo": {"lon": 2.2836696356535, "lat": 48.929867194519}, "nom_arrondissement_communes": "Asni\u00e8res-sur-Seine", "code_insee_commune": null}, {"stationcode": "17043", "name": "Belidor - Gouvion-Saint-Cyr", "is_installed": "OUI", "capacity": 39, "numdocksavailable": 29, "numbikesavailable": 10, "mechanical": 3, "ebike": 7, "is_renting": "OUI", "is_returning": "OUI", "duedate": "2023-12-06T16:10:11+00:00", "coordonnees_geo": {"lon": 2.2854680567979813, "lat": 48.88022154052015}, "nom_arrondissement_communes": "Paris", "code_insee_commune": null}, {"stationcode": "19026", "name": "Place de Rhin et Danube", "is_installed": "OUI", "capacity": 17, "numdocksavailable": 13, "numbikesavailable": 4, "mechanical": 0, "ebike": 4, "is_renting": "OUI", "is_returning": "OUI", "duedate": "2023-12-06T16:09:46+00:00", "coordonnees_geo": {"lon": 2.392586767673493, "lat": 48.88192765861766}, "nom_arrondissement_communes": "Paris", "code_insee_commune": null}, {"stationcode": "16039", "name": "Exelmans - Versailles", "is_installed": "OUI", "capacity": 49, "numdocksavailable": 43, "numbikesavailable": 6, "mechanical": 3, "ebike": 3, "is_renting": "OUI", "is_returning": "OUI", "duedate": "2023-12-06T16:10:14+00:00", "coordonnees_geo": {"lon": 2.264390252530575, "lat": 48.84097491091973}, "nom_arrondissement_communes": "Paris", "code_insee_commune": null}, {"stationcode": "45003", "name": "11 Novembre 1918 - 8 Mai 1945", "is_installed": "OUI", "capacity": 36, "numdocksavailable": 14, "numbikesavailable": 22, "mechanical": 9, "ebike": 13, "is_renting": "OUI", "is_returning": "OUI", "duedate": "2023-12-06T16:09:22+00:00", "coordonnees_geo": {"lon": 2.5382421165704727, "lat": 48.80889533774377}, "nom_arrondissement_communes": "Champigny-sur-Marne", "code_insee_commune": null}, {"stationcode": "11002", "name": "Roquette - Thi\u00e9r\u00e9", "is_installed": "OUI", "capacity": 23, "numdocksavailable": 12, "numbikesavailable": 8, "mechanical": 7, "ebike": 1, "is_renting": "OUI", "is_returning": "OUI", "duedate": "2023-12-06T16:09:46+00:00", "coordonnees_geo": {"lon": 2.3733686318721463, "lat": 48.85507930579506}, "nom_arrondissement_communes": "Paris", "code_insee_commune": null}, {"stationcode": "19043", "name": "Delphine Seyrig - G\u00e9n\u00e9ral Leclerc", "is_installed": "OUI", "capacity": 53, "numdocksavailable": 42, "numbikesavailable": 11, "mechanical": 4, "ebike": 7, "is_renting": "OUI", "is_returning": "OUI", "duedate": "2023-12-06T16:06:51+00:00", "coordonnees_geo": {"lon": 2.39790290594101, "lat": 48.893923963057865}, "nom_arrondissement_communes": "Pantin", "code_insee_commune": null}, {"stationcode": "5032", "name": "Panth\u00e9on - Valette", "is_installed": "OUI", "capacity": 39, "numdocksavailable": 23, "numbikesavailable": 12, "mechanical": 2, "ebike": 10, "is_renting": "OUI", "is_returning": "OUI", "duedate": "2023-12-06T16:09:24+00:00", "coordonnees_geo": {"lon": 2.3464982619671075, "lat": 48.84702057165222}, "nom_arrondissement_communes": "Paris", "code_insee_commune": null}, {"stationcode": "20042", "name": "Pyr\u00e9n\u00e9es - Emmery", "is_installed": "OUI", "capacity": 40, "numdocksavailable": 38, "numbikesavailable": 2, "mechanical": 0, "ebike": 2, "is_renting": "OUI", "is_returning": "OUI", "duedate": "2023-12-06T16:09:20+00:00", "coordonnees_geo": {"lon": 2.392039597034455, "lat": 48.872010281270974}, "nom_arrondissement_communes": "Paris", "code_insee_commune": null}, {"stationcode": "43401", "name": "Gare RER - Canadiens", "is_installed": "OUI", "capacity": 45, "numdocksavailable": 40, "numbikesavailable": 5, "mechanical": 4, "ebike": 1, "is_renting": "OUI", "is_returning": "OUI", "duedate": "2023-12-06T16:09:51+00:00", "coordonnees_geo": {"lon": 2.464176752459464, "lat": 48.81995307955795}, "nom_arrondissement_communes": "Joinville-le-Pont", "code_insee_commune": null}, {"stationcode": "31022", "name": "Mairie de Montreuil", "is_installed": "OUI", "capacity": 52, "numdocksavailable": 49, "numbikesavailable": 2, "mechanical": 0, "ebike": 2, "is_renting": "OUI", "is_returning": "OUI", "duedate": "2023-12-06T16:10:35+00:00", "coordonnees_geo": {"lon": 2.440614402294159, "lat": 48.86131452758348}, "nom_arrondissement_communes": "Montreuil", "code_insee_commune": null}, {"stationcode": "14003", "name": "Schoelcher - Raspail", "is_installed": "OUI", "capacity": 50, "numdocksavailable": 49, "numbikesavailable": 1, "mechanical": 0, "ebike": 1, "is_renting": "OUI", "is_returning": "OUI", "duedate": "2023-12-06T16:07:31+00:00", "coordonnees_geo": {"lon": 2.3312794080411474, "lat": 48.83681733526843}, "nom_arrondissement_communes": "Paris", "code_insee_commune": null}, {"stationcode": "11113", "name": "Richard Lenoir - Republique", "is_installed": "OUI", "capacity": 58, "numdocksavailable": 54, "numbikesavailable": 2, "mechanical": 1, "ebike": 1, "is_renting": "OUI", "is_returning": "OUI", "duedate": "2023-12-06T16:07:48+00:00", "coordonnees_geo": {"lon": 2.3692541, "lat": 48.8667175}, "nom_arrondissement_communes": "Paris", "code_insee_commune": null}, {"stationcode": "10016", "name": "R\u00e9collets - Square Villemin", "is_installed": "OUI", "capacity": 17, "numdocksavailable": 15, "numbikesavailable": 2, "mechanical": 0, "ebike": 2, "is_renting": "OUI", "is_returning": "OUI", "duedate": "2023-12-06T16:06:19+00:00", "coordonnees_geo": {"lon": 2.359801238597928, "lat": 48.875034655883944}, "nom_arrondissement_communes": "Paris", "code_insee_commune": null}, {"stationcode": "5018", "name": "Mutualit\u00e9", "is_installed": "OUI", "capacity": 37, "numdocksavailable": 5, "numbikesavailable": 32, "mechanical": 20, "ebike": 12, "is_renting": "OUI", "is_returning": "OUI", "duedate": "2023-12-06T16:10:13+00:00", "coordonnees_geo": {"lon": 2.3502873256803, "lat": 48.848225572724}, "nom_arrondissement_communes": "Paris", "code_insee_commune": null}, {"stationcode": "15042", "name": "Henry Farman", "is_installed": "OUI", "capacity": 16, "numdocksavailable": 3, "numbikesavailable": 7, "mechanical": 6, "ebike": 1, "is_renting": "OUI", "is_returning": "OUI", "duedate": "2023-12-06T16:09:56+00:00", "coordonnees_geo": {"lon": 2.2713854536414146, "lat": 48.83372430280548}, "nom_arrondissement_communes": "Paris", "code_insee_commune": null}, {"stationcode": "20112", "name": "Jourdain - Place des Grandes Rigoles", "is_installed": "OUI", "capacity": 22, "numdocksavailable": 20, "numbikesavailable": 2, "mechanical": 0, "ebike": 2, "is_renting": "OUI", "is_returning": "OUI", "duedate": "2023-12-06T16:08:30+00:00", "coordonnees_geo": {"lon": 2.38959476351738, "lat": 48.87403113727167}, "nom_arrondissement_communes": "Paris", "code_insee_commune": null}, {"stationcode": "42706", "name": "Roger Salengro - Fontainebleau", "is_installed": "OUI", "capacity": 25, "numdocksavailable": 17, "numbikesavailable": 8, "mechanical": 4, "ebike": 4, "is_renting": "OUI", "is_returning": "OUI", "duedate": "2023-12-06T16:10:40+00:00", "coordonnees_geo": {"lon": 2.3611663654447, "lat": 48.814548697325}, "nom_arrondissement_communes": "Le Kremlin-Bic\u00eatre", "code_insee_commune": null}, {"stationcode": "15104", "name": "H\u00f4pital Europ\u00e9en Georges Pompidou", "is_installed": "OUI", "capacity": 64, "numdocksavailable": 14, "numbikesavailable": 48, "mechanical": 43, "ebike": 5, "is_renting": "OUI", "is_returning": "OUI", "duedate": "2023-12-06T16:09:33+00:00", "coordonnees_geo": {"lon": 2.275374233722687, "lat": 48.83769531916335}, "nom_arrondissement_communes": "Paris", "code_insee_commune": null}, {"stationcode": "19120", "name": "Carducci - Place Hannah Arendt", "is_installed": "OUI", "capacity": 27, "numdocksavailable": 26, "numbikesavailable": 1, "mechanical": 1, "ebike": 0, "is_renting": "OUI", "is_returning": "OUI", "duedate": "2023-12-06T16:03:05+00:00", "coordonnees_geo": {"lon": 2.3860743641853337, "lat": 48.877436681515796}, "nom_arrondissement_communes": "Paris", "code_insee_commune": null}, {"stationcode": "5004", "name": "Saint-Jacques - Val de Gr\u00e2ce", "is_installed": "OUI", "capacity": 19, "numdocksavailable": 18, "numbikesavailable": 1, "mechanical": 0, "ebike": 1, "is_renting": "OUI", "is_returning": "OUI", "duedate": "2023-12-06T16:10:18+00:00", "coordonnees_geo": {"lon": 2.3413893, "lat": 48.8417514}, "nom_arrondissement_communes": "Paris", "code_insee_commune": null}, {"stationcode": "19103", "name": "Manin - Carri\u00e8res d'Am\u00e9rique", "is_installed": "OUI", "capacity": 20, "numdocksavailable": 15, "numbikesavailable": 5, "mechanical": 1, "ebike": 4, "is_renting": "OUI", "is_returning": "OUI", "duedate": "2023-12-06T16:10:36+00:00", "coordonnees_geo": {"lon": 2.3919698596000676, "lat": 48.88467214209463}, "nom_arrondissement_communes": "Paris", "code_insee_commune": null}, {"stationcode": "12114", "name": "Victor Hugo - Jeanne Jugan", "is_installed": "OUI", "capacity": 28, "numdocksavailable": 26, "numbikesavailable": 2, "mechanical": 1, "ebike": 1, "is_renting": "OUI", "is_returning": "OUI", "duedate": "2023-12-06T16:09:27+00:00", "coordonnees_geo": {"lon": 2.415081394834419, "lat": 48.843949064031825}, "nom_arrondissement_communes": "Paris", "code_insee_commune": null}, {"stationcode": "46003", "name": "Conservatoire de Musique", "is_installed": "OUI", "capacity": 25, "numdocksavailable": 8, "numbikesavailable": 17, "mechanical": 15, "ebike": 2, "is_renting": "OUI", "is_returning": "OUI", "duedate": "2023-12-06T16:09:00+00:00", "coordonnees_geo": {"lon": 2.4034014344215398, "lat": 48.77093586667601}, "nom_arrondissement_communes": "Choisy-le-Roi", "code_insee_commune": null}, {"stationcode": "41209", "name": "Cimeti\u00e8re de Fontenay-sous-Bois", "is_installed": "OUI", "capacity": 15, "numdocksavailable": 13, "numbikesavailable": 2, "mechanical": 1, "ebike": 1, "is_renting": "OUI", "is_returning": "OUI", "duedate": "2023-12-06T16:04:52+00:00", "coordonnees_geo": {"lon": 2.4787822365760808, "lat": 48.84706173362218}, "nom_arrondissement_communes": "Fontenay-sous-Bois", "code_insee_commune": null}, {"stationcode": "21312", "name": "Lucie Aubrac - Fort", "is_installed": "OUI", "capacity": 30, "numdocksavailable": 27, "numbikesavailable": 3, "mechanical": 0, "ebike": 3, "is_renting": "OUI", "is_returning": "OUI", "duedate": "2023-12-06T16:01:17+00:00", "coordonnees_geo": {"lon": 2.271184623241425, "lat": 48.818144834008976}, "nom_arrondissement_communes": "Issy-les-Moulineaux", "code_insee_commune": null}, {"stationcode": "13001", "name": "Port-Royal - H\u00f4pital du Val-de-Gr\u00e2ce", "is_installed": "OUI", "capacity": 18, "numdocksavailable": 12, "numbikesavailable": 6, "mechanical": 2, "ebike": 4, "is_renting": "OUI", "is_returning": "OUI", "duedate": "2023-12-06T16:07:43+00:00", "coordonnees_geo": {"lon": 2.3448138346607, "lat": 48.837668272811}, "nom_arrondissement_communes": "Paris", "code_insee_commune": null}, {"stationcode": "8045", "name": "Place de la Reine Astrid", "is_installed": "OUI", "capacity": 54, "numdocksavailable": 16, "numbikesavailable": 37, "mechanical": 22, "ebike": 15, "is_renting": "OUI", "is_returning": "OUI", "duedate": "2023-12-06T16:10:07+00:00", "coordonnees_geo": {"lon": 2.3025491823859, "lat": 48.864920982538}, "nom_arrondissement_communes": "Paris", "code_insee_commune": null}, {"stationcode": "42014", "name": "Place Marcel Cachin", "is_installed": "OUI", "capacity": 32, "numdocksavailable": 6, "numbikesavailable": 26, "mechanical": 24, "ebike": 2, "is_renting": "OUI", "is_returning": "OUI", "duedate": "2023-12-06T16:07:43+00:00", "coordonnees_geo": {"lon": 2.39090770483017, "lat": 48.81411442356866}, "nom_arrondissement_communes": "Ivry-sur-Seine", "code_insee_commune": null}, {"stationcode": "17203", "name": "Place de la Porte de Champeret", "is_installed": "NON", "capacity": 0, "numdocksavailable": 0, "numbikesavailable": 0, "mechanical": 0, "ebike": 0, "is_renting": "NON", "is_returning": "NON", "duedate": "2023-07-25T10:08:24+00:00", "coordonnees_geo": {"lon": 2.2917001576821, "lat": 48.886062068226}, "nom_arrondissement_communes": "Paris", "code_insee_commune": null}, {"stationcode": "8017", "name": "Rocher - Laborde", "is_installed": "OUI", "capacity": 65, "numdocksavailable": 49, "numbikesavailable": 16, "mechanical": 13, "ebike": 3, "is_renting": "OUI", "is_returning": "OUI", "duedate": "2023-12-06T16:10:25+00:00", "coordonnees_geo": {"lon": 2.322616316378116, "lat": 48.87590240712654}, "nom_arrondissement_communes": "Paris", "code_insee_commune": null}, {"stationcode": "15106", "name": "Grenelle - Violet", "is_installed": "OUI", "capacity": 35, "numdocksavailable": 2, "numbikesavailable": 33, "mechanical": 31, "ebike": 2, "is_renting": "OUI", "is_returning": "OUI", "duedate": "2023-12-06T16:08:53+00:00", "coordonnees_geo": {"lon": 2.294612042605877, "lat": 48.84993035512154}, "nom_arrondissement_communes": "Paris", "code_insee_commune": null}, {"stationcode": "5124", "name": "Erasme - Ulm", "is_installed": "OUI", "capacity": 24, "numdocksavailable": 22, "numbikesavailable": 1, "mechanical": 0, "ebike": 1, "is_renting": "OUI", "is_returning": "OUI", "duedate": "2023-12-06T16:10:27+00:00", "coordonnees_geo": {"lon": 2.3445946723222733, "lat": 48.84264375274712}, "nom_arrondissement_communes": "Paris", "code_insee_commune": null}, {"stationcode": "14106", "name": "Marc Sangnier - Porte de Vanves", "is_installed": "OUI", "capacity": 21, "numdocksavailable": 20, "numbikesavailable": 0, "mechanical": 0, "ebike": 0, "is_renting": "OUI", "is_returning": "OUI", "duedate": "2023-12-06T16:04:30+00:00", "coordonnees_geo": {"lon": 2.3107116669416428, "lat": 48.825218683556734}, "nom_arrondissement_communes": "Paris", "code_insee_commune": null}, {"stationcode": "8054", "name": "Bertie Albrecht - Hoche", "is_installed": "OUI", "capacity": 32, "numdocksavailable": 25, "numbikesavailable": 7, "mechanical": 4, "ebike": 3, "is_renting": "OUI", "is_returning": "OUI", "duedate": "2023-12-06T16:10:14+00:00", "coordonnees_geo": {"lon": 2.301303138307601, "lat": 48.87614039826388}, "nom_arrondissement_communes": "Paris", "code_insee_commune": null}, {"stationcode": "21209", "name": "Moli\u00e8re - R\u00e9publique", "is_installed": "OUI", "capacity": 30, "numdocksavailable": 25, "numbikesavailable": 5, "mechanical": 2, "ebike": 3, "is_renting": "OUI", "is_returning": "OUI", "duedate": "2023-12-06T16:05:55+00:00", "coordonnees_geo": {"lon": 2.3145738624448158, "lat": 48.81111581390707}, "nom_arrondissement_communes": "Montrouge", "code_insee_commune": null}, {"stationcode": "35010", "name": "Hoche - Jean Lolive", "is_installed": "OUI", "capacity": 24, "numdocksavailable": 22, "numbikesavailable": 1, "mechanical": 0, "ebike": 1, "is_renting": "OUI", "is_returning": "OUI", "duedate": "2023-12-06T16:10:01+00:00", "coordonnees_geo": {"lon": 2.402843534946442, "lat": 48.89110239200789}, "nom_arrondissement_communes": "Pantin", "code_insee_commune": null}, {"stationcode": "14124", "name": "David Weill - Parc Montsouris", "is_installed": "OUI", "capacity": 22, "numdocksavailable": 16, "numbikesavailable": 6, "mechanical": 2, "ebike": 4, "is_renting": "OUI", "is_returning": "OUI", "duedate": "2023-12-06T16:09:48+00:00", "coordonnees_geo": {"lon": 2.333725690841675, "lat": 48.821092374256104}, "nom_arrondissement_communes": "Paris", "code_insee_commune": null}, {"stationcode": "15110", "name": "Place Robert Guillemard", "is_installed": "OUI", "capacity": 24, "numdocksavailable": 4, "numbikesavailable": 17, "mechanical": 14, "ebike": 3, "is_renting": "OUI", "is_returning": "OUI", "duedate": "2023-12-06T16:07:51+00:00", "coordonnees_geo": {"lon": 2.2811267160086417, "lat": 48.836191728066666}, "nom_arrondissement_communes": "Paris", "code_insee_commune": null}, {"stationcode": "20131", "name": "Repos - Cimeti\u00e8re du P\u00e8re Lachaise", "is_installed": "OUI", "capacity": 33, "numdocksavailable": 30, "numbikesavailable": 3, "mechanical": 0, "ebike": 3, "is_renting": "OUI", "is_returning": "OUI", "duedate": "2023-12-06T16:06:27+00:00", "coordonnees_geo": {"lon": 2.3896131366845, "lat": 48.859358523593}, "nom_arrondissement_communes": "Paris", "code_insee_commune": null}, {"stationcode": "11046", "name": "Place de la R\u00e9publique - Voltaire", "is_installed": "OUI", "capacity": 19, "numdocksavailable": 13, "numbikesavailable": 5, "mechanical": 3, "ebike": 2, "is_renting": "OUI", "is_returning": "OUI", "duedate": "2023-12-06T16:09:57+00:00", "coordonnees_geo": {"lon": 2.3654810339212, "lat": 48.866830968942}, "nom_arrondissement_communes": "Paris", "code_insee_commune": null}, {"stationcode": "31008", "name": "Fran\u00e7ois Debergue - Croix de Chavaux", "is_installed": "OUI", "capacity": 57, "numdocksavailable": 53, "numbikesavailable": 4, "mechanical": 3, "ebike": 1, "is_renting": "OUI", "is_returning": "OUI", "duedate": "2023-12-06T16:08:00+00:00", "coordonnees_geo": {"lon": 2.437578141689301, "lat": 48.857421708072074}, "nom_arrondissement_communes": "Montreuil", "code_insee_commune": null}, {"stationcode": "44003", "name": "Gabriel P\u00e9ri - Danielle Casanova", "is_installed": "OUI", "capacity": 20, "numdocksavailable": 13, "numbikesavailable": 7, "mechanical": 6, "ebike": 1, "is_renting": "OUI", "is_returning": "OUI", "duedate": "2023-12-06T16:09:26+00:00", "coordonnees_geo": {"lon": 2.4025777, "lat": 48.790114}, "nom_arrondissement_communes": "Vitry-sur-Seine", "code_insee_commune": null}, {"stationcode": "15034", "name": "Lakanal - Commerce", "is_installed": "OUI", "capacity": 53, "numdocksavailable": 35, "numbikesavailable": 16, "mechanical": 12, "ebike": 4, "is_renting": "OUI", "is_returning": "OUI", "duedate": "2023-12-06T16:10:10+00:00", "coordonnees_geo": {"lon": 2.294059172272682, "lat": 48.84442462786544}, "nom_arrondissement_communes": "Paris", "code_insee_commune": null}, {"stationcode": "41404", "name": "Carnot - P\u00e2querettes", "is_installed": "OUI", "capacity": 26, "numdocksavailable": 11, "numbikesavailable": 15, "mechanical": 11, "ebike": 4, "is_renting": "OUI", "is_returning": "OUI", "duedate": "2023-12-06T16:10:01+00:00", "coordonnees_geo": {"lon": 2.4261841177940373, "lat": 48.79592939432515}, "nom_arrondissement_communes": "Alfortville", "code_insee_commune": null}, {"stationcode": "48010", "name": "Karl Marx", "is_installed": "OUI", "capacity": 16, "numdocksavailable": 14, "numbikesavailable": 2, "mechanical": 1, "ebike": 1, "is_renting": "OUI", "is_returning": "OUI", "duedate": "2023-12-06T16:04:46+00:00", "coordonnees_geo": {"lon": 2.3646667979455587, "lat": 48.784527937293184}, "nom_arrondissement_communes": "Villejuif", "code_insee_commune": null}, {"stationcode": "41202", "name": "Gare Rer de Fontenay sous Bois", "is_installed": "OUI", "capacity": 61, "numdocksavailable": 55, "numbikesavailable": 5, "mechanical": 0, "ebike": 5, "is_renting": "OUI", "is_returning": "OUI", "duedate": "2023-12-06T16:10:42+00:00", "coordonnees_geo": {"lon": 2.4630465, "lat": 48.8436279}, "nom_arrondissement_communes": "Fontenay-sous-Bois", "code_insee_commune": null}, {"stationcode": "31708", "name": "Noisy le Sec - Jean-Baptiste Cl\u00e9ment", "is_installed": "OUI", "capacity": 22, "numdocksavailable": 20, "numbikesavailable": 2, "mechanical": 0, "ebike": 2, "is_renting": "OUI", "is_returning": "OUI", "duedate": "2023-12-06T16:10:30+00:00", "coordonnees_geo": {"lon": 2.415283620357514, "lat": 48.87451538963655}, "nom_arrondissement_communes": "Bagnolet", "code_insee_commune": null}, {"stationcode": "25003", "name": "Henri Ste-Claire D\u00e9ville - Paul H\u00e9roult", "is_installed": "OUI", "capacity": 24, "numdocksavailable": 18, "numbikesavailable": 6, "mechanical": 1, "ebike": 5, "is_renting": "OUI", "is_returning": "OUI", "duedate": "2023-12-06T16:05:32+00:00", "coordonnees_geo": {"lon": 2.172411, "lat": 48.892663}, "nom_arrondissement_communes": "Rueil-Malmaison", "code_insee_commune": null}, {"stationcode": "22402", "name": "Jean Jaur\u00e8s - Salvador Allende", "is_installed": "OUI", "capacity": 43, "numdocksavailable": 39, "numbikesavailable": 2, "mechanical": 1, "ebike": 1, "is_renting": "OUI", "is_returning": "OUI", "duedate": "2023-12-06T16:08:01+00:00", "coordonnees_geo": {"lon": 2.3026576638221745, "lat": 48.821475594736775}, "nom_arrondissement_communes": "Malakoff", "code_insee_commune": null}]}