{"total_count": 1474, "results": [{"stationcode": "16107", "name": "Benjamin Godard - Victor Hugo", "is_installed": "OUI", "capacity": 35, "numdocksavailable": 34, "numbikesavailable": 1, "mechanical": 1, "ebike": 0, "is_renting": "OUI", "is_returning": "OUI", "duedate": "2025-05-24T10:28:27+00:00", "coordonnees_geo": {"lon": 2.275725, "lat": 48.865983}, "nom_arrondissement_communes": "Paris", "code_insee_commune": "75056", "station_opening_hours": null}, {"stationcode": "9020", "name": "Toudouze - Clauzel", "is_installed": "OUI", "capacity": 21, "numdocksavailable": 17, "numbikesavailable": 4, "mechanical": 1, "ebike": 3, "is_renting": "OUI", "is_returning": "OUI", "duedate": "2025-05-24T10:24:08+00:00", "coordonnees_geo": {"lon": 2.3373600840568547, "lat": 48.87929591733507}, "nom_arrondissement_communes": "Paris", "code_insee_commune": "75056", "station_opening_hours": null}, {"stationcode": "14111", "name": "Cassini - Denfert-Rochereau", "is_installed": "OUI", "capacity": 25, "numdocksavailable": 22, "numbikesavailable": 2, "mechanical": 1, "ebike": 1, "is_renting": "OUI", "is_returning": "OUI", "duedate": "2025-05-24T10:20:46+00:00", "coordonnees_geo": {"lon": 2.3360354080796, "lat": 48.837525839067}, "nom_arrondissement_communes": "Paris", "code_insee_commune": "75056", "station_opening_hours": null}, {"stationcode": "11104", "name": "Charonne - Robert et Sonia Delaunay", "is_installed": "OUI", "capacity": 20, "numdocksavailable": 17, "numbikesavailable": 1, "mechanical": 0, "ebike": 1, "is_renting": "OUI", "is_returning": "OUI", "duedate": "2025-05-24T10:26:57+00:00", "coordonnees_geo": {"lon": 2.3925706744194, "lat": 48.855907555969}, "nom_arrondissement_communes": "Paris", "code_insee_commune": "75056", "station_opening_hours": null}, {"stationcode": "6108", "name": "Saint-Romain - Cherche-Midi", "is_installed": "OUI", "capacity": 17, "numdocksavailable": 8, "numbikesavailable": 8, "mechanical": 8, "ebike": 0, "is_renting": "OUI", "is_returning": "OUI", "duedate": "2025-05-24T10:25:33+00:00", "coordonnees_geo": {"lon": 2.321374788880348, "lat": 48.84708159081946}, "nom_arrondissement_communes": "Paris", "code_insee_commune": "75056", "station_opening_hours": null}, {"stationcode": "33006", "name": "Andr\u00e9 Karman - R\u00e9publique", "is_installed": "OUI", "capacity": 31, "numdocksavailable": 27, "numbikesavailable": 4, "mechanical": 1, "ebike": 3, "is_renting": "OUI", "is_returning": "OUI", "duedate": "2025-05-24T10:26:54+00:00", "coordonnees_geo": {"lon": 2.3851355910301213, "lat": 48.91039875761846}, "nom_arrondissement_communes": "Aubervilliers", "code_insee_commune": "93001", "station_opening_hours": null}, {"stationcode": "42016", "name": "Pierre et Marie Curie - Maurice Thorez", "is_installed": "OUI", "capacity": 27, "numdocksavailable": 18, "numbikesavailable": 7, "mechanical": 5, "ebike": 2, "is_renting": "OUI", "is_returning": "OUI", "duedate": "2025-05-24T10:29:31+00:00", "coordonnees_geo": {"lon": 2.376804985105991, "lat": 48.81580226360801}, "nom_arrondissement_communes": "Ivry-sur-Seine", "code_insee_commune": "94041", "station_opening_hours": null}, {"stationcode": "40011", "name": "Bas du Mont-Mesly", "is_installed": "OUI", "capacity": 27, "numdocksavailable": 19, "numbikesavailable": 9, "mechanical": 4, "ebike": 5, "is_renting": "OUI", "is_returning": "OUI", "duedate": "2025-05-24T10:25:11+00:00", "coordonnees_geo": {"lon": 2.4609763908985, "lat": 48.779035118572}, "nom_arrondissement_communes": "Cr\u00e9teil", "code_insee_commune": "94028", "station_opening_hours": null}, {"stationcode": "32304", "name": "Charcot - Benfleet", "is_installed": "OUI", "capacity": 28, "numdocksavailable": 21, "numbikesavailable": 6, "mechanical": 0, "ebike": 6, "is_renting": "NON", "is_returning": "NON", "duedate": "2025-05-24T10:25:26+00:00", "coordonnees_geo": {"lon": 2.440523876268, "lat": 48.878370277021}, "nom_arrondissement_communes": "Romainville", "code_insee_commune": "93063", "station_opening_hours": null}, {"stationcode": "7003", "name": "Square Boucicaut", "is_installed": "OUI", "capacity": 60, "numdocksavailable": 7, "numbikesavailable": 50, "mechanical": 24, "ebike": 26, "is_renting": "OUI", "is_returning": "OUI", "duedate": "2025-05-24T10:29:32+00:00", "coordonnees_geo": {"lon": 2.325061820447445, "lat": 48.851296433665276}, "nom_arrondissement_communes": "Paris", "code_insee_commune": "75056", "station_opening_hours": null}, {"stationcode": "17041", "name": "Guersant - Gouvion-Saint-Cyr", "is_installed": "OUI", "capacity": 36, "numdocksavailable": 28, "numbikesavailable": 8, "mechanical": 7, "ebike": 1, "is_renting": "OUI", "is_returning": "OUI", "duedate": "2025-05-24T10:29:04+00:00", "coordonnees_geo": {"lon": 2.287667370814871, "lat": 48.88287775178599}, "nom_arrondissement_communes": "Paris", "code_insee_commune": "75056", "station_opening_hours": null}, {"stationcode": "5016", "name": "Thouin - Cardinal Lemoine", "is_installed": "OUI", "capacity": 17, "numdocksavailable": 15, "numbikesavailable": 2, "mechanical": 2, "ebike": 0, "is_renting": "OUI", "is_returning": "OUI", "duedate": "2025-05-24T10:28:53+00:00", "coordonnees_geo": {"lon": 2.3494647851273465, "lat": 48.84504716661511}, "nom_arrondissement_communes": "Paris", "code_insee_commune": "75056", "station_opening_hours": null}, {"stationcode": "11025", "name": "Froment - Br\u00e9guet", "is_installed": "OUI", "capacity": 43, "numdocksavailable": 6, "numbikesavailable": 33, "mechanical": 29, "ebike": 4, "is_renting": "OUI", "is_returning": "OUI", "duedate": "2025-05-24T10:29:47+00:00", "coordonnees_geo": {"lon": 2.37289470306807, "lat": 48.8570414504784}, "nom_arrondissement_communes": "Paris", "code_insee_commune": "75056", "station_opening_hours": null}, {"stationcode": "6021", "name": "Beaux-Arts - Bonaparte", "is_installed": "OUI", "capacity": 20, "numdocksavailable": 9, "numbikesavailable": 11, "mechanical": 8, "ebike": 3, "is_renting": "OUI", "is_returning": "OUI", "duedate": "2025-05-24T10:29:44+00:00", "coordonnees_geo": {"lon": 2.3348518833518, "lat": 48.856451985396}, "nom_arrondissement_communes": "Paris", "code_insee_commune": "75056", "station_opening_hours": null}, {"stationcode": "8050", "name": "Bo\u00e9tie - Ponthieu", "is_installed": "OUI", "capacity": 45, "numdocksavailable": 30, "numbikesavailable": 14, "mechanical": 4, "ebike": 10, "is_renting": "OUI", "is_returning": "OUI", "duedate": "2025-05-24T10:27:23+00:00", "coordonnees_geo": {"lon": 2.3076787590981, "lat": 48.871417284355}, "nom_arrondissement_communes": "Paris", "code_insee_commune": "75056", "station_opening_hours": null}, {"stationcode": "13101", "name": "Croulebarde - Corvisart", "is_installed": "OUI", "capacity": 34, "numdocksavailable": 27, "numbikesavailable": 7, "mechanical": 5, "ebike": 2, "is_renting": "OUI", "is_returning": "OUI", "duedate": "2025-05-24T10:25:52+00:00", "coordonnees_geo": {"lon": 2.3481646925210953, "lat": 48.830981659316855}, "nom_arrondissement_communes": "Paris", "code_insee_commune": "75056", "station_opening_hours": null}, {"stationcode": "14108", "name": "Le Brix et Mesmin - Jourdan", "is_installed": "OUI", "capacity": 21, "numdocksavailable": 17, "numbikesavailable": 4, "mechanical": 2, "ebike": 2, "is_renting": "OUI", "is_returning": "OUI", "duedate": "2025-05-24T10:29:24+00:00", "coordonnees_geo": {"lon": 2.327861653302471, "lat": 48.82234096593411}, "nom_arrondissement_communes": "Paris", "code_insee_commune": "75056", "station_opening_hours": null}, {"stationcode": "31024", "name": "Romainville - Vaillant-Couturier", "is_installed": "OUI", "capacity": 38, "numdocksavailable": 35, "numbikesavailable": 2, "mechanical": 0, "ebike": 2, "is_renting": "OUI", "is_returning": "OUI", "duedate": "2025-05-24T10:28:52+00:00", "coordonnees_geo": {"lon": 2.446748, "lat": 48.86785}, "nom_arrondissement_communes": "Montreuil", "code_insee_commune": "93048", "station_opening_hours": null}, {"stationcode": "40016", "name": "Sarrazins - Saussure", "is_installed": "NON", "capacity": 22, "numdocksavailable": 22, "numbikesavailable": 0, "mechanical": 0, "ebike": 0, "is_renting": "NON", "is_returning": "NON", "duedate": "2025-02-05T10:35:03+00:00", "coordonnees_geo": {"lon": 2.4717841148376, "lat": 48.769626617432}, "nom_arrondissement_communes": "Cr\u00e9teil", "code_insee_commune": "94028", "station_opening_hours": null}, {"stationcode": "20143", "name": "Ramponeau - Belleville", "is_installed": "OUI", "capacity": 44, "numdocksavailable": 39, "numbikesavailable": 4, "mechanical": 0, "ebike": 4, "is_renting": "OUI", "is_returning": "OUI", "duedate": "2025-05-24T10:29:37+00:00", "coordonnees_geo": {"lon": 2.379056852114, "lat": 48.871031137596}, "nom_arrondissement_communes": "Paris", "code_insee_commune": "75056", "station_opening_hours": null}, {"stationcode": "16138", "name": "Saint-Cloud - Hippodrome", "is_installed": "OUI", "capacity": 30, "numdocksavailable": 26, "numbikesavailable": 4, "mechanical": 4, "ebike": 0, "is_renting": "OUI", "is_returning": "OUI", "duedate": "2025-05-24T10:28:34+00:00", "coordonnees_geo": {"lon": 2.2549109905958176, "lat": 48.85772148887421}, "nom_arrondissement_communes": "Paris", "code_insee_commune": "75056", "station_opening_hours": null}, {"stationcode": "15068", "name": "G\u00e9n\u00e9ral Martial Valin - Pont du Garigliano", "is_installed": "OUI", "capacity": 16, "numdocksavailable": 9, "numbikesavailable": 7, "mechanical": 0, "ebike": 7, "is_renting": "OUI", "is_returning": "OUI", "duedate": "2025-05-24T10:22:21+00:00", "coordonnees_geo": {"lon": 2.270506024360657, "lat": 48.83823094269141}, "nom_arrondissement_communes": "Paris", "code_insee_commune": "75056", "station_opening_hours": null}, {"stationcode": "31028", "name": "Raspail Barb\u00e8s", "is_installed": "OUI", "capacity": 28, "numdocksavailable": 24, "numbikesavailable": 3, "mechanical": 0, "ebike": 3, "is_renting": "OUI", "is_returning": "OUI", "duedate": "2025-05-24T10:29:01+00:00", "coordonnees_geo": {"lon": 2.4247387, "lat": 48.8529945}, "nom_arrondissement_communes": "Montreuil", "code_insee_commune": "93048", "station_opening_hours": null}, {"stationcode": "44017", "name": "Jules Guesde - Pont du Port \u00e0 l'Anglais", "is_installed": "OUI", "capacity": 30, "numdocksavailable": 7, "numbikesavailable": 18, "mechanical": 13, "ebike": 5, "is_renting": "OUI", "is_returning": "OUI", "duedate": "2025-05-24T10:22:53+00:00", "coordonnees_geo": {"lon": 2.417212128639221, "lat": 48.79628807093802}, "nom_arrondissement_communes": "Vitry-sur-Seine", "code_insee_commune": "94081", "station_opening_hours": null}, {"stationcode": "44010", "name": "8 Mai 1945 - 10 Juillet 1940", "is_installed": "OUI", "capacity": 30, "numdocksavailable": 20, "numbikesavailable": 9, "mechanical": 4, "ebike": 5, "is_renting": "OUI", "is_returning": "OUI", "duedate": "2025-05-24T10:27:21+00:00", "coordonnees_geo": {"lon": 2.3979035764933, "lat": 48.784567029674}, "nom_arrondissement_communes": "Vitry-sur-Seine", "code_insee_commune": "94081", "station_opening_hours": null}, {"stationcode": "16118", "name": "Michel-Ange - Parent de Rosan", "is_installed": "OUI", "capacity": 26, "numdocksavailable": 9, "numbikesavailable": 17, "mechanical": 13, "ebike": 4, "is_renting": "OUI", "is_returning": "OUI", "duedate": "2025-05-24T10:27:14+00:00", "coordonnees_geo": {"lon": 2.2584119439125065, "lat": 48.840579923690115}, "nom_arrondissement_communes": "Paris", "code_insee_commune": "75056", "station_opening_hours": null}, {"stationcode": "8103", "name": "Artois - Berri", "is_installed": "OUI", "capacity": 23, "numdocksavailable": 20, "numbikesavailable": 3, "mechanical": 0, "ebike": 3, "is_renting": "OUI", "is_returning": "OUI", "duedate": "2025-05-24T10:28:42+00:00", "coordonnees_geo": {"lon": 2.3064258322119713, "lat": 48.87393521240818}, "nom_arrondissement_communes": "Paris", "code_insee_commune": "75056", "station_opening_hours": null}, {"stationcode": "13118", "name": "Regnault - Patay", "is_installed": "OUI", "capacity": 63, "numdocksavailable": 20, "numbikesavailable": 43, "mechanical": 40, "ebike": 3, "is_renting": "OUI", "is_returning": "OUI", "duedate": "2025-05-24T10:28:21+00:00", "coordonnees_geo": {"lon": 2.377065159380436, "lat": 48.82435782216384}, "nom_arrondissement_communes": "Paris", "code_insee_commune": "75056", "station_opening_hours": null}, {"stationcode": "19027", "name": "Serrurier", "is_installed": "OUI", "capacity": 0, "numdocksavailable": 0, "numbikesavailable": 0, "mechanical": 0, "ebike": 0, "is_renting": "NON", "is_returning": "NON", "duedate": "2025-05-21T06:48:59+00:00", "coordonnees_geo": {"lon": 2.398064173758, "lat": 48.880493403246}, "nom_arrondissement_communes": "Paris", "code_insee_commune": "75056", "station_opening_hours": null}, {"stationcode": "18111", "name": "F\u00e9lix Ziem - Armand Gauthier", "is_installed": "OUI", "capacity": 25, "numdocksavailable": 24, "numbikesavailable": 1, "mechanical": 0, "ebike": 1, "is_renting": "OUI", "is_returning": "OUI", "duedate": "2025-05-24T10:27:16+00:00", "coordonnees_geo": {"lon": 2.333393658804396, "lat": 48.88949630486821}, "nom_arrondissement_communes": "Paris", "code_insee_commune": "75056", "station_opening_hours": null}, {"stationcode": "9002", "name": "Abbeville - Faubourg Poissonni\u00e8re", "is_installed": "OUI", "capacity": 14, "numdocksavailable": 13, "numbikesavailable": 0, "mechanical": 0, "ebike": 0, "is_renting": "OUI", "is_returning": "OUI", "duedate": "2025-05-24T10:29:14+00:00", "coordonnees_geo": {"lon": 2.349147, "lat": 48.879223}, "nom_arrondissement_communes": "Paris", "code_insee_commune": "75056", "station_opening_hours": null}, {"stationcode": "48003", "name": "Youri Gagarine - Karl Marx", "is_installed": "OUI", "capacity": 22, "numdocksavailable": 13, "numbikesavailable": 9, "mechanical": 1, "ebike": 8, "is_renting": "OUI", "is_returning": "OUI", "duedate": "2025-05-24T10:23:25+00:00", "coordonnees_geo": {"lon": 2.35908430069685, "lat": 48.78448485079149}, "nom_arrondissement_communes": "Villejuif", "code_insee_commune": "94076", "station_opening_hours": null}, {"stationcode": "8016", "name": "Square Louis XVI", "is_installed": "OUI", "capacity": 29, "numdocksavailable": 26, "numbikesavailable": 2, "mechanical": 1, "ebike": 1, "is_renting": "OUI", "is_returning": "OUI", "duedate": "2025-05-24T10:27:47+00:00", "coordonnees_geo": {"lon": 2.323658830743138, "lat": 48.87320440102894}, "nom_arrondissement_communes": "Paris", "code_insee_commune": "75056", "station_opening_hours": null}, {"stationcode": "10115", "name": "Granges aux Belles", "is_installed": "OUI", "capacity": 27, "numdocksavailable": 21, "numbikesavailable": 6, "mechanical": 1, "ebike": 5, "is_renting": "OUI", "is_returning": "OUI", "duedate": "2025-05-24T10:29:41+00:00", "coordonnees_geo": {"lon": 2.3680844979417, "lat": 48.8761373390584}, "nom_arrondissement_communes": "Paris", "code_insee_commune": "75056", "station_opening_hours": null}, {"stationcode": "10029", "name": "Dunkerque - Rocroy", "is_installed": "OUI", "capacity": 24, "numdocksavailable": 18, "numbikesavailable": 3, "mechanical": 0, "ebike": 3, "is_renting": "OUI", "is_returning": "OUI", "duedate": "2025-05-24T10:27:51+00:00", "coordonnees_geo": {"lon": 2.351464, "lat": 48.880726}, "nom_arrondissement_communes": "Paris", "code_insee_commune": "75056", "station_opening_hours": null}, {"stationcode": "12031", "name": "Gabriel Lam\u00e9", "is_installed": "OUI", "capacity": 36, "numdocksavailable": 1, "numbikesavailable": 33, "mechanical": 33, "ebike": 0, "is_renting": "OUI", "is_returning": "OUI", "duedate": "2025-05-24T10:27:51+00:00", "coordonnees_geo": {"lon": 2.385534569621086, "lat": 48.8351212784276}, "nom_arrondissement_communes": "Paris", "code_insee_commune": "75056", "station_opening_hours": null}, {"stationcode": "1001", "name": "Quai de l'Horloge - Pont Neuf", "is_installed": "OUI", "capacity": 17, "numdocksavailable": 0, "numbikesavailable": 16, "mechanical": 12, "ebike": 4, "is_renting": "OUI", "is_returning": "OUI", "duedate": "2025-05-24T10:28:22+00:00", "coordonnees_geo": {"lon": 2.3417982839439, "lat": 48.857058739111}, "nom_arrondissement_communes": "Paris", "code_insee_commune": "75056", "station_opening_hours": null}, {"stationcode": "21328", "name": "Verger - Colonel Guichard", "is_installed": "OUI", "capacity": 29, "numdocksavailable": 28, "numbikesavailable": 1, "mechanical": 0, "ebike": 1, "is_renting": "OUI", "is_returning": "OUI", "duedate": "2025-05-24T10:26:07+00:00", "coordonnees_geo": {"lon": 2.2670380088932, "lat": 48.816376985087}, "nom_arrondissement_communes": "Issy-les-Moulineaux", "code_insee_commune": "92040", "station_opening_hours": null}, {"stationcode": "17040", "name": "Pereire - Ternes", "is_installed": "OUI", "capacity": 48, "numdocksavailable": 42, "numbikesavailable": 4, "mechanical": 3, "ebike": 1, "is_renting": "OUI", "is_returning": "OUI", "duedate": "2025-05-24T10:29:22+00:00", "coordonnees_geo": {"lon": 2.288012132048607, "lat": 48.87973954830735}, "nom_arrondissement_communes": "Paris", "code_insee_commune": "75056", "station_opening_hours": null}, {"stationcode": "31103", "name": "Gare Rosny-Bois-Perrier", "is_installed": "OUI", "capacity": 35, "numdocksavailable": 34, "numbikesavailable": 1, "mechanical": 0, "ebike": 1, "is_renting": "OUI", "is_returning": "OUI", "duedate": "2025-05-24T10:27:46+00:00", "coordonnees_geo": {"lon": 2.480436824262142, "lat": 48.88115023337061}, "nom_arrondissement_communes": "Rosny-sous-Bois", "code_insee_commune": "93064", "station_opening_hours": null}, {"stationcode": "8053", "name": "Place Georges Guillaumin", "is_installed": "OUI", "capacity": 29, "numdocksavailable": 23, "numbikesavailable": 4, "mechanical": 1, "ebike": 3, "is_renting": "OUI", "is_returning": "OUI", "duedate": "2025-05-24T10:29:14+00:00", "coordonnees_geo": {"lon": 2.301771435326, "lat": 48.874750203957}, "nom_arrondissement_communes": "Paris", "code_insee_commune": "75056", "station_opening_hours": null}, {"stationcode": "9014", "name": "Faubourg Montmartre - La Fayette", "is_installed": "OUI", "capacity": 35, "numdocksavailable": 24, "numbikesavailable": 9, "mechanical": 6, "ebike": 3, "is_renting": "OUI", "is_returning": "OUI", "duedate": "2025-05-24T10:29:28+00:00", "coordonnees_geo": {"lon": 2.3408536612988, "lat": 48.875254549053}, "nom_arrondissement_communes": "Paris", "code_insee_commune": "75056", "station_opening_hours": null}, {"stationcode": "19105", "name": "Ambroise Rendu - Porte Brunet", "is_installed": "OUI", "capacity": 17, "numdocksavailable": 14, "numbikesavailable": 1, "mechanical": 0, "ebike": 1, "is_renting": "OUI", "is_returning": "OUI", "duedate": "2025-05-24T10:27:56+00:00", "coordonnees_geo": {"lon": 2.395733, "lat": 48.883667}, "nom_arrondissement_communes": "Paris", "code_insee_commune": "75056", "station_opening_hours": null}, {"stationcode": "31706", "name": "Ch\u00e2teau - R\u00e9publique", "is_installed": "OUI", "capacity": 26, "numdocksavailable": 20, "numbikesavailable": 4, "mechanical": 2, "ebike": 2, "is_renting": "OUI", "is_returning": "OUI", "duedate": "2025-05-24T10:23:35+00:00", "coordonnees_geo": {"lon": 2.4155035614967, "lat": 48.862923800596}, "nom_arrondissement_communes": "Bagnolet", "code_insee_commune": "93006", "station_opening_hours": null}, {"stationcode": "9022", "name": "Rossini - Laffitte", "is_installed": "OUI", "capacity": 33, "numdocksavailable": 31, "numbikesavailable": 2, "mechanical": 1, "ebike": 1, "is_renting": "OUI", "is_returning": "OUI", "duedate": "2025-05-24T10:27:31+00:00", "coordonnees_geo": {"lon": 2.337980867701675, "lat": 48.87334627510507}, "nom_arrondissement_communes": "Paris", "code_insee_commune": "75056", "station_opening_hours": null}, {"stationcode": "26003", "name": "Argenteuil - Voltaire", "is_installed": "OUI", "capacity": 16, "numdocksavailable": 9, "numbikesavailable": 7, "mechanical": 3, "ebike": 4, "is_renting": "OUI", "is_returning": "OUI", "duedate": "2025-05-24T10:28:40+00:00", "coordonnees_geo": {"lon": 2.2814112156629562, "lat": 48.91864865955558}, "nom_arrondissement_communes": "Asni\u00e8res-sur-Seine", "code_insee_commune": "92004", "station_opening_hours": null}, {"stationcode": "17004", "name": "Legendre - Clichy", "is_installed": "OUI", "capacity": 40, "numdocksavailable": 36, "numbikesavailable": 4, "mechanical": 0, "ebike": 4, "is_renting": "OUI", "is_returning": "OUI", "duedate": "2025-05-24T10:29:11+00:00", "coordonnees_geo": {"lon": 2.322528975094376, "lat": 48.88896161855884}, "nom_arrondissement_communes": "Paris", "code_insee_commune": "75056", "station_opening_hours": null}, {"stationcode": "12151", "name": "Gare de Lyon - Place Louis Armand", "is_installed": "OUI", "capacity": 60, "numdocksavailable": 4, "numbikesavailable": 55, "mechanical": 39, "ebike": 16, "is_renting": "OUI", "is_returning": "OUI", "duedate": "2025-05-24T10:28:01+00:00", "coordonnees_geo": {"lon": 2.3726498446286, "lat": 48.845515089794}, "nom_arrondissement_communes": "Paris", "code_insee_commune": "75056", "station_opening_hours": null}, {"stationcode": "92007", "name": "Pesaro - Pr\u00e9fecture", "is_installed": "OUI", "capacity": 22, "numdocksavailable": 21, "numbikesavailable": 0, "mechanical": 0, "ebike": 0, "is_renting": "OUI", "is_returning": "OUI", "duedate": "2025-05-24T10:27:09+00:00", "coordonnees_geo": {"lon": 2.223908342421055, "lat": 48.89577046284005}, "nom_arrondissement_communes": "Nanterre", "code_insee_commune": "92050", "station_opening_hours": null}, {"stationcode": "16026", "name": "Ranelagh - Mozart", "is_installed": "OUI", "capacity": 8, "numdocksavailable": 1, "numbikesavailable": 7, "mechanical": 4, "ebike": 3, "is_renting": "OUI", "is_returning": "OUI", "duedate": "2025-05-24T10:22:02+00:00", "coordonnees_geo": {"lon": 2.2704418, "lat": 48.8554439}, "nom_arrondissement_communes": "Paris", "code_insee_commune": "75056", "station_opening_hours": null}, {"stationcode": "26002", "name": "Redoute - Les Courtilles", "is_installed": "OUI", "capacity": 40, "numdocksavailable": 13, "numbikesavailable": 27, "mechanical": 20, "ebike": 7, "is_renting": "OUI", "is_returning": "OUI", "duedate": "2025-05-24T10:29:28+00:00", "coordonnees_geo": {"lon": 2.2836696356535, "lat": 48.929867194519}, "nom_arrondissement_communes": "Asni\u00e8res-sur-Seine", "code_insee_commune": "92004", "station_opening_hours": null}, {"stationcode": "17043", "name": "Belidor - Gouvion-Saint-Cyr", "is_installed": "OUI", "capacity": 39, "numdocksavailable": 34, "numbikesavailable": 5, "mechanical": 5, "ebike": 0, "is_renting": "OUI", "is_returning": "OUI", "duedate": "2025-05-24T10:27:14+00:00", "coordonnees_geo": {"lon": 2.2854680567979813, "lat": 48.88022154052015}, "nom_arrondissement_communes": "Paris", "code_insee_commune": "75056", "station_opening_hours": null}, {"stationcode": "19026", "name": "Place de Rhin et Danube", "is_installed": "OUI", "capacity": 17, "numdocksavailable": 15, "numbikesavailable": 0, "mechanical": 0, "ebike": 0, "is_renting": "OUI", "is_returning": "OUI", "duedate": "2025-05-24T10:22:24+00:00", "coordonnees_geo": {"lon": 2.392586767673493, "lat": 48.88192765861766}, "nom_arrondissement_communes": "Paris", "code_insee_commune": "75056", "station_opening_hours": null}, {"stationcode": "11023", "name": "Saint-Maur - Roquette", "is_installed": "OUI", "capacity": 46, "numdocksavailable": 16, "numbikesavailable": 29, "mechanical": 27, "ebike": 2, "is_renting": "OUI", "is_returning": "OUI", "duedate": "2025-05-24T10:28:17+00:00", "coordonnees_geo": {"lon": 2.383553994571467, "lat": 48.858688774062955}, "nom_arrondissement_communes": "Paris", "code_insee_commune": "75056", "station_opening_hours": null}, {"stationcode": "8034", "name": "Berri - Haussmann", "is_installed": "OUI", "capacity": 35, "numdocksavailable": 29, "numbikesavailable": 6, "mechanical": 1, "ebike": 5, "is_renting": "OUI", "is_returning": "OUI", "duedate": "2025-05-24T10:28:17+00:00", "coordonnees_geo": {"lon": 2.3082953318953514, "lat": 48.874746047357135}, "nom_arrondissement_communes": "Paris", "code_insee_commune": "75056", "station_opening_hours": null}, {"stationcode": "11047", "name": "Amelot - Saint-S\u00e9bastien", "is_installed": "OUI", "capacity": 30, "numdocksavailable": 12, "numbikesavailable": 14, "mechanical": 6, "ebike": 8, "is_renting": "OUI", "is_returning": "OUI", "duedate": "2025-05-24T10:27:10+00:00", "coordonnees_geo": {"lon": 2.3677996181077, "lat": 48.861142162761}, "nom_arrondissement_communes": "Paris", "code_insee_commune": "75056", "station_opening_hours": null}, {"stationcode": "19043", "name": "Delphine Seyrig - G\u00e9n\u00e9ral Leclerc", "is_installed": "OUI", "capacity": 53, "numdocksavailable": 44, "numbikesavailable": 8, "mechanical": 0, "ebike": 8, "is_renting": "OUI", "is_returning": "OUI", "duedate": "2025-05-24T10:27:59+00:00", "coordonnees_geo": {"lon": 2.39790290594101, "lat": 48.893923963057865}, "nom_arrondissement_communes": "Pantin", "code_insee_commune": "93055", "station_opening_hours": null}, {"stationcode": "5032", "name": "Panth\u00e9on - Valette", "is_installed": "OUI", "capacity": 39, "numdocksavailable": 7, "numbikesavailable": 32, "mechanical": 2, "ebike": 30, "is_renting": "OUI", "is_returning": "OUI", "duedate": "2025-05-24T10:29:28+00:00", "coordonnees_geo": {"lon": 2.3464982619671, "lat": 48.847020571652}, "nom_arrondissement_communes": "Paris", "code_insee_commune": "75056", "station_opening_hours": null}, {"stationcode": "18107", "name": "Chartres - La Charbonni\u00e8re", "is_installed": "OUI", "capacity": 34, "numdocksavailable": 25, "numbikesavailable": 8, "mechanical": 4, "ebike": 4, "is_renting": "OUI", "is_returning": "OUI", "duedate": "2025-05-24T10:29:00+00:00", "coordonnees_geo": {"lon": 2.3534657, "lat": 48.8847601}, "nom_arrondissement_communes": "Paris", "code_insee_commune": "75056", "station_opening_hours": null}, {"stationcode": "15067", "name": "Desaix - Edgar Faure", "is_installed": "OUI", "capacity": 12, "numdocksavailable": 11, "numbikesavailable": 0, "mechanical": 0, "ebike": 0, "is_renting": "OUI", "is_returning": "OUI", "duedate": "2025-05-24T10:20:45+00:00", "coordonnees_geo": {"lon": 2.293077029857222, "lat": 48.852804604940296}, "nom_arrondissement_communes": "Paris", "code_insee_commune": "75056", "station_opening_hours": null}, {"stationcode": "17204", "name": "Paul Bodin - Clichy", "is_installed": "NON", "capacity": 33, "numdocksavailable": 32, "numbikesavailable": 1, "mechanical": 1, "ebike": 0, "is_renting": "NON", "is_returning": "NON", "duedate": "2024-10-08T08:49:38+00:00", "coordonnees_geo": {"lon": 2.3171403311203, "lat": 48.892594758409}, "nom_arrondissement_communes": "Paris", "code_insee_commune": "75056", "station_opening_hours": null}, {"stationcode": "17030", "name": "Pereire - Rennequin", "is_installed": "OUI", "capacity": 23, "numdocksavailable": 19, "numbikesavailable": 3, "mechanical": 1, "ebike": 2, "is_renting": "OUI", "is_returning": "OUI", "duedate": "2025-05-24T10:27:10+00:00", "coordonnees_geo": {"lon": 2.2952447086572647, "lat": 48.88364782887555}, "nom_arrondissement_communes": "Paris", "code_insee_commune": "75056", "station_opening_hours": null}, {"stationcode": "12128", "name": "Pyramide - Ecole du Breuil", "is_installed": "OUI", "capacity": 34, "numdocksavailable": 26, "numbikesavailable": 8, "mechanical": 1, "ebike": 7, "is_renting": "OUI", "is_returning": "OUI", "duedate": "2025-05-24T10:29:43+00:00", "coordonnees_geo": {"lon": 2.4586871266365056, "lat": 48.82237977153955}, "nom_arrondissement_communes": "Paris", "code_insee_commune": "75056", "station_opening_hours": null}, {"stationcode": "31022", "name": "Mairie de Montreuil", "is_installed": "OUI", "capacity": 52, "numdocksavailable": 41, "numbikesavailable": 10, "mechanical": 0, "ebike": 10, "is_renting": "OUI", "is_returning": "OUI", "duedate": "2025-05-24T10:27:49+00:00", "coordonnees_geo": {"lon": 2.440614402294159, "lat": 48.86131452758348}, "nom_arrondissement_communes": "Montreuil", "code_insee_commune": "93048", "station_opening_hours": null}, {"stationcode": "31009", "name": "Place Du G\u00e9n\u00e9ral De Gaulle", "is_installed": "OUI", "capacity": 26, "numdocksavailable": 23, "numbikesavailable": 2, "mechanical": 0, "ebike": 2, "is_renting": "OUI", "is_returning": "OUI", "duedate": "2025-05-24T10:25:24+00:00", "coordonnees_geo": {"lon": 2.4329931, "lat": 48.8687591}, "nom_arrondissement_communes": "Montreuil", "code_insee_commune": "93048", "station_opening_hours": null}, {"stationcode": "14020", "name": "Cimeti\u00e8re de Montrouge", "is_installed": "OUI", "capacity": 58, "numdocksavailable": 41, "numbikesavailable": 17, "mechanical": 13, "ebike": 4, "is_renting": "OUI", "is_returning": "OUI", "duedate": "2025-05-24T10:28:32+00:00", "coordonnees_geo": {"lon": 2.3215785772007, "lat": 48.821466904768}, "nom_arrondissement_communes": "Paris", "code_insee_commune": "75056", "station_opening_hours": null}, {"stationcode": "18011", "name": "Pajol - Place Herbert", "is_installed": "OUI", "capacity": 39, "numdocksavailable": 30, "numbikesavailable": 8, "mechanical": 1, "ebike": 7, "is_renting": "OUI", "is_returning": "OUI", "duedate": "2025-05-24T10:28:19+00:00", "coordonnees_geo": {"lon": 2.3635598, "lat": 48.8927825}, "nom_arrondissement_communes": "Paris", "code_insee_commune": "75056", "station_opening_hours": null}, {"stationcode": "33102", "name": "Gabriel P\u00e9ri - Francisco Ferrer", "is_installed": "OUI", "capacity": 18, "numdocksavailable": 11, "numbikesavailable": 6, "mechanical": 5, "ebike": 1, "is_renting": "OUI", "is_returning": "OUI", "duedate": "2025-05-24T10:28:24+00:00", "coordonnees_geo": {"lon": 2.407338917255402, "lat": 48.88633710236977}, "nom_arrondissement_communes": "Le Pr\u00e9-Saint-Gervais", "code_insee_commune": "93061", "station_opening_hours": null}, {"stationcode": "42706", "name": "Roger Salengro - Fontainebleau", "is_installed": "OUI", "capacity": 25, "numdocksavailable": 15, "numbikesavailable": 6, "mechanical": 5, "ebike": 1, "is_renting": "OUI", "is_returning": "OUI", "duedate": "2025-05-24T10:28:29+00:00", "coordonnees_geo": {"lon": 2.3611663654447, "lat": 48.814548697325}, "nom_arrondissement_communes": "Le Kremlin-Bic\u00eatre", "code_insee_commune": "94043", "station_opening_hours": null}, {"stationcode": "44006", "name": "Concorde - Stalingrad", "is_installed": "OUI", "capacity": 35, "numdocksavailable": 27, "numbikesavailable": 8, "mechanical": 6, "ebike": 2, "is_renting": "OUI", "is_returning": "OUI", "duedate": "2025-05-24T10:28:38+00:00", "coordonnees_geo": {"lon": 2.3821302, "lat": 48.7985844}, "nom_arrondissement_communes": "Vitry-sur-Seine", "code_insee_commune": "94081", "station_opening_hours": null}, {"stationcode": "19120", "name": "Carducci - Place Hannah Arendt", "is_installed": "OUI", "capacity": 27, "numdocksavailable": 23, "numbikesavailable": 4, "mechanical": 0, "ebike": 4, "is_renting": "OUI", "is_returning": "OUI", "duedate": "2025-05-24T10:26:14+00:00", "coordonnees_geo": {"lon": 2.3860743641853337, "lat": 48.877436681515796}, "nom_arrondissement_communes": "Paris", "code_insee_commune": "75056", "station_opening_hours": null}, {"stationcode": "15104", "name": "H\u00f4pital Europ\u00e9en Georges Pompidou", "is_installed": "OUI", "capacity": 64, "numdocksavailable": 25, "numbikesavailable": 39, "mechanical": 37, "ebike": 2, "is_renting": "OUI", "is_returning": "OUI", "duedate": "2025-05-24T10:25:31+00:00", "coordonnees_geo": {"lon": 2.2753742337227, "lat": 48.837695319163}, "nom_arrondissement_communes": "Paris", "code_insee_commune": "75056", "station_opening_hours": null}, {"stationcode": "14003", "name": "Schoelcher - Raspail", "is_installed": "OUI", "capacity": 50, "numdocksavailable": 47, "numbikesavailable": 3, "mechanical": 2, "ebike": 1, "is_renting": "OUI", "is_returning": "OUI", "duedate": "2025-05-24T10:28:18+00:00", "coordonnees_geo": {"lon": 2.3312794080411474, "lat": 48.83681733526843}, "nom_arrondissement_communes": "Paris", "code_insee_commune": "75056", "station_opening_hours": null}, {"stationcode": "19101", "name": "Square Simon Bolivar", "is_installed": "OUI", "capacity": 24, "numdocksavailable": 21, "numbikesavailable": 2, "mechanical": 0, "ebike": 2, "is_renting": "OUI", "is_returning": "OUI", "duedate": "2025-05-24T10:29:13+00:00", "coordonnees_geo": {"lon": 2.3826304078102, "lat": 48.875089888322}, "nom_arrondissement_communes": "Paris", "code_insee_commune": "75056", "station_opening_hours": null}, {"stationcode": "14138", "name": "Porte de Vanves", "is_installed": "OUI", "capacity": 32, "numdocksavailable": 28, "numbikesavailable": 2, "mechanical": 0, "ebike": 2, "is_renting": "OUI", "is_returning": "OUI", "duedate": "2025-05-24T10:22:12+00:00", "coordonnees_geo": {"lon": 2.3056878894567, "lat": 48.828012849445}, "nom_arrondissement_communes": "Paris", "code_insee_commune": "75056", "station_opening_hours": null}, {"stationcode": "12114", "name": "Victor Hugo - Jeanne Jugan", "is_installed": "OUI", "capacity": 28, "numdocksavailable": 18, "numbikesavailable": 9, "mechanical": 5, "ebike": 4, "is_renting": "OUI", "is_returning": "OUI", "duedate": "2025-05-24T10:25:10+00:00", "coordonnees_geo": {"lon": 2.415081394834419, "lat": 48.843949064031825}, "nom_arrondissement_communes": "Paris", "code_insee_commune": "75056", "station_opening_hours": null}, {"stationcode": "46003", "name": "Conservatoire de Musique", "is_installed": "OUI", "capacity": 25, "numdocksavailable": 16, "numbikesavailable": 6, "mechanical": 5, "ebike": 1, "is_renting": "OUI", "is_returning": "OUI", "duedate": "2025-05-24T10:23:57+00:00", "coordonnees_geo": {"lon": 2.4034014344215398, "lat": 48.77093586667601}, "nom_arrondissement_communes": "Choisy-le-Roi", "code_insee_commune": "94022", "station_opening_hours": null}, {"stationcode": "14008", "name": "Mouton Duvernet - G\u00e9n\u00e9ral Leclerc", "is_installed": "OUI", "capacity": 28, "numdocksavailable": 19, "numbikesavailable": 6, "mechanical": 0, "ebike": 6, "is_renting": "OUI", "is_returning": "OUI", "duedate": "2025-05-24T10:28:16+00:00", "coordonnees_geo": {"lon": 2.3293121159077, "lat": 48.831632518293}, "nom_arrondissement_communes": "Paris", "code_insee_commune": "75056", "station_opening_hours": null}, {"stationcode": "14106", "name": "Marc Sangnier - Porte de Vanves", "is_installed": "OUI", "capacity": 21, "numdocksavailable": 15, "numbikesavailable": 6, "mechanical": 0, "ebike": 6, "is_renting": "OUI", "is_returning": "OUI", "duedate": "2025-05-24T10:25:14+00:00", "coordonnees_geo": {"lon": 2.3107116669416428, "lat": 48.825218683556734}, "nom_arrondissement_communes": "Paris", "code_insee_commune": "75056", "station_opening_hours": null}, {"stationcode": "31102", "name": "Boissi\u00e8re - Etienne Dolet", "is_installed": "OUI", "capacity": 21, "numdocksavailable": 17, "numbikesavailable": 4, "mechanical": 0, "ebike": 4, "is_renting": "OUI", "is_returning": "OUI", "duedate": "2025-05-24T10:29:19+00:00", "coordonnees_geo": {"lon": 2.4677312, "lat": 48.876111}, "nom_arrondissement_communes": "Montreuil", "code_insee_commune": "93048", "station_opening_hours": null}, {"stationcode": "2111", "name": "Chabanais - Petits Champs", "is_installed": "OUI", "capacity": 30, "numdocksavailable": 16, "numbikesavailable": 14, "mechanical": 11, "ebike": 3, "is_renting": "OUI", "is_returning": "OUI", "duedate": "2025-05-24T10:29:28+00:00", "coordonnees_geo": {"lon": 2.336716018617153, "lat": 48.86703740186721}, "nom_arrondissement_communes": "Paris", "code_insee_commune": "75056", "station_opening_hours": null}, {"stationcode": "18022", "name": "Marcadet - Barb\u00e8s", "is_installed": "OUI", "capacity": 37, "numdocksavailable": 32, "numbikesavailable": 5, "mechanical": 1, "ebike": 4, "is_renting": "OUI", "is_returning": "OUI", "duedate": "2025-05-24T10:26:44+00:00", "coordonnees_geo": {"lon": 2.3490573929687, "lat": 48.890451120965}, "nom_arrondissement_communes": "Paris", "code_insee_commune": "75056", "station_opening_hours": null}, {"stationcode": "14012", "name": "Sibelle - Al\u00e9sia", "is_installed": "OUI", "capacity": 37, "numdocksavailable": 30, "numbikesavailable": 6, "mechanical": 1, "ebike": 5, "is_renting": "OUI", "is_returning": "OUI", "duedate": "2025-05-24T10:26:32+00:00", "coordonnees_geo": {"lon": 2.3384983465075493, "lat": 48.826701758539215}, "nom_arrondissement_communes": "Paris", "code_insee_commune": "75056", "station_opening_hours": null}, {"stationcode": "10042", "name": "Enghien - Faubourg Poissonni\u00e8re", "is_installed": "OUI", "capacity": 33, "numdocksavailable": 26, "numbikesavailable": 4, "mechanical": 2, "ebike": 2, "is_renting": "OUI", "is_returning": "OUI", "duedate": "2025-05-24T10:29:12+00:00", "coordonnees_geo": {"lon": 2.3483952362828, "lat": 48.872420063053}, "nom_arrondissement_communes": "Paris", "code_insee_commune": "75056", "station_opening_hours": null}, {"stationcode": "17203", "name": "Place de la Porte de Champeret", "is_installed": "OUI", "capacity": 28, "numdocksavailable": 22, "numbikesavailable": 5, "mechanical": 3, "ebike": 2, "is_renting": "OUI", "is_returning": "OUI", "duedate": "2025-05-24T10:29:10+00:00", "coordonnees_geo": {"lon": 2.2917001576821, "lat": 48.886062068226}, "nom_arrondissement_communes": "Paris", "code_insee_commune": "75056", "station_opening_hours": null}, {"stationcode": "42014", "name": "Place Marcel Cachin", "is_installed": "OUI", "capacity": 32, "numdocksavailable": 8, "numbikesavailable": 21, "mechanical": 20, "ebike": 1, "is_renting": "OUI", "is_returning": "OUI", "duedate": "2025-05-24T10:29:36+00:00", "coordonnees_geo": {"lon": 2.39090770483017, "lat": 48.81411442356866}, "nom_arrondissement_communes": "Ivry-sur-Seine", "code_insee_commune": "94041", "station_opening_hours": null}, {"stationcode": "16202", "name": "Commandant Schloesing - P\u00e9trarque", "is_installed": "NON", "capacity": 30, "numdocksavailable": 30, "numbikesavailable": 0, "mechanical": 0, "ebike": 0, "is_renting": "NON", "is_returning": "NON", "duedate": "2025-05-23T15:36:48+00:00", "coordonnees_geo": {"lon": 2.2838841134601, "lat": 48.861773096259}, "nom_arrondissement_communes": "Paris", "code_insee_commune": "75056", "station_opening_hours": null}, {"stationcode": "21006", "name": "Marcelin Berthelot", "is_installed": "OUI", "capacity": 27, "numdocksavailable": 3, "numbikesavailable": 22, "mechanical": 21, "ebike": 1, "is_renting": "OUI", "is_returning": "OUI", "duedate": "2025-05-24T10:28:44+00:00", "coordonnees_geo": {"lon": 2.233161628246308, "lat": 48.8415473058801}, "nom_arrondissement_communes": "Boulogne-Billancourt", "code_insee_commune": "92012", "station_opening_hours": null}, {"stationcode": "44013", "name": "Edouard Tremblay - Julian Grimaux", "is_installed": "OUI", "capacity": 30, "numdocksavailable": 15, "numbikesavailable": 13, "mechanical": 10, "ebike": 3, "is_renting": "OUI", "is_returning": "OUI", "duedate": "2025-05-24T10:29:44+00:00", "coordonnees_geo": {"lon": 2.3723508417606, "lat": 48.781383825117}, "nom_arrondissement_communes": "Vitry-sur-Seine", "code_insee_commune": "94081", "station_opening_hours": null}, {"stationcode": "15034", "name": "Lakanal - Commerce", "is_installed": "OUI", "capacity": 53, "numdocksavailable": 9, "numbikesavailable": 44, "mechanical": 42, "ebike": 2, "is_renting": "OUI", "is_returning": "OUI", "duedate": "2025-05-24T10:28:58+00:00", "coordonnees_geo": {"lon": 2.294059172272682, "lat": 48.84442462786544}, "nom_arrondissement_communes": "Paris", "code_insee_commune": "75056", "station_opening_hours": null}, {"stationcode": "5028", "name": "Censier - Jardin des Plantes", "is_installed": "OUI", "capacity": 28, "numdocksavailable": 6, "numbikesavailable": 20, "mechanical": 17, "ebike": 3, "is_renting": "OUI", "is_returning": "OUI", "duedate": "2025-05-24T10:29:21+00:00", "coordonnees_geo": {"lon": 2.355475388467312, "lat": 48.84107178161383}, "nom_arrondissement_communes": "Paris", "code_insee_commune": "75056", "station_opening_hours": null}, {"stationcode": "22203", "name": "Tertres - Fontaine", "is_installed": "OUI", "capacity": 28, "numdocksavailable": 27, "numbikesavailable": 1, "mechanical": 0, "ebike": 1, "is_renting": "OUI", "is_returning": "OUI", "duedate": "2025-05-24T10:24:33+00:00", "coordonnees_geo": {"lon": 2.306235730648041, "lat": 48.787553654715644}, "nom_arrondissement_communes": "Bagneux", "code_insee_commune": "92007", "station_opening_hours": null}, {"stationcode": "41202", "name": "Gare Rer de Fontenay sous Bois", "is_installed": "OUI", "capacity": 61, "numdocksavailable": 32, "numbikesavailable": 29, "mechanical": 21, "ebike": 8, "is_renting": "OUI", "is_returning": "OUI", "duedate": "2025-05-24T10:28:50+00:00", "coordonnees_geo": {"lon": 2.4630465, "lat": 48.8436279}, "nom_arrondissement_communes": "Fontenay-sous-Bois", "code_insee_commune": "94033", "station_opening_hours": null}, {"stationcode": "6025", "name": "Assas - Rennes", "is_installed": "OUI", "capacity": 32, "numdocksavailable": 22, "numbikesavailable": 10, "mechanical": 9, "ebike": 1, "is_renting": "OUI", "is_returning": "OUI", "duedate": "2025-05-24T10:29:16+00:00", "coordonnees_geo": {"lon": 2.32851454623001, "lat": 48.8492084999386}, "nom_arrondissement_communes": "Paris", "code_insee_commune": "75056", "station_opening_hours": null}, {"stationcode": "11039", "name": "Richard Lenoir - Jean-Pierre Timbaud", "is_installed": "OUI", "capacity": 36, "numdocksavailable": 19, "numbikesavailable": 16, "mechanical": 13, "ebike": 3, "is_renting": "OUI", "is_returning": "OUI", "duedate": "2025-05-24T10:29:14+00:00", "coordonnees_geo": {"lon": 2.3693370749669, "lat": 48.865804276686}, "nom_arrondissement_communes": "Paris", "code_insee_commune": "75056", "station_opening_hours": null}, {"stationcode": "41601", "name": "G\u00e9n\u00e9ral De Gaulle - Alouette", "is_installed": "OUI", "capacity": 26, "numdocksavailable": 15, "numbikesavailable": 11, "mechanical": 5, "ebike": 6, "is_renting": "OUI", "is_returning": "OUI", "duedate": "2025-05-24T10:24:10+00:00", "coordonnees_geo": {"lon": 2.4175664, "lat": 48.839109}, "nom_arrondissement_communes": "Saint-Mand\u00e9", "code_insee_commune": "94067", "station_opening_hours": null}, {"stationcode": "23006", "name": "Jules Guesde - Alsace", "is_installed": "OUI", "capacity": 25, "numdocksavailable": 2, "numbikesavailable": 22, "mechanical": 13, "ebike": 9, "is_renting": "OUI", "is_returning": "OUI", "duedate": "2025-05-24T10:29:42+00:00", "coordonnees_geo": {"lon": 2.2950777411461, "lat": 48.890566275506}, "nom_arrondissement_communes": "Levallois-Perret", "code_insee_commune": "92044", "station_opening_hours": null}, {"stationcode": "15021", "name": "Joseph Liouville - Croix Nivert", "is_installed": "OUI", "capacity": 64, "numdocksavailable": 28, "numbikesavailable": 35, "mechanical": 32, "ebike": 3, "is_renting": "OUI", "is_returning": "OUI", "duedate": "2025-05-24T10:25:07+00:00", "coordonnees_geo": {"lon": 2.297508493065834, "lat": 48.844835471244416}, "nom_arrondissement_communes": "Paris", "code_insee_commune": "75056", "station_opening_hours": null}, {"stationcode": "9010", "name": "Rochechouart lamartine", "is_installed": "OUI", "capacity": 24, "numdocksavailable": 22, "numbikesavailable": 2, "mechanical": 1, "ebike": 1, "is_renting": "OUI", "is_returning": "OUI", "duedate": "2025-05-24T10:19:50+00:00", "coordonnees_geo": {"lon": 2.344393021854, "lat": 48.876719895109}, "nom_arrondissement_communes": "Paris", "code_insee_commune": "75056", "station_opening_hours": null}, {"stationcode": "16136", "name": "Th\u00e9ophile Gautier - Fran\u00e7ois Millet", "is_installed": "OUI", "capacity": 30, "numdocksavailable": 10, "numbikesavailable": 19, "mechanical": 18, "ebike": 1, "is_renting": "OUI", "is_returning": "OUI", "duedate": "2025-05-24T10:29:06+00:00", "coordonnees_geo": {"lon": 2.273029983043671, "lat": 48.85034821320644}, "nom_arrondissement_communes": "Paris", "code_insee_commune": "75056", "station_opening_hours": null}]}