{"total_count": 1452, "results": [{"stationcode": "14111", "name": "Cassini - Denfert-Rochereau", "is_installed": "OUI", "capacity": 25, "numdocksavailable": 18, "numbikesavailable": 6, "mechanical": 2, "ebike": 4, "is_renting": "OUI", "is_returning": "OUI", "duedate": "2025-07-11T21:48:13+00:00", "coordonnees_geo": {"lon": 2.3360354080796, "lat": 48.837525839067}, "nom_arrondissement_communes": "Paris", "code_insee_commune": "75056", "station_opening_hours": null}, {"stationcode": "14014", "name": "Jourdan - Stade Charl\u00e9ty", "is_installed": "OUI", "capacity": 60, "numdocksavailable": 49, "numbikesavailable": 9, "mechanical": 5, "ebike": 4, "is_renting": "OUI", "is_returning": "OUI", "duedate": "2025-07-11T21:47:26+00:00", "coordonnees_geo": {"lon": 2.3433353751898, "lat": 48.819428333369}, "nom_arrondissement_communes": "Paris", "code_insee_commune": "75056", "station_opening_hours": null}, {"stationcode": "8026", "name": "Messine - Place Du P\u00e9rou", "is_installed": "OUI", "capacity": 12, "numdocksavailable": 9, "numbikesavailable": 3, "mechanical": 3, "ebike": 0, "is_renting": "OUI", "is_returning": "OUI", "duedate": "2025-07-11T21:44:07+00:00", "coordonnees_geo": {"lon": 2.315508019010038, "lat": 48.875448033960744}, "nom_arrondissement_communes": "Paris", "code_insee_commune": "75056", "station_opening_hours": null}, {"stationcode": "6003", "name": "Saint-Sulpice", "is_installed": "OUI", "capacity": 21, "numdocksavailable": 16, "numbikesavailable": 3, "mechanical": 2, "ebike": 1, "is_renting": "OUI", "is_returning": "OUI", "duedate": "2025-07-11T21:44:50+00:00", "coordonnees_geo": {"lon": 2.3308077827095985, "lat": 48.85165383178419}, "nom_arrondissement_communes": "Paris", "code_insee_commune": "75056", "station_opening_hours": null}, {"stationcode": "7002", "name": "Vaneau - S\u00e8vres", "is_installed": "OUI", "capacity": 35, "numdocksavailable": 19, "numbikesavailable": 14, "mechanical": 11, "ebike": 3, "is_renting": "OUI", "is_returning": "OUI", "duedate": "2025-07-11T21:47:34+00:00", "coordonnees_geo": {"lon": 2.3204218259346, "lat": 48.848563233059}, "nom_arrondissement_communes": "Paris", "code_insee_commune": "75056", "station_opening_hours": null}, {"stationcode": "5110", "name": "Lac\u00e9p\u00e8de - Monge", "is_installed": "OUI", "capacity": 23, "numdocksavailable": 17, "numbikesavailable": 6, "mechanical": 2, "ebike": 4, "is_renting": "OUI", "is_returning": "OUI", "duedate": "2025-07-11T21:47:53+00:00", "coordonnees_geo": {"lon": 2.3519663885235786, "lat": 48.84389286531899}, "nom_arrondissement_communes": "Paris", "code_insee_commune": "75056", "station_opening_hours": null}, {"stationcode": "25006", "name": "Place Nelson Mandela", "is_installed": "OUI", "capacity": 22, "numdocksavailable": 19, "numbikesavailable": 2, "mechanical": 1, "ebike": 1, "is_renting": "OUI", "is_returning": "OUI", "duedate": "2025-07-11T21:41:54+00:00", "coordonnees_geo": {"lon": 2.1961666225454, "lat": 48.862453313908}, "nom_arrondissement_communes": "Rueil-Malmaison", "code_insee_commune": "92063", "station_opening_hours": null}, {"stationcode": "30002", "name": "Jean Rostand - Paul Vaillant Couturier", "is_installed": "OUI", "capacity": 40, "numdocksavailable": 19, "numbikesavailable": 19, "mechanical": 7, "ebike": 12, "is_renting": "OUI", "is_returning": "OUI", "duedate": "2025-07-11T21:48:11+00:00", "coordonnees_geo": {"lon": 2.4530601033354, "lat": 48.908168131015}, "nom_arrondissement_communes": "Bobigny", "code_insee_commune": "93008", "station_opening_hours": null}, {"stationcode": "5016", "name": "Thouin - Cardinal Lemoine", "is_installed": "OUI", "capacity": 17, "numdocksavailable": 12, "numbikesavailable": 5, "mechanical": 2, "ebike": 3, "is_renting": "OUI", "is_returning": "OUI", "duedate": "2025-07-11T21:43:15+00:00", "coordonnees_geo": {"lon": 2.3494647851273465, "lat": 48.84504716661511}, "nom_arrondissement_communes": "Paris", "code_insee_commune": "75056", "station_opening_hours": null}, {"stationcode": "11025", "name": "Froment - Br\u00e9guet", "is_installed": "OUI", "capacity": 43, "numdocksavailable": 27, "numbikesavailable": 16, "mechanical": 10, "ebike": 6, "is_renting": "OUI", "is_returning": "OUI", "duedate": "2025-07-11T21:42:27+00:00", "coordonnees_geo": {"lon": 2.37289470306807, "lat": 48.8570414504784}, "nom_arrondissement_communes": "Paris", "code_insee_commune": "75056", "station_opening_hours": null}, {"stationcode": "17026", "name": "Jouffroy d'Abbans - Wagram", "is_installed": "OUI", "capacity": 40, "numdocksavailable": 29, "numbikesavailable": 9, "mechanical": 4, "ebike": 5, "is_renting": "OUI", "is_returning": "OUI", "duedate": "2025-07-11T21:43:03+00:00", "coordonnees_geo": {"lon": 2.301132157445, "lat": 48.881973298352}, "nom_arrondissement_communes": "Paris", "code_insee_commune": "75056", "station_opening_hours": null}, {"stationcode": "6021", "name": "Beaux-Arts - Bonaparte", "is_installed": "OUI", "capacity": 20, "numdocksavailable": 19, "numbikesavailable": 0, "mechanical": 0, "ebike": 0, "is_renting": "OUI", "is_returning": "OUI", "duedate": "2025-07-11T21:41:06+00:00", "coordonnees_geo": {"lon": 2.3348518833518, "lat": 48.856451985396}, "nom_arrondissement_communes": "Paris", "code_insee_commune": "75056", "station_opening_hours": null}, {"stationcode": "13101", "name": "Croulebarde - Corvisart", "is_installed": "OUI", "capacity": 34, "numdocksavailable": 22, "numbikesavailable": 11, "mechanical": 7, "ebike": 4, "is_renting": "OUI", "is_returning": "OUI", "duedate": "2025-07-11T21:45:33+00:00", "coordonnees_geo": {"lon": 2.3481646925210953, "lat": 48.830981659316855}, "nom_arrondissement_communes": "Paris", "code_insee_commune": "75056", "station_opening_hours": null}, {"stationcode": "14108", "name": "Le Brix et Mesmin - Jourdan", "is_installed": "OUI", "capacity": 21, "numdocksavailable": 20, "numbikesavailable": 1, "mechanical": 0, "ebike": 1, "is_renting": "OUI", "is_returning": "OUI", "duedate": "2025-07-11T21:40:29+00:00", "coordonnees_geo": {"lon": 2.327861653302471, "lat": 48.82234096593411}, "nom_arrondissement_communes": "Paris", "code_insee_commune": "75056", "station_opening_hours": null}, {"stationcode": "31024", "name": "Romainville - Vaillant-Couturier", "is_installed": "OUI", "capacity": 38, "numdocksavailable": 37, "numbikesavailable": 1, "mechanical": 0, "ebike": 1, "is_renting": "OUI", "is_returning": "OUI", "duedate": "2025-07-11T21:45:28+00:00", "coordonnees_geo": {"lon": 2.446748, "lat": 48.86785}, "nom_arrondissement_communes": "Montreuil", "code_insee_commune": "93048", "station_opening_hours": null}, {"stationcode": "2022", "name": "Saint-Fiacre - Poissoni\u00e8re", "is_installed": "OUI", "capacity": 35, "numdocksavailable": 32, "numbikesavailable": 2, "mechanical": 1, "ebike": 1, "is_renting": "OUI", "is_returning": "OUI", "duedate": "2025-07-11T21:48:47+00:00", "coordonnees_geo": {"lon": 2.3459213599563, "lat": 48.870828911558}, "nom_arrondissement_communes": "Paris", "code_insee_commune": "75056", "station_opening_hours": null}, {"stationcode": "19033", "name": "Cambrai - Benjamin Constant", "is_installed": "OUI", "capacity": 43, "numdocksavailable": 36, "numbikesavailable": 6, "mechanical": 4, "ebike": 2, "is_renting": "OUI", "is_returning": "OUI", "duedate": "2025-07-11T21:48:06+00:00", "coordonnees_geo": {"lon": 2.381133802246315, "lat": 48.89594736851349}, "nom_arrondissement_communes": "Paris", "code_insee_commune": "75056", "station_opening_hours": null}, {"stationcode": "21326", "name": "Moulin de Pierre - Abb\u00e9 Gr\u00e9goire", "is_installed": "OUI", "capacity": 20, "numdocksavailable": 14, "numbikesavailable": 6, "mechanical": 0, "ebike": 6, "is_renting": "OUI", "is_returning": "OUI", "duedate": "2025-07-11T21:47:52+00:00", "coordonnees_geo": {"lon": 2.2754641655975, "lat": 48.822036188382}, "nom_arrondissement_communes": "Issy-les-Moulineaux", "code_insee_commune": "92040", "station_opening_hours": null}, {"stationcode": "21216", "name": "Louis Lejeune - Barb\u00e8s", "is_installed": "OUI", "capacity": 25, "numdocksavailable": 19, "numbikesavailable": 6, "mechanical": 1, "ebike": 5, "is_renting": "OUI", "is_returning": "OUI", "duedate": "2025-07-11T21:42:42+00:00", "coordonnees_geo": {"lon": 2.3267009854316716, "lat": 48.81807418981508}, "nom_arrondissement_communes": "Montrouge", "code_insee_commune": "92049", "station_opening_hours": null}, {"stationcode": "15068", "name": "G\u00e9n\u00e9ral Martial Valin - Pont du Garigliano", "is_installed": "OUI", "capacity": 16, "numdocksavailable": 12, "numbikesavailable": 3, "mechanical": 2, "ebike": 1, "is_renting": "OUI", "is_returning": "OUI", "duedate": "2025-07-11T21:46:32+00:00", "coordonnees_geo": {"lon": 2.270506024360657, "lat": 48.83823094269141}, "nom_arrondissement_communes": "Paris", "code_insee_commune": "75056", "station_opening_hours": null}, {"stationcode": "22207", "name": "Rond-point du Dr Albert Schweitzer", "is_installed": "OUI", "capacity": 22, "numdocksavailable": 11, "numbikesavailable": 11, "mechanical": 5, "ebike": 6, "is_renting": "OUI", "is_returning": "OUI", "duedate": "2025-07-11T21:47:01+00:00", "coordonnees_geo": {"lon": 2.3143940046429634, "lat": 48.78980918988166}, "nom_arrondissement_communes": "Bagneux", "code_insee_commune": "92007", "station_opening_hours": null}, {"stationcode": "92002", "name": "Th\u00e9\u00e2tre des Amandiers - Palais des sports", "is_installed": "OUI", "capacity": 23, "numdocksavailable": 18, "numbikesavailable": 4, "mechanical": 2, "ebike": 2, "is_renting": "OUI", "is_returning": "OUI", "duedate": "2025-07-11T21:44:14+00:00", "coordonnees_geo": {"lon": 2.2136941552162, "lat": 48.892648526839}, "nom_arrondissement_communes": "Nanterre", "code_insee_commune": "92050", "station_opening_hours": null}, {"stationcode": "31028", "name": "Raspail Barb\u00e8s", "is_installed": "OUI", "capacity": 28, "numdocksavailable": 18, "numbikesavailable": 8, "mechanical": 2, "ebike": 6, "is_renting": "OUI", "is_returning": "OUI", "duedate": "2025-07-11T21:46:48+00:00", "coordonnees_geo": {"lon": 2.4247387, "lat": 48.8529945}, "nom_arrondissement_communes": "Montreuil", "code_insee_commune": "93048", "station_opening_hours": null}, {"stationcode": "17048", "name": "De Toqueville - Terrasse", "is_installed": "OUI", "capacity": 30, "numdocksavailable": 13, "numbikesavailable": 15, "mechanical": 2, "ebike": 13, "is_renting": "OUI", "is_returning": "OUI", "duedate": "2025-07-11T21:44:43+00:00", "coordonnees_geo": {"lon": 2.314002, "lat": 48.882428}, "nom_arrondissement_communes": "Paris", "code_insee_commune": "75056", "station_opening_hours": null}, {"stationcode": "44017", "name": "Jules Guesde - Pont du Port \u00e0 l'Anglais", "is_installed": "OUI", "capacity": 30, "numdocksavailable": 4, "numbikesavailable": 24, "mechanical": 23, "ebike": 1, "is_renting": "OUI", "is_returning": "OUI", "duedate": "2025-07-11T21:45:10+00:00", "coordonnees_geo": {"lon": 2.417212128639221, "lat": 48.79628807093802}, "nom_arrondissement_communes": "Vitry-sur-Seine", "code_insee_commune": "94081", "station_opening_hours": null}, {"stationcode": "2017", "name": "Caire - Dussoubs", "is_installed": "OUI", "capacity": 40, "numdocksavailable": 37, "numbikesavailable": 3, "mechanical": 1, "ebike": 2, "is_renting": "OUI", "is_returning": "OUI", "duedate": "2025-07-11T21:42:28+00:00", "coordonnees_geo": {"lon": 2.349364310503006, "lat": 48.86785342111862}, "nom_arrondissement_communes": "Paris", "code_insee_commune": "75056", "station_opening_hours": null}, {"stationcode": "8103", "name": "Artois - Berri", "is_installed": "OUI", "capacity": 37, "numdocksavailable": 35, "numbikesavailable": 2, "mechanical": 1, "ebike": 1, "is_renting": "OUI", "is_returning": "OUI", "duedate": "2025-07-11T21:45:46+00:00", "coordonnees_geo": {"lon": 2.3064258322119713, "lat": 48.87393521240818}, "nom_arrondissement_communes": "Paris", "code_insee_commune": "75056", "station_opening_hours": null}, {"stationcode": "8048", "name": "Marceau - Chaillot", "is_installed": "OUI", "capacity": 21, "numdocksavailable": 18, "numbikesavailable": 1, "mechanical": 0, "ebike": 1, "is_renting": "OUI", "is_returning": "OUI", "duedate": "2025-07-11T21:47:11+00:00", "coordonnees_geo": {"lon": 2.2986030816809, "lat": 48.868834023334}, "nom_arrondissement_communes": "Paris", "code_insee_commune": "75056", "station_opening_hours": null}, {"stationcode": "15112", "name": "Vig\u00e9e-Lebrun - Anselme Payen", "is_installed": "OUI", "capacity": 24, "numdocksavailable": 14, "numbikesavailable": 9, "mechanical": 3, "ebike": 6, "is_renting": "OUI", "is_returning": "OUI", "duedate": "2025-07-11T21:47:47+00:00", "coordonnees_geo": {"lon": 2.3110422492027287, "lat": 48.838683941628375}, "nom_arrondissement_communes": "Paris", "code_insee_commune": "75056", "station_opening_hours": null}, {"stationcode": "16110", "name": "Octave Feuillet - Alb\u00e9ric Magnard", "is_installed": "OUI", "capacity": 21, "numdocksavailable": 15, "numbikesavailable": 6, "mechanical": 3, "ebike": 3, "is_renting": "OUI", "is_returning": "OUI", "duedate": "2025-07-11T21:42:29+00:00", "coordonnees_geo": {"lon": 2.2730283066630363, "lat": 48.86106902949534}, "nom_arrondissement_communes": "Paris", "code_insee_commune": "75056", "station_opening_hours": null}, {"stationcode": "8016", "name": "Square Louis XVI", "is_installed": "OUI", "capacity": 29, "numdocksavailable": 26, "numbikesavailable": 1, "mechanical": 0, "ebike": 1, "is_renting": "OUI", "is_returning": "OUI", "duedate": "2025-07-11T21:43:50+00:00", "coordonnees_geo": {"lon": 2.323658830743138, "lat": 48.87320440102894}, "nom_arrondissement_communes": "Paris", "code_insee_commune": "75056", "station_opening_hours": null}, {"stationcode": "10115", "name": "Granges aux Belles", "is_installed": "OUI", "capacity": 27, "numdocksavailable": 13, "numbikesavailable": 11, "mechanical": 5, "ebike": 6, "is_renting": "OUI", "is_returning": "OUI", "duedate": "2025-07-11T21:45:40+00:00", "coordonnees_geo": {"lon": 2.3680844979417, "lat": 48.8761373390584}, "nom_arrondissement_communes": "Paris", "code_insee_commune": "75056", "station_opening_hours": null}, {"stationcode": "1001", "name": "Quai de l'Horloge - Pont Neuf", "is_installed": "OUI", "capacity": 17, "numdocksavailable": 14, "numbikesavailable": 3, "mechanical": 0, "ebike": 3, "is_renting": "OUI", "is_returning": "OUI", "duedate": "2025-07-11T21:48:48+00:00", "coordonnees_geo": {"lon": 2.3417982839439, "lat": 48.857058739111}, "nom_arrondissement_communes": "Paris", "code_insee_commune": "75056", "station_opening_hours": null}, {"stationcode": "5022", "name": "Boulangers - Cardinal Lemoine", "is_installed": "OUI", "capacity": 20, "numdocksavailable": 16, "numbikesavailable": 4, "mechanical": 2, "ebike": 2, "is_renting": "OUI", "is_returning": "OUI", "duedate": "2025-07-11T21:47:17+00:00", "coordonnees_geo": {"lon": 2.3521495, "lat": 48.8462904}, "nom_arrondissement_communes": "Paris", "code_insee_commune": "75056", "station_opening_hours": null}, {"stationcode": "13104", "name": "Gare d'Austerlitz - Quai Saint-Bernard", "is_installed": "OUI", "capacity": 27, "numdocksavailable": 7, "numbikesavailable": 17, "mechanical": 17, "ebike": 0, "is_renting": "OUI", "is_returning": "OUI", "duedate": "2025-07-11T21:45:40+00:00", "coordonnees_geo": {"lon": 2.3657163977623, "lat": 48.84369030864}, "nom_arrondissement_communes": "Paris", "code_insee_commune": "75056", "station_opening_hours": null}, {"stationcode": "17040", "name": "Pereire - Ternes", "is_installed": "OUI", "capacity": 48, "numdocksavailable": 42, "numbikesavailable": 6, "mechanical": 6, "ebike": 0, "is_renting": "OUI", "is_returning": "OUI", "duedate": "2025-07-11T21:45:09+00:00", "coordonnees_geo": {"lon": 2.288012132048607, "lat": 48.87973954830735}, "nom_arrondissement_communes": "Paris", "code_insee_commune": "75056", "station_opening_hours": null}, {"stationcode": "9038", "name": "Douai - Bruxelles", "is_installed": "OUI", "capacity": 27, "numdocksavailable": 22, "numbikesavailable": 3, "mechanical": 0, "ebike": 3, "is_renting": "OUI", "is_returning": "OUI", "duedate": "2025-07-11T21:44:18+00:00", "coordonnees_geo": {"lon": 2.3308449949028507, "lat": 48.88320784122797}, "nom_arrondissement_communes": "Paris", "code_insee_commune": "75056", "station_opening_hours": null}, {"stationcode": "17008", "name": "Porte Pouchet-Bessi\u00e8res", "is_installed": "OUI", "capacity": 23, "numdocksavailable": 14, "numbikesavailable": 8, "mechanical": 3, "ebike": 5, "is_renting": "OUI", "is_returning": "OUI", "duedate": "2025-07-11T21:48:33+00:00", "coordonnees_geo": {"lon": 2.3230632, "lat": 48.8978765}, "nom_arrondissement_communes": "Paris", "code_insee_commune": "75056", "station_opening_hours": null}, {"stationcode": "5005", "name": "Gay Lussac - Saint-Jacques", "is_installed": "OUI", "capacity": 24, "numdocksavailable": 22, "numbikesavailable": 2, "mechanical": 0, "ebike": 2, "is_renting": "OUI", "is_returning": "OUI", "duedate": "2025-07-11T21:39:50+00:00", "coordonnees_geo": {"lon": 2.3419239448664, "lat": 48.844730256132}, "nom_arrondissement_communes": "Paris", "code_insee_commune": "75056", "station_opening_hours": null}, {"stationcode": "21323", "name": "Charlot - Stade Gabriel Voisin", "is_installed": "OUI", "capacity": 31, "numdocksavailable": 3, "numbikesavailable": 27, "mechanical": 27, "ebike": 0, "is_renting": "OUI", "is_returning": "OUI", "duedate": "2025-07-11T21:48:36+00:00", "coordonnees_geo": {"lon": 2.268122527474, "lat": 48.827228120536}, "nom_arrondissement_communes": "Issy-les-Moulineaux", "code_insee_commune": "92040", "station_opening_hours": null}, {"stationcode": "9014", "name": "Faubourg Montmartre - La Fayette", "is_installed": "OUI", "capacity": 35, "numdocksavailable": 27, "numbikesavailable": 6, "mechanical": 1, "ebike": 5, "is_renting": "OUI", "is_returning": "OUI", "duedate": "2025-07-11T21:44:45+00:00", "coordonnees_geo": {"lon": 2.3408536612988, "lat": 48.875254549053}, "nom_arrondissement_communes": "Paris", "code_insee_commune": "75056", "station_opening_hours": null}, {"stationcode": "22409", "name": "Henri Barbusse - Stalingrad", "is_installed": "OUI", "capacity": 16, "numdocksavailable": 13, "numbikesavailable": 3, "mechanical": 1, "ebike": 2, "is_renting": "OUI", "is_returning": "OUI", "duedate": "2025-07-11T21:47:56+00:00", "coordonnees_geo": {"lon": 2.2872862592339516, "lat": 48.814183748660554}, "nom_arrondissement_communes": "Malakoff", "code_insee_commune": "92046", "station_opening_hours": null}, {"stationcode": "19015", "name": "Thionville - Ourcq", "is_installed": "OUI", "capacity": 24, "numdocksavailable": 10, "numbikesavailable": 14, "mechanical": 9, "ebike": 5, "is_renting": "OUI", "is_returning": "OUI", "duedate": "2025-07-11T21:48:06+00:00", "coordonnees_geo": {"lon": 2.3833653330802917, "lat": 48.88917613743794}, "nom_arrondissement_communes": "Paris", "code_insee_commune": "75056", "station_opening_hours": null}, {"stationcode": "9022", "name": "Rossini - Laffitte", "is_installed": "OUI", "capacity": 33, "numdocksavailable": 32, "numbikesavailable": 1, "mechanical": 0, "ebike": 1, "is_renting": "OUI", "is_returning": "OUI", "duedate": "2025-07-11T21:47:24+00:00", "coordonnees_geo": {"lon": 2.337980867701675, "lat": 48.87334627510507}, "nom_arrondissement_communes": "Paris", "code_insee_commune": "75056", "station_opening_hours": null}, {"stationcode": "17004", "name": "Legendre - Clichy", "is_installed": "OUI", "capacity": 40, "numdocksavailable": 30, "numbikesavailable": 8, "mechanical": 5, "ebike": 3, "is_renting": "OUI", "is_returning": "OUI", "duedate": "2025-07-11T21:48:06+00:00", "coordonnees_geo": {"lon": 2.322528975094376, "lat": 48.88896161855884}, "nom_arrondissement_communes": "Paris", "code_insee_commune": "75056", "station_opening_hours": null}, {"stationcode": "19003", "name": "Quai de la Seine", "is_installed": "OUI", "capacity": 24, "numdocksavailable": 19, "numbikesavailable": 4, "mechanical": 1, "ebike": 3, "is_renting": "OUI", "is_returning": "OUI", "duedate": "2025-07-11T21:48:06+00:00", "coordonnees_geo": {"lon": 2.3703941702842717, "lat": 48.884492238407525}, "nom_arrondissement_communes": "Paris", "code_insee_commune": "75056", "station_opening_hours": null}, {"stationcode": "12151", "name": "Gare de Lyon - Place Louis Armand", "is_installed": "OUI", "capacity": 60, "numdocksavailable": 20, "numbikesavailable": 37, "mechanical": 35, "ebike": 2, "is_renting": "OUI", "is_returning": "OUI", "duedate": "2025-07-11T21:48:28+00:00", "coordonnees_geo": {"lon": 2.3726498446286, "lat": 48.845515089794}, "nom_arrondissement_communes": "Paris", "code_insee_commune": "75056", "station_opening_hours": null}, {"stationcode": "5020", "name": "Institut du Monde Arabe - Saint-Germain", "is_installed": "OUI", "capacity": 40, "numdocksavailable": 25, "numbikesavailable": 8, "mechanical": 2, "ebike": 6, "is_renting": "OUI", "is_returning": "OUI", "duedate": "2025-07-11T21:48:44+00:00", "coordonnees_geo": {"lon": 2.3558086529374, "lat": 48.849063299501}, "nom_arrondissement_communes": "Paris", "code_insee_commune": "75056", "station_opening_hours": null}, {"stationcode": "9028", "name": "Moncey - Blanche", "is_installed": "OUI", "capacity": 17, "numdocksavailable": 13, "numbikesavailable": 1, "mechanical": 1, "ebike": 0, "is_renting": "OUI", "is_returning": "OUI", "duedate": "2025-07-11T21:44:28+00:00", "coordonnees_geo": {"lon": 2.3310810327529907, "lat": 48.88006587474148}, "nom_arrondissement_communes": "Paris", "code_insee_commune": "75056", "station_opening_hours": null}, {"stationcode": "10107", "name": "Gare du Nord - H\u00f4pital Lariboisi\u00e8re", "is_installed": "OUI", "capacity": 49, "numdocksavailable": 27, "numbikesavailable": 20, "mechanical": 8, "ebike": 12, "is_renting": "OUI", "is_returning": "OUI", "duedate": "2025-07-11T21:43:05+00:00", "coordonnees_geo": {"lon": 2.352339, "lat": 48.881949}, "nom_arrondissement_communes": "Paris", "code_insee_commune": "75056", "station_opening_hours": null}, {"stationcode": "16039", "name": "Exelmans - Versailles", "is_installed": "OUI", "capacity": 49, "numdocksavailable": 14, "numbikesavailable": 34, "mechanical": 31, "ebike": 3, "is_renting": "OUI", "is_returning": "OUI", "duedate": "2025-07-11T21:48:55+00:00", "coordonnees_geo": {"lon": 2.264390252530575, "lat": 48.84097491091973}, "nom_arrondissement_communes": "Paris", "code_insee_commune": "75056", "station_opening_hours": null}, {"stationcode": "11002", "name": "Roquette - Thi\u00e9r\u00e9", "is_installed": "OUI", "capacity": 23, "numdocksavailable": 5, "numbikesavailable": 16, "mechanical": 13, "ebike": 3, "is_renting": "OUI", "is_returning": "OUI", "duedate": "2025-07-11T21:48:39+00:00", "coordonnees_geo": {"lon": 2.3733686318721463, "lat": 48.85507930579506}, "nom_arrondissement_communes": "Paris", "code_insee_commune": "75056", "station_opening_hours": null}, {"stationcode": "12111", "name": "Claude Decaen - Cannebi\u00e8re", "is_installed": "OUI", "capacity": 45, "numdocksavailable": 39, "numbikesavailable": 6, "mechanical": 3, "ebike": 3, "is_renting": "OUI", "is_returning": "OUI", "duedate": "2025-07-11T21:48:18+00:00", "coordonnees_geo": {"lon": 2.397253782195704, "lat": 48.83761417037952}, "nom_arrondissement_communes": "Paris", "code_insee_commune": "75056", "station_opening_hours": null}, {"stationcode": "19043", "name": "Delphine Seyrig - G\u00e9n\u00e9ral Leclerc", "is_installed": "OUI", "capacity": 53, "numdocksavailable": 46, "numbikesavailable": 5, "mechanical": 1, "ebike": 4, "is_renting": "OUI", "is_returning": "OUI", "duedate": "2025-07-11T21:39:23+00:00", "coordonnees_geo": {"lon": 2.39790290594101, "lat": 48.893923963057865}, "nom_arrondissement_communes": "Pantin", "code_insee_commune": "93055", "station_opening_hours": null}, {"stationcode": "18107", "name": "Chartres - La Charbonni\u00e8re", "is_installed": "OUI", "capacity": 34, "numdocksavailable": 31, "numbikesavailable": 3, "mechanical": 2, "ebike": 1, "is_renting": "OUI", "is_returning": "OUI", "duedate": "2025-07-11T21:43:53+00:00", "coordonnees_geo": {"lon": 2.3534657, "lat": 48.8847601}, "nom_arrondissement_communes": "Paris", "code_insee_commune": "75056", "station_opening_hours": null}, {"stationcode": "20042", "name": "Pyr\u00e9n\u00e9es - Emmery", "is_installed": "OUI", "capacity": 40, "numdocksavailable": 34, "numbikesavailable": 5, "mechanical": 0, "ebike": 5, "is_renting": "OUI", "is_returning": "OUI", "duedate": "2025-07-11T21:46:04+00:00", "coordonnees_geo": {"lon": 2.392039597034455, "lat": 48.872010281270974}, "nom_arrondissement_communes": "Paris", "code_insee_commune": "75056", "station_opening_hours": null}, {"stationcode": "17030", "name": "Pereire - Rennequin", "is_installed": "OUI", "capacity": 23, "numdocksavailable": 19, "numbikesavailable": 2, "mechanical": 2, "ebike": 0, "is_renting": "OUI", "is_returning": "OUI", "duedate": "2025-07-11T21:41:58+00:00", "coordonnees_geo": {"lon": 2.2952447086572647, "lat": 48.88364782887555}, "nom_arrondissement_communes": "Paris", "code_insee_commune": "75056", "station_opening_hours": null}, {"stationcode": "12128", "name": "Pyramide - Ecole du Breuil", "is_installed": "OUI", "capacity": 34, "numdocksavailable": 30, "numbikesavailable": 1, "mechanical": 0, "ebike": 1, "is_renting": "OUI", "is_returning": "OUI", "duedate": "2025-07-11T21:48:50+00:00", "coordonnees_geo": {"lon": 2.4586871266365056, "lat": 48.82237977153955}, "nom_arrondissement_communes": "Paris", "code_insee_commune": "75056", "station_opening_hours": null}, {"stationcode": "8010", "name": "Li\u00e8ge - Moscou", "is_installed": "OUI", "capacity": 17, "numdocksavailable": 15, "numbikesavailable": 2, "mechanical": 2, "ebike": 0, "is_renting": "OUI", "is_returning": "OUI", "duedate": "2025-07-11T21:45:24+00:00", "coordonnees_geo": {"lon": 2.3264628, "lat": 48.8795431}, "nom_arrondissement_communes": "Paris", "code_insee_commune": "75056", "station_opening_hours": null}, {"stationcode": "46002", "name": "Rouget de Lisle", "is_installed": "OUI", "capacity": 35, "numdocksavailable": 11, "numbikesavailable": 23, "mechanical": 15, "ebike": 8, "is_renting": "OUI", "is_returning": "OUI", "duedate": "2025-07-11T21:48:33+00:00", "coordonnees_geo": {"lon": 2.4071189761161804, "lat": 48.764615483395254}, "nom_arrondissement_communes": "Choisy-le-Roi", "code_insee_commune": "94022", "station_opening_hours": null}, {"stationcode": "10016", "name": "R\u00e9collets - Square Villemin", "is_installed": "OUI", "capacity": 17, "numdocksavailable": 13, "numbikesavailable": 4, "mechanical": 1, "ebike": 3, "is_renting": "OUI", "is_returning": "OUI", "duedate": "2025-07-11T21:45:41+00:00", "coordonnees_geo": {"lon": 2.359801238597928, "lat": 48.875034655883944}, "nom_arrondissement_communes": "Paris", "code_insee_commune": "75056", "station_opening_hours": null}, {"stationcode": "41302", "name": "Charles de Gaulle - Beaut\u00e9", "is_installed": "OUI", "capacity": 49, "numdocksavailable": 29, "numbikesavailable": 19, "mechanical": 5, "ebike": 14, "is_renting": "OUI", "is_returning": "OUI", "duedate": "2025-07-11T21:48:09+00:00", "coordonnees_geo": {"lon": 2.479562651149885, "lat": 48.83649602312711}, "nom_arrondissement_communes": "Nogent-sur-Marne", "code_insee_commune": "94052", "station_opening_hours": null}, {"stationcode": "14020", "name": "Cimeti\u00e8re de Montrouge", "is_installed": "OUI", "capacity": 58, "numdocksavailable": 45, "numbikesavailable": 13, "mechanical": 9, "ebike": 4, "is_renting": "OUI", "is_returning": "OUI", "duedate": "2025-07-11T21:48:11+00:00", "coordonnees_geo": {"lon": 2.3215785772007, "lat": 48.821466904768}, "nom_arrondissement_communes": "Paris", "code_insee_commune": "75056", "station_opening_hours": null}, {"stationcode": "33017", "name": "Anatole France - President Roosevelt", "is_installed": "OUI", "capacity": 29, "numdocksavailable": 17, "numbikesavailable": 8, "mechanical": 3, "ebike": 5, "is_renting": "OUI", "is_returning": "OUI", "duedate": "2025-07-11T21:47:45+00:00", "coordonnees_geo": {"lon": 2.3814103, "lat": 48.9155156}, "nom_arrondissement_communes": "Aubervilliers", "code_insee_commune": "93001", "station_opening_hours": null}, {"stationcode": "15042", "name": "Henry Farman", "is_installed": "OUI", "capacity": 16, "numdocksavailable": 12, "numbikesavailable": 3, "mechanical": 3, "ebike": 0, "is_renting": "OUI", "is_returning": "OUI", "duedate": "2025-07-11T21:45:38+00:00", "coordonnees_geo": {"lon": 2.2713854536414146, "lat": 48.83372430280548}, "nom_arrondissement_communes": "Paris", "code_insee_commune": "75056", "station_opening_hours": null}, {"stationcode": "21212", "name": "Marne - Germain Dardan", "is_installed": "OUI", "capacity": 22, "numdocksavailable": 17, "numbikesavailable": 3, "mechanical": 1, "ebike": 2, "is_renting": "OUI", "is_returning": "OUI", "duedate": "2025-07-11T21:46:34+00:00", "coordonnees_geo": {"lon": 2.3035024699104, "lat": 48.81217465201}, "nom_arrondissement_communes": "Montrouge", "code_insee_commune": "92049", "station_opening_hours": null}, {"stationcode": "14003", "name": "Schoelcher - Raspail", "is_installed": "OUI", "capacity": 50, "numdocksavailable": 39, "numbikesavailable": 11, "mechanical": 11, "ebike": 0, "is_renting": "OUI", "is_returning": "OUI", "duedate": "2025-07-11T21:48:05+00:00", "coordonnees_geo": {"lon": 2.3312794080411474, "lat": 48.83681733526843}, "nom_arrondissement_communes": "Paris", "code_insee_commune": "75056", "station_opening_hours": null}, {"stationcode": "43008", "name": "Fontenay - Lib\u00e9ration", "is_installed": "OUI", "capacity": 25, "numdocksavailable": 7, "numbikesavailable": 16, "mechanical": 9, "ebike": 7, "is_renting": "OUI", "is_returning": "OUI", "duedate": "2025-07-11T21:47:09+00:00", "coordonnees_geo": {"lon": 2.4451419711113, "lat": 48.847803063647}, "nom_arrondissement_communes": "Vincennes", "code_insee_commune": "94080", "station_opening_hours": null}, {"stationcode": "14138", "name": "Porte de Vanves", "is_installed": "OUI", "capacity": 32, "numdocksavailable": 26, "numbikesavailable": 5, "mechanical": 2, "ebike": 3, "is_renting": "OUI", "is_returning": "OUI", "duedate": "2025-07-11T21:47:05+00:00", "coordonnees_geo": {"lon": 2.3056878894567, "lat": 48.828012849445}, "nom_arrondissement_communes": "Paris", "code_insee_commune": "75056", "station_opening_hours": null}, {"stationcode": "12114", "name": "Victor Hugo - Jeanne Jugan", "is_installed": "OUI", "capacity": 28, "numdocksavailable": 25, "numbikesavailable": 2, "mechanical": 1, "ebike": 1, "is_renting": "OUI", "is_returning": "OUI", "duedate": "2025-07-11T21:42:34+00:00", "coordonnees_geo": {"lon": 2.415081394834419, "lat": 48.843949064031825}, "nom_arrondissement_communes": "Paris", "code_insee_commune": "75056", "station_opening_hours": null}, {"stationcode": "41209", "name": "Cimeti\u00e8re de Fontenay-sous-Bois", "is_installed": "OUI", "capacity": 15, "numdocksavailable": 14, "numbikesavailable": 1, "mechanical": 0, "ebike": 1, "is_renting": "OUI", "is_returning": "OUI", "duedate": "2025-07-11T21:43:52+00:00", "coordonnees_geo": {"lon": 2.4787822365760808, "lat": 48.84706173362218}, "nom_arrondissement_communes": "Fontenay-sous-Bois", "code_insee_commune": "94033", "station_opening_hours": null}, {"stationcode": "21312", "name": "Lucie Aubrac - Fort", "is_installed": "OUI", "capacity": 30, "numdocksavailable": 28, "numbikesavailable": 2, "mechanical": 0, "ebike": 2, "is_renting": "OUI", "is_returning": "OUI", "duedate": "2025-07-11T21:45:10+00:00", "coordonnees_geo": {"lon": 2.271184623241425, "lat": 48.818144834008976}, "nom_arrondissement_communes": "Issy-les-Moulineaux", "code_insee_commune": "92040", "station_opening_hours": null}, {"stationcode": "14008", "name": "Mouton Duvernet - G\u00e9n\u00e9ral Leclerc", "is_installed": "OUI", "capacity": 28, "numdocksavailable": 23, "numbikesavailable": 5, "mechanical": 1, "ebike": 4, "is_renting": "OUI", "is_returning": "OUI", "duedate": "2025-07-11T21:44:00+00:00", "coordonnees_geo": {"lon": 2.3293121159077, "lat": 48.831632518293}, "nom_arrondissement_communes": "Paris", "code_insee_commune": "75056", "station_opening_hours": null}, {"stationcode": "13001", "name": "Port-Royal - H\u00f4pital du Val-de-Gr\u00e2ce", "is_installed": "OUI", "capacity": 18, "numdocksavailable": 7, "numbikesavailable": 11, "mechanical": 9, "ebike": 2, "is_renting": "OUI", "is_returning": "OUI", "duedate": "2025-07-11T21:47:43+00:00", "coordonnees_geo": {"lon": 2.3448138346607, "lat": 48.837668272811}, "nom_arrondissement_communes": "Paris", "code_insee_commune": "75056", "station_opening_hours": null}, {"stationcode": "8017", "name": "Rocher - Laborde", "is_installed": "OUI", "capacity": 65, "numdocksavailable": 63, "numbikesavailable": 2, "mechanical": 2, "ebike": 0, "is_renting": "OUI", "is_returning": "OUI", "duedate": "2025-07-11T21:42:31+00:00", "coordonnees_geo": {"lon": 2.322616316378116, "lat": 48.87590240712654}, "nom_arrondissement_communes": "Paris", "code_insee_commune": "75056", "station_opening_hours": null}, {"stationcode": "15054", "name": "Lecourbe - Jean Maridor", "is_installed": "OUI", "capacity": 19, "numdocksavailable": 7, "numbikesavailable": 12, "mechanical": 3, "ebike": 9, "is_renting": "OUI", "is_returning": "OUI", "duedate": "2025-07-11T21:48:38+00:00", "coordonnees_geo": {"lon": 2.2877392172813416, "lat": 48.83796366147599}, "nom_arrondissement_communes": "Paris", "code_insee_commune": "75056", "station_opening_hours": null}, {"stationcode": "15106", "name": "Grenelle - Violet", "is_installed": "OUI", "capacity": 35, "numdocksavailable": 11, "numbikesavailable": 23, "mechanical": 21, "ebike": 2, "is_renting": "OUI", "is_returning": "OUI", "duedate": "2025-07-11T21:48:00+00:00", "coordonnees_geo": {"lon": 2.294612042605877, "lat": 48.84993035512154}, "nom_arrondissement_communes": "Paris", "code_insee_commune": "75056", "station_opening_hours": null}, {"stationcode": "14106", "name": "Marc Sangnier - Porte de Vanves", "is_installed": "OUI", "capacity": 21, "numdocksavailable": 11, "numbikesavailable": 10, "mechanical": 7, "ebike": 3, "is_renting": "OUI", "is_returning": "OUI", "duedate": "2025-07-11T21:47:48+00:00", "coordonnees_geo": {"lon": 2.3107116669416428, "lat": 48.825218683556734}, "nom_arrondissement_communes": "Paris", "code_insee_commune": "75056", "station_opening_hours": null}, {"stationcode": "18046", "name": "Etienne Jodelle - Saint Ouen", "is_installed": "OUI", "capacity": 33, "numdocksavailable": 28, "numbikesavailable": 3, "mechanical": 2, "ebike": 1, "is_renting": "OUI", "is_returning": "OUI", "duedate": "2025-07-11T21:47:02+00:00", "coordonnees_geo": {"lon": 2.326124420314341, "lat": 48.88794016394694}, "nom_arrondissement_communes": "Paris", "code_insee_commune": "75056", "station_opening_hours": null}, {"stationcode": "15109", "name": "Cevennes - Bergers", "is_installed": "OUI", "capacity": 29, "numdocksavailable": 6, "numbikesavailable": 23, "mechanical": 16, "ebike": 7, "is_renting": "OUI", "is_returning": "OUI", "duedate": "2025-07-11T21:45:40+00:00", "coordonnees_geo": {"lon": 2.281037718057633, "lat": 48.84240765130395}, "nom_arrondissement_communes": "Paris", "code_insee_commune": "75056", "station_opening_hours": null}, {"stationcode": "21209", "name": "Moli\u00e8re - R\u00e9publique", "is_installed": "OUI", "capacity": 30, "numdocksavailable": 14, "numbikesavailable": 15, "mechanical": 10, "ebike": 5, "is_renting": "OUI", "is_returning": "OUI", "duedate": "2025-07-11T21:46:23+00:00", "coordonnees_geo": {"lon": 2.3145738624448158, "lat": 48.81111581390707}, "nom_arrondissement_communes": "Montrouge", "code_insee_commune": "92049", "station_opening_hours": null}, {"stationcode": "14012", "name": "Sibelle - Al\u00e9sia", "is_installed": "OUI", "capacity": 37, "numdocksavailable": 33, "numbikesavailable": 3, "mechanical": 1, "ebike": 2, "is_renting": "OUI", "is_returning": "OUI", "duedate": "2025-07-11T21:46:33+00:00", "coordonnees_geo": {"lon": 2.3384983465075493, "lat": 48.826701758539215}, "nom_arrondissement_communes": "Paris", "code_insee_commune": "75056", "station_opening_hours": null}, {"stationcode": "21005", "name": "H\u00f4tel de Ville de Boulogne Billancourt", "is_installed": "OUI", "capacity": 26, "numdocksavailable": 17, "numbikesavailable": 9, "mechanical": 8, "ebike": 1, "is_renting": "OUI", "is_returning": "OUI", "duedate": "2025-07-11T21:48:19+00:00", "coordonnees_geo": {"lon": 2.2416803240776066, "lat": 48.83495885166784}, "nom_arrondissement_communes": "Boulogne-Billancourt", "code_insee_commune": "92012", "station_opening_hours": null}, {"stationcode": "17203", "name": "Place de la Porte de Champeret", "is_installed": "OUI", "capacity": 28, "numdocksavailable": 19, "numbikesavailable": 9, "mechanical": 5, "ebike": 4, "is_renting": "OUI", "is_returning": "OUI", "duedate": "2025-07-11T21:44:01+00:00", "coordonnees_geo": {"lon": 2.2917001576821, "lat": 48.886062068226}, "nom_arrondissement_communes": "Paris", "code_insee_commune": "75056", "station_opening_hours": null}, {"stationcode": "42014", "name": "Place Marcel Cachin", "is_installed": "OUI", "capacity": 32, "numdocksavailable": 1, "numbikesavailable": 31, "mechanical": 31, "ebike": 0, "is_renting": "OUI", "is_returning": "OUI", "duedate": "2025-07-11T21:47:45+00:00", "coordonnees_geo": {"lon": 2.39090770483017, "lat": 48.81411442356866}, "nom_arrondissement_communes": "Ivry-sur-Seine", "code_insee_commune": "94041", "station_opening_hours": null}, {"stationcode": "8045", "name": "Place de la Reine Astrid", "is_installed": "OUI", "capacity": 58, "numdocksavailable": 41, "numbikesavailable": 13, "mechanical": 12, "ebike": 1, "is_renting": "OUI", "is_returning": "OUI", "duedate": "2025-07-11T21:48:43+00:00", "coordonnees_geo": {"lon": 2.3025491823859, "lat": 48.864920982538}, "nom_arrondissement_communes": "Paris", "code_insee_commune": "75056", "station_opening_hours": null}, {"stationcode": "14124", "name": "David Weill - Parc Montsouris", "is_installed": "OUI", "capacity": 22, "numdocksavailable": 14, "numbikesavailable": 8, "mechanical": 3, "ebike": 5, "is_renting": "OUI", "is_returning": "OUI", "duedate": "2025-07-11T21:45:25+00:00", "coordonnees_geo": {"lon": 2.333725690841675, "lat": 48.821092374256104}, "nom_arrondissement_communes": "Paris", "code_insee_commune": "75056", "station_opening_hours": null}, {"stationcode": "15133", "name": "Saint Lambert - Blomet", "is_installed": "OUI", "capacity": 27, "numdocksavailable": 0, "numbikesavailable": 26, "mechanical": 22, "ebike": 4, "is_renting": "OUI", "is_returning": "OUI", "duedate": "2025-07-11T21:45:52+00:00", "coordonnees_geo": {"lon": 2.2930556908249855, "lat": 48.83659148147257}, "nom_arrondissement_communes": "Paris", "code_insee_commune": "75056", "station_opening_hours": null}, {"stationcode": "15110", "name": "Place Robert Guillemard", "is_installed": "OUI", "capacity": 24, "numdocksavailable": 11, "numbikesavailable": 13, "mechanical": 12, "ebike": 1, "is_renting": "OUI", "is_returning": "OUI", "duedate": "2025-07-11T21:41:52+00:00", "coordonnees_geo": {"lon": 2.2811267160086417, "lat": 48.836191728066666}, "nom_arrondissement_communes": "Paris", "code_insee_commune": "75056", "station_opening_hours": null}, {"stationcode": "21006", "name": "Marcelin Berthelot", "is_installed": "OUI", "capacity": 27, "numdocksavailable": 1, "numbikesavailable": 25, "mechanical": 24, "ebike": 1, "is_renting": "OUI", "is_returning": "OUI", "duedate": "2025-07-11T21:45:56+00:00", "coordonnees_geo": {"lon": 2.233161628246308, "lat": 48.8415473058801}, "nom_arrondissement_communes": "Boulogne-Billancourt", "code_insee_commune": "92012", "station_opening_hours": null}, {"stationcode": "21015", "name": "Nationale - Place Jules Guesde", "is_installed": "OUI", "capacity": 23, "numdocksavailable": 5, "numbikesavailable": 16, "mechanical": 12, "ebike": 4, "is_renting": "OUI", "is_returning": "OUI", "duedate": "2025-07-11T21:47:13+00:00", "coordonnees_geo": {"lon": 2.2416052222251897, "lat": 48.82753962462998}, "nom_arrondissement_communes": "Boulogne-Billancourt", "code_insee_commune": "92012", "station_opening_hours": null}, {"stationcode": "15034", "name": "Lakanal - Commerce", "is_installed": "OUI", "capacity": 53, "numdocksavailable": 11, "numbikesavailable": 39, "mechanical": 33, "ebike": 6, "is_renting": "OUI", "is_returning": "OUI", "duedate": "2025-07-11T21:48:14+00:00", "coordonnees_geo": {"lon": 2.294059172272682, "lat": 48.84442462786544}, "nom_arrondissement_communes": "Paris", "code_insee_commune": "75056", "station_opening_hours": null}, {"stationcode": "48010", "name": "Karl Marx", "is_installed": "OUI", "capacity": 16, "numdocksavailable": 16, "numbikesavailable": 0, "mechanical": 0, "ebike": 0, "is_renting": "OUI", "is_returning": "OUI", "duedate": "2025-07-11T21:36:32+00:00", "coordonnees_geo": {"lon": 2.3646667979455587, "lat": 48.784527937293184}, "nom_arrondissement_communes": "Villejuif", "code_insee_commune": "94076", "station_opening_hours": null}, {"stationcode": "22203", "name": "Tertres - Fontaine", "is_installed": "OUI", "capacity": 28, "numdocksavailable": 16, "numbikesavailable": 11, "mechanical": 4, "ebike": 7, "is_renting": "OUI", "is_returning": "OUI", "duedate": "2025-07-11T21:45:48+00:00", "coordonnees_geo": {"lon": 2.306235730648041, "lat": 48.787553654715644}, "nom_arrondissement_communes": "Bagneux", "code_insee_commune": "92007", "station_opening_hours": null}, {"stationcode": "41202", "name": "Gare Rer de Fontenay sous Bois", "is_installed": "OUI", "capacity": 61, "numdocksavailable": 52, "numbikesavailable": 8, "mechanical": 7, "ebike": 1, "is_renting": "OUI", "is_returning": "OUI", "duedate": "2025-07-11T21:48:44+00:00", "coordonnees_geo": {"lon": 2.4630465, "lat": 48.8436279}, "nom_arrondissement_communes": "Fontenay-sous-Bois", "code_insee_commune": "94033", "station_opening_hours": null}, {"stationcode": "42021", "name": "Raspail - Manufacture des Oeillets", "is_installed": "OUI", "capacity": 32, "numdocksavailable": 6, "numbikesavailable": 24, "mechanical": 19, "ebike": 5, "is_renting": "OUI", "is_returning": "OUI", "duedate": "2025-07-11T21:44:35+00:00", "coordonnees_geo": {"lon": 2.3903009, "lat": 48.8094458}, "nom_arrondissement_communes": "Ivry-sur-Seine", "code_insee_commune": "94041", "station_opening_hours": null}, {"stationcode": "1119", "name": "Cossonnerie - S\u00e9bastopol", "is_installed": "OUI", "capacity": 24, "numdocksavailable": 17, "numbikesavailable": 7, "mechanical": 2, "ebike": 5, "is_renting": "OUI", "is_returning": "OUI", "duedate": "2025-07-11T21:48:20+00:00", "coordonnees_geo": {"lon": 2.349419631063938, "lat": 48.86132665908402}, "nom_arrondissement_communes": "Paris", "code_insee_commune": "75056", "station_opening_hours": null}, {"stationcode": "35020", "name": "Marcelle - Thalie", "is_installed": "OUI", "capacity": 20, "numdocksavailable": 15, "numbikesavailable": 5, "mechanical": 0, "ebike": 5, "is_renting": "OUI", "is_returning": "OUI", "duedate": "2025-07-11T21:48:54+00:00", "coordonnees_geo": {"lon": 2.4137883, "lat": 48.8835462}, "nom_arrondissement_communes": "Pantin", "code_insee_commune": "93055", "station_opening_hours": null}, {"stationcode": "1020", "name": "Cambon - Rivoli", "is_installed": "OUI", "capacity": 40, "numdocksavailable": 35, "numbikesavailable": 3, "mechanical": 0, "ebike": 3, "is_renting": "OUI", "is_returning": "OUI", "duedate": "2025-07-11T21:46:00+00:00", "coordonnees_geo": {"lon": 2.3251800647137, "lat": 48.866143390992}, "nom_arrondissement_communes": "Paris", "code_insee_commune": "75056", "station_opening_hours": null}, {"stationcode": "25003", "name": "Henri Ste-Claire D\u00e9ville - Paul H\u00e9roult", "is_installed": "OUI", "capacity": 24, "numdocksavailable": 20, "numbikesavailable": 3, "mechanical": 0, "ebike": 3, "is_renting": "OUI", "is_returning": "OUI", "duedate": "2025-07-11T21:43:23+00:00", "coordonnees_geo": {"lon": 2.172411, "lat": 48.892663}, "nom_arrondissement_communes": "Rueil-Malmaison", "code_insee_commune": "92063", "station_opening_hours": null}]}