{"total_count": 1505, "results": [{"stationcode": "40001", "name": "H\u00f4pital Mondor", "is_installed": "OUI", "capacity": 28, "numdocksavailable": 10, "numbikesavailable": 19, "mechanical": 13, "ebike": 6, "is_renting": "OUI", "is_returning": "OUI", "duedate": "2025-12-29T07:08:34+00:00", "coordonnees_geo": {"lon": 2.4537451531298, "lat": 48.798922410229}, "nom_arrondissement_communes": "Cr\u00e9teil", "code_insee_commune": "94028", "station_opening_hours": null}, {"stationcode": "9020", "name": "Toudouze - Clauzel", "is_installed": "OUI", "capacity": 21, "numdocksavailable": 13, "numbikesavailable": 7, "mechanical": 0, "ebike": 7, "is_renting": "OUI", "is_returning": "OUI", "duedate": "2025-12-29T07:09:10+00:00", "coordonnees_geo": {"lon": 2.3373600840568547, "lat": 48.87929591733507}, "nom_arrondissement_communes": "Paris", "code_insee_commune": "75056", "station_opening_hours": null}, {"stationcode": "14111", "name": "Cassini - Denfert-Rochereau", "is_installed": "OUI", "capacity": 25, "numdocksavailable": 20, "numbikesavailable": 4, "mechanical": 0, "ebike": 4, "is_renting": "OUI", "is_returning": "OUI", "duedate": "2025-12-29T07:06:25+00:00", "coordonnees_geo": {"lon": 2.3360354080796, "lat": 48.837525839067}, "nom_arrondissement_communes": "Paris", "code_insee_commune": "75056", "station_opening_hours": null}, {"stationcode": "14014", "name": "Jourdan - Stade Charl\u00e9ty", "is_installed": "OUI", "capacity": 60, "numdocksavailable": 20, "numbikesavailable": 39, "mechanical": 20, "ebike": 19, "is_renting": "OUI", "is_returning": "OUI", "duedate": "2025-12-29T07:08:10+00:00", "coordonnees_geo": {"lon": 2.3433353751898, "lat": 48.819428333369}, "nom_arrondissement_communes": "Paris", "code_insee_commune": "75056", "station_opening_hours": null}, {"stationcode": "32017", "name": "Basilique", "is_installed": "OUI", "capacity": 22, "numdocksavailable": 19, "numbikesavailable": 2, "mechanical": 1, "ebike": 1, "is_renting": "OUI", "is_returning": "OUI", "duedate": "2025-12-29T07:08:51+00:00", "coordonnees_geo": {"lon": 2.3588666820200914, "lat": 48.93626891059109}, "nom_arrondissement_communes": "Saint-Denis", "code_insee_commune": "93066", "station_opening_hours": null}, {"stationcode": "8026", "name": "Messine - Place Du P\u00e9rou", "is_installed": "OUI", "capacity": 12, "numdocksavailable": 1, "numbikesavailable": 11, "mechanical": 3, "ebike": 8, "is_renting": "OUI", "is_returning": "OUI", "duedate": "2025-12-29T07:09:11+00:00", "coordonnees_geo": {"lon": 2.315508019010038, "lat": 48.875448033960744}, "nom_arrondissement_communes": "Paris", "code_insee_commune": "75056", "station_opening_hours": null}, {"stationcode": "6003", "name": "Saint-Sulpice", "is_installed": "OUI", "capacity": 21, "numdocksavailable": 20, "numbikesavailable": 1, "mechanical": 0, "ebike": 1, "is_renting": "OUI", "is_returning": "OUI", "duedate": "2025-12-29T07:06:54+00:00", "coordonnees_geo": {"lon": 2.3308077827095985, "lat": 48.85165383178419}, "nom_arrondissement_communes": "Paris", "code_insee_commune": "75056", "station_opening_hours": null}, {"stationcode": "7002", "name": "Vaneau - S\u00e8vres", "is_installed": "OUI", "capacity": 35, "numdocksavailable": 28, "numbikesavailable": 7, "mechanical": 3, "ebike": 4, "is_renting": "OUI", "is_returning": "OUI", "duedate": "2025-12-29T07:08:15+00:00", "coordonnees_geo": {"lon": 2.3204218259346, "lat": 48.848563233059}, "nom_arrondissement_communes": "Paris", "code_insee_commune": "75056", "station_opening_hours": null}, {"stationcode": "6108", "name": "Saint-Romain - Cherche-Midi", "is_installed": "OUI", "capacity": 17, "numdocksavailable": 12, "numbikesavailable": 5, "mechanical": 1, "ebike": 4, "is_renting": "OUI", "is_returning": "OUI", "duedate": "2025-12-29T07:03:39+00:00", "coordonnees_geo": {"lon": 2.321374788880348, "lat": 48.84708159081946}, "nom_arrondissement_communes": "Paris", "code_insee_commune": "75056", "station_opening_hours": null}, {"stationcode": "33006", "name": "Andr\u00e9 Karman - R\u00e9publique", "is_installed": "OUI", "capacity": 31, "numdocksavailable": 16, "numbikesavailable": 15, "mechanical": 12, "ebike": 3, "is_renting": "OUI", "is_returning": "OUI", "duedate": "2025-12-29T07:07:27+00:00", "coordonnees_geo": {"lon": 2.3851355910301213, "lat": 48.91039875761846}, "nom_arrondissement_communes": "Aubervilliers", "code_insee_commune": "93001", "station_opening_hours": null}, {"stationcode": "40011", "name": "Bas du Mont-Mesly", "is_installed": "OUI", "capacity": 27, "numdocksavailable": 21, "numbikesavailable": 6, "mechanical": 1, "ebike": 5, "is_renting": "OUI", "is_returning": "OUI", "duedate": "2025-12-29T07:07:48+00:00", "coordonnees_geo": {"lon": 2.4609763908985, "lat": 48.779035118572}, "nom_arrondissement_communes": "Cr\u00e9teil", "code_insee_commune": "94028", "station_opening_hours": null}, {"stationcode": "30002", "name": "Jean Rostand - Paul Vaillant Couturier", "is_installed": "OUI", "capacity": 40, "numdocksavailable": 14, "numbikesavailable": 24, "mechanical": 5, "ebike": 19, "is_renting": "OUI", "is_returning": "OUI", "duedate": "2025-12-29T07:09:49+00:00", "coordonnees_geo": {"lon": 2.4530601033354, "lat": 48.908168131015}, "nom_arrondissement_communes": "Bobigny", "code_insee_commune": "93008", "station_opening_hours": null}, {"stationcode": "7003", "name": "Square Boucicaut", "is_installed": "OUI", "capacity": 60, "numdocksavailable": 30, "numbikesavailable": 29, "mechanical": 27, "ebike": 2, "is_renting": "OUI", "is_returning": "OUI", "duedate": "2025-12-29T07:05:48+00:00", "coordonnees_geo": {"lon": 2.325061820447445, "lat": 48.851296433665276}, "nom_arrondissement_communes": "Paris", "code_insee_commune": "75056", "station_opening_hours": null}, {"stationcode": "17026", "name": "Jouffroy d'Abbans - Wagram", "is_installed": "OUI", "capacity": 40, "numdocksavailable": 34, "numbikesavailable": 5, "mechanical": 2, "ebike": 3, "is_renting": "OUI", "is_returning": "OUI", "duedate": "2025-12-29T07:09:47+00:00", "coordonnees_geo": {"lon": 2.301132157445, "lat": 48.881973298352}, "nom_arrondissement_communes": "Paris", "code_insee_commune": "75056", "station_opening_hours": null}, {"stationcode": "15202", "name": "Bracion - P\u00e9riph\u00e9rique", "is_installed": "OUI", "capacity": 30, "numdocksavailable": 26, "numbikesavailable": 4, "mechanical": 1, "ebike": 3, "is_renting": "OUI", "is_returning": "OUI", "duedate": "2025-12-29T07:07:13+00:00", "coordonnees_geo": {"lon": 2.3004549373748, "lat": 48.826103771275}, "nom_arrondissement_communes": "Paris", "code_insee_commune": "75056", "station_opening_hours": null}, {"stationcode": "13007", "name": "Le Brun - Gobelins", "is_installed": "OUI", "capacity": 48, "numdocksavailable": 39, "numbikesavailable": 8, "mechanical": 7, "ebike": 1, "is_renting": "OUI", "is_returning": "OUI", "duedate": "2025-12-29T07:06:16+00:00", "coordonnees_geo": {"lon": 2.3534681351338, "lat": 48.835092787824}, "nom_arrondissement_communes": "Paris", "code_insee_commune": "75056", "station_opening_hours": null}, {"stationcode": "8050", "name": "Bo\u00e9tie - Ponthieu", "is_installed": "OUI", "capacity": 45, "numdocksavailable": 25, "numbikesavailable": 20, "mechanical": 16, "ebike": 4, "is_renting": "OUI", "is_returning": "OUI", "duedate": "2025-12-29T07:07:16+00:00", "coordonnees_geo": {"lon": 2.3076787590981, "lat": 48.871417284355}, "nom_arrondissement_communes": "Paris", "code_insee_commune": "75056", "station_opening_hours": null}, {"stationcode": "14108", "name": "Le Brix et Mesmin - Jourdan", "is_installed": "OUI", "capacity": 21, "numdocksavailable": 12, "numbikesavailable": 9, "mechanical": 2, "ebike": 7, "is_renting": "OUI", "is_returning": "OUI", "duedate": "2025-12-29T07:00:55+00:00", "coordonnees_geo": {"lon": 2.327861653302471, "lat": 48.82234096593411}, "nom_arrondissement_communes": "Paris", "code_insee_commune": "75056", "station_opening_hours": null}, {"stationcode": "2022", "name": "Saint-Fiacre - Poissoni\u00e8re", "is_installed": "OUI", "capacity": 35, "numdocksavailable": 27, "numbikesavailable": 8, "mechanical": 3, "ebike": 5, "is_renting": "OUI", "is_returning": "OUI", "duedate": "2025-12-29T07:03:56+00:00", "coordonnees_geo": {"lon": 2.3459213599563, "lat": 48.870828911558}, "nom_arrondissement_communes": "Paris", "code_insee_commune": "75056", "station_opening_hours": null}, {"stationcode": "17044", "name": "Porte de Saint-Ouen - Bessi\u00e8res", "is_installed": "OUI", "capacity": 42, "numdocksavailable": 14, "numbikesavailable": 28, "mechanical": 18, "ebike": 10, "is_renting": "OUI", "is_returning": "OUI", "duedate": "2025-12-29T07:08:08+00:00", "coordonnees_geo": {"lon": 2.32851451022192, "lat": 48.89792240854517}, "nom_arrondissement_communes": "Paris", "code_insee_commune": "75056", "station_opening_hours": null}, {"stationcode": "19033", "name": "Cambrai - Benjamin Constant", "is_installed": "OUI", "capacity": 43, "numdocksavailable": 26, "numbikesavailable": 17, "mechanical": 8, "ebike": 9, "is_renting": "OUI", "is_returning": "OUI", "duedate": "2025-12-29T07:01:29+00:00", "coordonnees_geo": {"lon": 2.381133802246315, "lat": 48.89594736851349}, "nom_arrondissement_communes": "Paris", "code_insee_commune": "75056", "station_opening_hours": null}, {"stationcode": "21326", "name": "Moulin de Pierre - Abb\u00e9 Gr\u00e9goire", "is_installed": "OUI", "capacity": 20, "numdocksavailable": 17, "numbikesavailable": 3, "mechanical": 0, "ebike": 3, "is_renting": "OUI", "is_returning": "OUI", "duedate": "2025-12-29T07:09:15+00:00", "coordonnees_geo": {"lon": 2.2754641655975, "lat": 48.822036188382}, "nom_arrondissement_communes": "Issy-les-Moulineaux", "code_insee_commune": "92040", "station_opening_hours": null}, {"stationcode": "43002", "name": "Lagny - Victor Basch", "is_installed": "OUI", "capacity": 26, "numdocksavailable": 20, "numbikesavailable": 5, "mechanical": 0, "ebike": 5, "is_renting": "OUI", "is_returning": "OUI", "duedate": "2025-12-29T07:01:46+00:00", "coordonnees_geo": {"lon": 2.426325418925233, "lat": 48.84884147189881}, "nom_arrondissement_communes": "Vincennes", "code_insee_commune": "94080", "station_opening_hours": null}, {"stationcode": "21216", "name": "Louis Lejeune - Barb\u00e8s", "is_installed": "OUI", "capacity": 25, "numdocksavailable": 20, "numbikesavailable": 5, "mechanical": 1, "ebike": 4, "is_renting": "OUI", "is_returning": "OUI", "duedate": "2025-12-29T07:07:52+00:00", "coordonnees_geo": {"lon": 2.3267009854316716, "lat": 48.81807418981508}, "nom_arrondissement_communes": "Montrouge", "code_insee_commune": "92049", "station_opening_hours": null}, {"stationcode": "15068", "name": "G\u00e9n\u00e9ral Martial Valin - Pont du Garigliano", "is_installed": "OUI", "capacity": 16, "numdocksavailable": 10, "numbikesavailable": 6, "mechanical": 2, "ebike": 4, "is_renting": "OUI", "is_returning": "OUI", "duedate": "2025-12-29T07:09:59+00:00", "coordonnees_geo": {"lon": 2.270506024360657, "lat": 48.83823094269141}, "nom_arrondissement_communes": "Paris", "code_insee_commune": "75056", "station_opening_hours": null}, {"stationcode": "22207", "name": "Rond-point du Dr Albert Schweitzer", "is_installed": "OUI", "capacity": 22, "numdocksavailable": 21, "numbikesavailable": 1, "mechanical": 0, "ebike": 1, "is_renting": "OUI", "is_returning": "OUI", "duedate": "2025-12-29T07:08:02+00:00", "coordonnees_geo": {"lon": 2.3143940046429634, "lat": 48.78980918988166}, "nom_arrondissement_communes": "Bagneux", "code_insee_commune": "92007", "station_opening_hours": null}, {"stationcode": "92002", "name": "Th\u00e9\u00e2tre des Amandiers - Palais des sports", "is_installed": "OUI", "capacity": 23, "numdocksavailable": 16, "numbikesavailable": 7, "mechanical": 2, "ebike": 5, "is_renting": "OUI", "is_returning": "OUI", "duedate": "2025-12-29T07:08:08+00:00", "coordonnees_geo": {"lon": 2.2136941552162, "lat": 48.892648526839}, "nom_arrondissement_communes": "Nanterre", "code_insee_commune": "92050", "station_opening_hours": null}, {"stationcode": "17048", "name": "De Toqueville - Terrasse", "is_installed": "OUI", "capacity": 30, "numdocksavailable": 25, "numbikesavailable": 5, "mechanical": 5, "ebike": 0, "is_renting": "OUI", "is_returning": "OUI", "duedate": "2025-12-29T07:08:08+00:00", "coordonnees_geo": {"lon": 2.314002, "lat": 48.882428}, "nom_arrondissement_communes": "Paris", "code_insee_commune": "75056", "station_opening_hours": null}, {"stationcode": "16118", "name": "Michel-Ange - Parent de Rosan", "is_installed": "OUI", "capacity": 26, "numdocksavailable": 10, "numbikesavailable": 16, "mechanical": 10, "ebike": 6, "is_renting": "OUI", "is_returning": "OUI", "duedate": "2025-12-29T07:09:15+00:00", "coordonnees_geo": {"lon": 2.2584119439125065, "lat": 48.840579923690115}, "nom_arrondissement_communes": "Paris", "code_insee_commune": "75056", "station_opening_hours": null}, {"stationcode": "2017", "name": "Caire - Dussoubs", "is_installed": "OUI", "capacity": 40, "numdocksavailable": 19, "numbikesavailable": 20, "mechanical": 12, "ebike": 8, "is_renting": "OUI", "is_returning": "OUI", "duedate": "2025-12-29T07:05:48+00:00", "coordonnees_geo": {"lon": 2.349364310503006, "lat": 48.86785342111862}, "nom_arrondissement_communes": "Paris", "code_insee_commune": "75056", "station_opening_hours": null}, {"stationcode": "8103", "name": "Artois - Berri", "is_installed": "OUI", "capacity": 37, "numdocksavailable": 28, "numbikesavailable": 9, "mechanical": 5, "ebike": 4, "is_renting": "OUI", "is_returning": "OUI", "duedate": "2025-12-29T07:09:21+00:00", "coordonnees_geo": {"lon": 2.3064258322119713, "lat": 48.87393521240818}, "nom_arrondissement_communes": "Paris", "code_insee_commune": "75056", "station_opening_hours": null}, {"stationcode": "8048", "name": "Marceau - Chaillot", "is_installed": "OUI", "capacity": 21, "numdocksavailable": 16, "numbikesavailable": 4, "mechanical": 2, "ebike": 2, "is_renting": "OUI", "is_returning": "OUI", "duedate": "2025-12-29T07:04:09+00:00", "coordonnees_geo": {"lon": 2.2986030816809, "lat": 48.868834023334}, "nom_arrondissement_communes": "Paris", "code_insee_commune": "75056", "station_opening_hours": null}, {"stationcode": "40016", "name": "Sarrazins - Saussure", "is_installed": "OUI", "capacity": 22, "numdocksavailable": 12, "numbikesavailable": 10, "mechanical": 2, "ebike": 8, "is_renting": "OUI", "is_returning": "OUI", "duedate": "2025-12-29T07:05:48+00:00", "coordonnees_geo": {"lon": 2.4717841148376, "lat": 48.769626617432}, "nom_arrondissement_communes": "Cr\u00e9teil", "code_insee_commune": "94028", "station_opening_hours": null}, {"stationcode": "18111", "name": "F\u00e9lix Ziem - Armand Gauthier", "is_installed": "OUI", "capacity": 25, "numdocksavailable": 16, "numbikesavailable": 9, "mechanical": 6, "ebike": 3, "is_renting": "OUI", "is_returning": "OUI", "duedate": "2025-12-29T07:09:54+00:00", "coordonnees_geo": {"lon": 2.333393658804396, "lat": 48.88949630486821}, "nom_arrondissement_communes": "Paris", "code_insee_commune": "75056", "station_opening_hours": null}, {"stationcode": "9002", "name": "Abbeville - Faubourg Poissonni\u00e8re", "is_installed": "OUI", "capacity": 14, "numdocksavailable": 10, "numbikesavailable": 4, "mechanical": 0, "ebike": 4, "is_renting": "OUI", "is_returning": "OUI", "duedate": "2025-12-29T07:07:34+00:00", "coordonnees_geo": {"lon": 2.349147, "lat": 48.879223}, "nom_arrondissement_communes": "Paris", "code_insee_commune": "75056", "station_opening_hours": null}, {"stationcode": "48003", "name": "Youri Gagarine - Karl Marx", "is_installed": "OUI", "capacity": 22, "numdocksavailable": 11, "numbikesavailable": 11, "mechanical": 11, "ebike": 0, "is_renting": "OUI", "is_returning": "OUI", "duedate": "2025-12-29T07:08:16+00:00", "coordonnees_geo": {"lon": 2.35908430069685, "lat": 48.78448485079149}, "nom_arrondissement_communes": "Villejuif", "code_insee_commune": "94076", "station_opening_hours": null}, {"stationcode": "16110", "name": "Octave Feuillet - Alb\u00e9ric Magnard", "is_installed": "OUI", "capacity": 21, "numdocksavailable": 11, "numbikesavailable": 10, "mechanical": 6, "ebike": 4, "is_renting": "OUI", "is_returning": "OUI", "duedate": "2025-12-29T07:08:21+00:00", "coordonnees_geo": {"lon": 2.2730283066630363, "lat": 48.86106902949534}, "nom_arrondissement_communes": "Paris", "code_insee_commune": "75056", "station_opening_hours": null}, {"stationcode": "17032", "name": "Jean Oestreicher - Porte de Champerret", "is_installed": "OUI", "capacity": 21, "numdocksavailable": 15, "numbikesavailable": 6, "mechanical": 4, "ebike": 2, "is_renting": "OUI", "is_returning": "OUI", "duedate": "2025-12-29T07:06:22+00:00", "coordonnees_geo": {"lon": 2.288640439510346, "lat": 48.88655580065981}, "nom_arrondissement_communes": "Paris", "code_insee_commune": "75056", "station_opening_hours": null}, {"stationcode": "10115", "name": "Granges aux Belles", "is_installed": "OUI", "capacity": 27, "numdocksavailable": 17, "numbikesavailable": 10, "mechanical": 0, "ebike": 10, "is_renting": "OUI", "is_returning": "OUI", "duedate": "2025-12-29T07:08:13+00:00", "coordonnees_geo": {"lon": 2.3680844979417, "lat": 48.8761373390584}, "nom_arrondissement_communes": "Paris", "code_insee_commune": "75056", "station_opening_hours": null}, {"stationcode": "10029", "name": "Dunkerque - Rocroy", "is_installed": "OUI", "capacity": 24, "numdocksavailable": 19, "numbikesavailable": 5, "mechanical": 1, "ebike": 4, "is_renting": "OUI", "is_returning": "OUI", "duedate": "2025-12-29T07:09:15+00:00", "coordonnees_geo": {"lon": 2.351464, "lat": 48.880726}, "nom_arrondissement_communes": "Paris", "code_insee_commune": "75056", "station_opening_hours": null}, {"stationcode": "10161", "name": "Gare de l'Est - Faubourg-Saint-Martin", "is_installed": "OUI", "capacity": 32, "numdocksavailable": 22, "numbikesavailable": 8, "mechanical": 1, "ebike": 7, "is_renting": "OUI", "is_returning": "OUI", "duedate": "2025-12-29T07:08:13+00:00", "coordonnees_geo": {"lon": 2.3594588041306, "lat": 48.875642647477}, "nom_arrondissement_communes": "Paris", "code_insee_commune": "75056", "station_opening_hours": null}, {"stationcode": "12031", "name": "Gabriel Lam\u00e9", "is_installed": "OUI", "capacity": 36, "numdocksavailable": 8, "numbikesavailable": 27, "mechanical": 20, "ebike": 7, "is_renting": "OUI", "is_returning": "OUI", "duedate": "2025-12-29T07:07:34+00:00", "coordonnees_geo": {"lon": 2.385534569621086, "lat": 48.8351212784276}, "nom_arrondissement_communes": "Paris", "code_insee_commune": "75056", "station_opening_hours": null}, {"stationcode": "5022", "name": "Boulangers - Cardinal Lemoine", "is_installed": "OUI", "capacity": 20, "numdocksavailable": 15, "numbikesavailable": 5, "mechanical": 0, "ebike": 5, "is_renting": "OUI", "is_returning": "OUI", "duedate": "2025-12-29T07:08:58+00:00", "coordonnees_geo": {"lon": 2.3521495, "lat": 48.8462904}, "nom_arrondissement_communes": "Paris", "code_insee_commune": "75056", "station_opening_hours": null}, {"stationcode": "31103", "name": "Gare Rosny-Bois-Perrier", "is_installed": "OUI", "capacity": 35, "numdocksavailable": 24, "numbikesavailable": 11, "mechanical": 1, "ebike": 10, "is_renting": "OUI", "is_returning": "OUI", "duedate": "2025-12-29T07:08:21+00:00", "coordonnees_geo": {"lon": 2.480436824262142, "lat": 48.88115023337061}, "nom_arrondissement_communes": "Rosny-sous-Bois", "code_insee_commune": "93064", "station_opening_hours": null}, {"stationcode": "7018", "name": "S\u00e9gur - d'Estr\u00e9es", "is_installed": "OUI", "capacity": 19, "numdocksavailable": 6, "numbikesavailable": 13, "mechanical": 6, "ebike": 7, "is_renting": "OUI", "is_returning": "OUI", "duedate": "2025-12-29T07:08:25+00:00", "coordonnees_geo": {"lon": 2.3097044974566, "lat": 48.851419978983}, "nom_arrondissement_communes": "Paris", "code_insee_commune": "75056", "station_opening_hours": null}, {"stationcode": "19207", "name": "Jean Jaur\u00e8s - Bouret", "is_installed": "OUI", "capacity": 32, "numdocksavailable": 21, "numbikesavailable": 11, "mechanical": 8, "ebike": 3, "is_renting": "OUI", "is_returning": "OUI", "duedate": "2025-12-29T07:09:08+00:00", "coordonnees_geo": {"lon": 2.3712364995651, "lat": 48.883144703938}, "nom_arrondissement_communes": "Paris", "code_insee_commune": "75056", "station_opening_hours": null}, {"stationcode": "9106", "name": "Boudreau - Auber", "is_installed": "OUI", "capacity": 28, "numdocksavailable": 6, "numbikesavailable": 21, "mechanical": 20, "ebike": 1, "is_renting": "OUI", "is_returning": "OUI", "duedate": "2025-12-29T07:08:45+00:00", "coordonnees_geo": {"lon": 2.329423, "lat": 48.87219}, "nom_arrondissement_communes": "Paris", "code_insee_commune": "75056", "station_opening_hours": null}, {"stationcode": "31706", "name": "Ch\u00e2teau - R\u00e9publique", "is_installed": "OUI", "capacity": 26, "numdocksavailable": 20, "numbikesavailable": 6, "mechanical": 4, "ebike": 2, "is_renting": "OUI", "is_returning": "OUI", "duedate": "2025-12-29T07:05:14+00:00", "coordonnees_geo": {"lon": 2.4155035614967, "lat": 48.862923800596}, "nom_arrondissement_communes": "Bagnolet", "code_insee_commune": "93006", "station_opening_hours": null}, {"stationcode": "22409", "name": "Henri Barbusse - Stalingrad", "is_installed": "OUI", "capacity": 16, "numdocksavailable": 13, "numbikesavailable": 3, "mechanical": 0, "ebike": 3, "is_renting": "OUI", "is_returning": "OUI", "duedate": "2025-12-29T07:04:20+00:00", "coordonnees_geo": {"lon": 2.2872862592339516, "lat": 48.814183748660554}, "nom_arrondissement_communes": "Malakoff", "code_insee_commune": "92046", "station_opening_hours": null}, {"stationcode": "51006", "name": "Lieutenant Colonel Prudhon - Repos", "is_installed": "OUI", "capacity": 1, "numdocksavailable": 1, "numbikesavailable": 0, "mechanical": 0, "ebike": 0, "is_renting": "NON", "is_returning": "NON", "duedate": "2025-10-27T09:36:39+00:00", "coordonnees_geo": {"lon": 2.2380727982588, "lat": 48.946800700149}, "nom_arrondissement_communes": "Argenteuil", "code_insee_commune": "95018", "station_opening_hours": null}, {"stationcode": "12151", "name": "Gare de Lyon - Place Louis Armand", "is_installed": "OUI", "capacity": 60, "numdocksavailable": 11, "numbikesavailable": 49, "mechanical": 22, "ebike": 27, "is_renting": "OUI", "is_returning": "OUI", "duedate": "2025-12-29T07:09:44+00:00", "coordonnees_geo": {"lon": 2.3726498446286, "lat": 48.845515089794}, "nom_arrondissement_communes": "Paris", "code_insee_commune": "75056", "station_opening_hours": null}, {"stationcode": "16026", "name": "Ranelagh - Mozart", "is_installed": "OUI", "capacity": 23, "numdocksavailable": 20, "numbikesavailable": 3, "mechanical": 0, "ebike": 3, "is_renting": "OUI", "is_returning": "OUI", "duedate": "2025-12-29T07:02:10+00:00", "coordonnees_geo": {"lon": 2.2704418, "lat": 48.8554439}, "nom_arrondissement_communes": "Paris", "code_insee_commune": "75056", "station_opening_hours": null}, {"stationcode": "19026", "name": "Place de Rhin et Danube", "is_installed": "OUI", "capacity": 30, "numdocksavailable": 26, "numbikesavailable": 4, "mechanical": 0, "ebike": 4, "is_renting": "OUI", "is_returning": "OUI", "duedate": "2025-12-29T07:08:28+00:00", "coordonnees_geo": {"lon": 2.392586767673493, "lat": 48.88192765861766}, "nom_arrondissement_communes": "Paris", "code_insee_commune": "75056", "station_opening_hours": null}, {"stationcode": "16039", "name": "Exelmans - Versailles", "is_installed": "OUI", "capacity": 49, "numdocksavailable": 41, "numbikesavailable": 7, "mechanical": 4, "ebike": 3, "is_renting": "OUI", "is_returning": "OUI", "duedate": "2025-12-29T07:04:21+00:00", "coordonnees_geo": {"lon": 2.264390252530575, "lat": 48.84097491091973}, "nom_arrondissement_communes": "Paris", "code_insee_commune": "75056", "station_opening_hours": null}, {"stationcode": "11023", "name": "Saint-Maur - Roquette", "is_installed": "OUI", "capacity": 46, "numdocksavailable": 39, "numbikesavailable": 6, "mechanical": 6, "ebike": 0, "is_renting": "OUI", "is_returning": "OUI", "duedate": "2025-12-29T07:09:39+00:00", "coordonnees_geo": {"lon": 2.383553994571467, "lat": 48.858688774062955}, "nom_arrondissement_communes": "Paris", "code_insee_commune": "75056", "station_opening_hours": null}, {"stationcode": "11002", "name": "Roquette - Thi\u00e9r\u00e9", "is_installed": "OUI", "capacity": 23, "numdocksavailable": 14, "numbikesavailable": 9, "mechanical": 7, "ebike": 2, "is_renting": "OUI", "is_returning": "OUI", "duedate": "2025-12-29T07:03:55+00:00", "coordonnees_geo": {"lon": 2.3733686318721463, "lat": 48.85507930579506}, "nom_arrondissement_communes": "Paris", "code_insee_commune": "75056", "station_opening_hours": null}, {"stationcode": "12111", "name": "Claude Decaen - Cannebi\u00e8re", "is_installed": "OUI", "capacity": 45, "numdocksavailable": 38, "numbikesavailable": 7, "mechanical": 5, "ebike": 2, "is_renting": "OUI", "is_returning": "OUI", "duedate": "2025-12-29T07:06:20+00:00", "coordonnees_geo": {"lon": 2.397253782195704, "lat": 48.83761417037952}, "nom_arrondissement_communes": "Paris", "code_insee_commune": "75056", "station_opening_hours": null}, {"stationcode": "8034", "name": "Berri - Haussmann", "is_installed": "OUI", "capacity": 49, "numdocksavailable": 44, "numbikesavailable": 4, "mechanical": 2, "ebike": 2, "is_renting": "OUI", "is_returning": "OUI", "duedate": "2025-12-29T07:04:51+00:00", "coordonnees_geo": {"lon": 2.3082953318953514, "lat": 48.874746047357135}, "nom_arrondissement_communes": "Paris", "code_insee_commune": "75056", "station_opening_hours": null}, {"stationcode": "19043", "name": "Delphine Seyrig - G\u00e9n\u00e9ral Leclerc", "is_installed": "OUI", "capacity": 53, "numdocksavailable": 25, "numbikesavailable": 28, "mechanical": 19, "ebike": 9, "is_renting": "OUI", "is_returning": "OUI", "duedate": "2025-12-29T07:09:31+00:00", "coordonnees_geo": {"lon": 2.39790290594101, "lat": 48.893923963057865}, "nom_arrondissement_communes": "Pantin", "code_insee_commune": "93055", "station_opening_hours": null}, {"stationcode": "12128", "name": "Pyramide - Ecole du Breuil", "is_installed": "OUI", "capacity": 34, "numdocksavailable": 10, "numbikesavailable": 24, "mechanical": 16, "ebike": 8, "is_renting": "OUI", "is_returning": "OUI", "duedate": "2025-12-29T07:09:30+00:00", "coordonnees_geo": {"lon": 2.4586871266365056, "lat": 48.82237977153955}, "nom_arrondissement_communes": "Paris", "code_insee_commune": "75056", "station_opening_hours": null}, {"stationcode": "8010", "name": "Li\u00e8ge - Moscou", "is_installed": "OUI", "capacity": 17, "numdocksavailable": 15, "numbikesavailable": 1, "mechanical": 0, "ebike": 1, "is_renting": "OUI", "is_returning": "OUI", "duedate": "2025-12-29T07:07:10+00:00", "coordonnees_geo": {"lon": 2.3264628, "lat": 48.8795431}, "nom_arrondissement_communes": "Paris", "code_insee_commune": "75056", "station_opening_hours": null}, {"stationcode": "31022", "name": "Mairie de Montreuil", "is_installed": "OUI", "capacity": 52, "numdocksavailable": 38, "numbikesavailable": 13, "mechanical": 3, "ebike": 10, "is_renting": "OUI", "is_returning": "OUI", "duedate": "2025-12-29T07:06:30+00:00", "coordonnees_geo": {"lon": 2.440614402294159, "lat": 48.86131452758348}, "nom_arrondissement_communes": "Montreuil", "code_insee_commune": "93048", "station_opening_hours": null}, {"stationcode": "33017", "name": "Anatole France - President Roosevelt", "is_installed": "OUI", "capacity": 29, "numdocksavailable": 4, "numbikesavailable": 25, "mechanical": 11, "ebike": 14, "is_renting": "OUI", "is_returning": "OUI", "duedate": "2025-12-29T07:08:19+00:00", "coordonnees_geo": {"lon": 2.3814103, "lat": 48.9155156}, "nom_arrondissement_communes": "Aubervilliers", "code_insee_commune": "93001", "station_opening_hours": null}, {"stationcode": "18011", "name": "Pajol - Place Herbert", "is_installed": "OUI", "capacity": 39, "numdocksavailable": 36, "numbikesavailable": 2, "mechanical": 2, "ebike": 0, "is_renting": "OUI", "is_returning": "OUI", "duedate": "2025-12-29T07:08:59+00:00", "coordonnees_geo": {"lon": 2.3635598, "lat": 48.8927825}, "nom_arrondissement_communes": "Paris", "code_insee_commune": "75056", "station_opening_hours": null}, {"stationcode": "21212", "name": "Marne - Germain Dardan", "is_installed": "OUI", "capacity": 22, "numdocksavailable": 16, "numbikesavailable": 6, "mechanical": 5, "ebike": 1, "is_renting": "OUI", "is_returning": "OUI", "duedate": "2025-12-29T07:07:13+00:00", "coordonnees_geo": {"lon": 2.3035024699104, "lat": 48.81217465201}, "nom_arrondissement_communes": "Montrouge", "code_insee_commune": "92049", "station_opening_hours": null}, {"stationcode": "44006", "name": "Concorde - Stalingrad", "is_installed": "OUI", "capacity": 35, "numdocksavailable": 8, "numbikesavailable": 27, "mechanical": 10, "ebike": 17, "is_renting": "OUI", "is_returning": "OUI", "duedate": "2025-12-29T07:06:39+00:00", "coordonnees_geo": {"lon": 2.3821302, "lat": 48.7985844}, "nom_arrondissement_communes": "Vitry-sur-Seine", "code_insee_commune": "94081", "station_opening_hours": null}, {"stationcode": "11113", "name": "Richard Lenoir - Republique", "is_installed": "OUI", "capacity": 58, "numdocksavailable": 41, "numbikesavailable": 15, "mechanical": 10, "ebike": 5, "is_renting": "OUI", "is_returning": "OUI", "duedate": "2025-12-29T07:09:44+00:00", "coordonnees_geo": {"lon": 2.3692541, "lat": 48.8667175}, "nom_arrondissement_communes": "Paris", "code_insee_commune": "75056", "station_opening_hours": null}, {"stationcode": "15104", "name": "H\u00f4pital Europ\u00e9en Georges Pompidou", "is_installed": "OUI", "capacity": 78, "numdocksavailable": 39, "numbikesavailable": 39, "mechanical": 34, "ebike": 5, "is_renting": "OUI", "is_returning": "OUI", "duedate": "2025-12-29T03:17:47+00:00", "coordonnees_geo": {"lon": 2.2753742337227, "lat": 48.837695319163}, "nom_arrondissement_communes": "Paris", "code_insee_commune": "75056", "station_opening_hours": null}, {"stationcode": "43008", "name": "Fontenay - Lib\u00e9ration", "is_installed": "OUI", "capacity": 25, "numdocksavailable": 18, "numbikesavailable": 7, "mechanical": 2, "ebike": 5, "is_renting": "OUI", "is_returning": "OUI", "duedate": "2025-12-29T07:07:24+00:00", "coordonnees_geo": {"lon": 2.4451419711113, "lat": 48.847803063647}, "nom_arrondissement_communes": "Vincennes", "code_insee_commune": "94080", "station_opening_hours": null}, {"stationcode": "19101", "name": "Square Simon Bolivar", "is_installed": "OUI", "capacity": 24, "numdocksavailable": 20, "numbikesavailable": 4, "mechanical": 0, "ebike": 4, "is_renting": "OUI", "is_returning": "OUI", "duedate": "2025-12-29T07:07:24+00:00", "coordonnees_geo": {"lon": 2.3826304078102, "lat": 48.875089888322}, "nom_arrondissement_communes": "Paris", "code_insee_commune": "75056", "station_opening_hours": null}, {"stationcode": "17204", "name": "Paul Bodin - Clichy", "is_installed": "OUI", "capacity": 33, "numdocksavailable": 17, "numbikesavailable": 15, "mechanical": 12, "ebike": 3, "is_renting": "OUI", "is_returning": "OUI", "duedate": "2025-12-29T07:05:16+00:00", "coordonnees_geo": {"lon": 2.3171403311203, "lat": 48.892594758409}, "nom_arrondissement_communes": "Paris", "code_insee_commune": "75056", "station_opening_hours": null}, {"stationcode": "14138", "name": "Porte de Vanves", "is_installed": "OUI", "capacity": 32, "numdocksavailable": 17, "numbikesavailable": 13, "mechanical": 7, "ebike": 6, "is_renting": "OUI", "is_returning": "OUI", "duedate": "2025-12-29T07:07:43+00:00", "coordonnees_geo": {"lon": 2.3056878894567, "lat": 48.828012849445}, "nom_arrondissement_communes": "Paris", "code_insee_commune": "75056", "station_opening_hours": null}, {"stationcode": "12114", "name": "Victor Hugo - Jeanne Jugan", "is_installed": "OUI", "capacity": 28, "numdocksavailable": 23, "numbikesavailable": 4, "mechanical": 1, "ebike": 3, "is_renting": "OUI", "is_returning": "OUI", "duedate": "2025-12-29T07:09:43+00:00", "coordonnees_geo": {"lon": 2.415081394834419, "lat": 48.843949064031825}, "nom_arrondissement_communes": "Paris", "code_insee_commune": "75056", "station_opening_hours": null}, {"stationcode": "41209", "name": "Cimeti\u00e8re de Fontenay-sous-Bois", "is_installed": "OUI", "capacity": 15, "numdocksavailable": 13, "numbikesavailable": 2, "mechanical": 0, "ebike": 2, "is_renting": "OUI", "is_returning": "OUI", "duedate": "2025-12-29T07:05:59+00:00", "coordonnees_geo": {"lon": 2.4787822365760808, "lat": 48.84706173362218}, "nom_arrondissement_communes": "Fontenay-sous-Bois", "code_insee_commune": "94033", "station_opening_hours": null}, {"stationcode": "8028", "name": "Ars\u00e8ne Houssaye - Champs-Elys\u00e9es", "is_installed": "OUI", "capacity": 52, "numdocksavailable": 19, "numbikesavailable": 32, "mechanical": 13, "ebike": 19, "is_renting": "OUI", "is_returning": "OUI", "duedate": "2025-12-29T07:06:49+00:00", "coordonnees_geo": {"lon": 2.2977904602885, "lat": 48.873409276267}, "nom_arrondissement_communes": "Paris", "code_insee_commune": "75056", "station_opening_hours": null}, {"stationcode": "15106", "name": "Grenelle - Violet", "is_installed": "OUI", "capacity": 35, "numdocksavailable": 11, "numbikesavailable": 23, "mechanical": 20, "ebike": 3, "is_renting": "OUI", "is_returning": "OUI", "duedate": "2025-12-29T07:08:43+00:00", "coordonnees_geo": {"lon": 2.294612042605877, "lat": 48.84993035512154}, "nom_arrondissement_communes": "Paris", "code_insee_commune": "75056", "station_opening_hours": null}, {"stationcode": "5124", "name": "Erasme - Ulm", "is_installed": "OUI", "capacity": 24, "numdocksavailable": 15, "numbikesavailable": 9, "mechanical": 4, "ebike": 5, "is_renting": "OUI", "is_returning": "OUI", "duedate": "2025-12-29T07:06:39+00:00", "coordonnees_geo": {"lon": 2.3445946723222733, "lat": 48.84264375274712}, "nom_arrondissement_communes": "Paris", "code_insee_commune": "75056", "station_opening_hours": null}, {"stationcode": "8054", "name": "Bertie Albrecht - Hoche", "is_installed": "OUI", "capacity": 32, "numdocksavailable": 15, "numbikesavailable": 16, "mechanical": 5, "ebike": 11, "is_renting": "OUI", "is_returning": "OUI", "duedate": "2025-12-29T07:08:11+00:00", "coordonnees_geo": {"lon": 2.301303138307601, "lat": 48.87614039826388}, "nom_arrondissement_communes": "Paris", "code_insee_commune": "75056", "station_opening_hours": null}, {"stationcode": "14012", "name": "Sibelle - Al\u00e9sia", "is_installed": "OUI", "capacity": 37, "numdocksavailable": 19, "numbikesavailable": 18, "mechanical": 18, "ebike": 0, "is_renting": "OUI", "is_returning": "OUI", "duedate": "2025-12-29T07:08:47+00:00", "coordonnees_geo": {"lon": 2.3384983465075493, "lat": 48.826701758539215}, "nom_arrondissement_communes": "Paris", "code_insee_commune": "75056", "station_opening_hours": null}, {"stationcode": "17203", "name": "Place de la Porte de Champeret", "is_installed": "OUI", "capacity": 28, "numdocksavailable": 17, "numbikesavailable": 10, "mechanical": 0, "ebike": 10, "is_renting": "OUI", "is_returning": "OUI", "duedate": "2025-12-29T07:07:32+00:00", "coordonnees_geo": {"lon": 2.2917001576821, "lat": 48.886062068226}, "nom_arrondissement_communes": "Paris", "code_insee_commune": "75056", "station_opening_hours": null}, {"stationcode": "42014", "name": "Place Marcel Cachin", "is_installed": "OUI", "capacity": 32, "numdocksavailable": 14, "numbikesavailable": 18, "mechanical": 12, "ebike": 6, "is_renting": "OUI", "is_returning": "OUI", "duedate": "2025-12-29T07:08:45+00:00", "coordonnees_geo": {"lon": 2.39090770483017, "lat": 48.81411442356866}, "nom_arrondissement_communes": "Ivry-sur-Seine", "code_insee_commune": "94041", "station_opening_hours": null}, {"stationcode": "21005", "name": "H\u00f4tel de Ville de Boulogne Billancourt", "is_installed": "OUI", "capacity": 26, "numdocksavailable": 16, "numbikesavailable": 10, "mechanical": 7, "ebike": 3, "is_renting": "OUI", "is_returning": "OUI", "duedate": "2025-12-29T07:09:55+00:00", "coordonnees_geo": {"lon": 2.2416803240776, "lat": 48.834958851668}, "nom_arrondissement_communes": "Boulogne-Billancourt", "code_insee_commune": "92012", "station_opening_hours": null}, {"stationcode": "5203", "name": "Victor Cousin - Cujas", "is_installed": "NON", "capacity": 1, "numdocksavailable": 1, "numbikesavailable": 0, "mechanical": 0, "ebike": 0, "is_renting": "NON", "is_returning": "NON", "duedate": "2025-09-18T11:22:09+00:00", "coordonnees_geo": {"lon": 2.3424898070094, "lat": 48.847909849567}, "nom_arrondissement_communes": "Paris", "code_insee_commune": "75056", "station_opening_hours": null}, {"stationcode": "14124", "name": "David Weill - Parc Montsouris", "is_installed": "OUI", "capacity": 22, "numdocksavailable": 11, "numbikesavailable": 11, "mechanical": 4, "ebike": 7, "is_renting": "OUI", "is_returning": "OUI", "duedate": "2025-12-29T07:08:26+00:00", "coordonnees_geo": {"lon": 2.333725690841675, "lat": 48.821092374256104}, "nom_arrondissement_communes": "Paris", "code_insee_commune": "75056", "station_opening_hours": null}, {"stationcode": "15110", "name": "Place Robert Guillemard", "is_installed": "OUI", "capacity": 24, "numdocksavailable": 9, "numbikesavailable": 15, "mechanical": 11, "ebike": 4, "is_renting": "OUI", "is_returning": "OUI", "duedate": "2025-12-29T07:06:22+00:00", "coordonnees_geo": {"lon": 2.2811267160086417, "lat": 48.836191728066666}, "nom_arrondissement_communes": "Paris", "code_insee_commune": "75056", "station_opening_hours": null}, {"stationcode": "20131", "name": "Repos - Cimeti\u00e8re du P\u00e8re Lachaise", "is_installed": "OUI", "capacity": 33, "numdocksavailable": 29, "numbikesavailable": 4, "mechanical": 1, "ebike": 3, "is_renting": "OUI", "is_returning": "OUI", "duedate": "2025-12-29T07:09:12+00:00", "coordonnees_geo": {"lon": 2.3896131366845, "lat": 48.859358523593}, "nom_arrondissement_communes": "Paris", "code_insee_commune": "75056", "station_opening_hours": null}, {"stationcode": "35010", "name": "Hoche - Jean Lolive", "is_installed": "OUI", "capacity": 24, "numdocksavailable": 10, "numbikesavailable": 14, "mechanical": 3, "ebike": 11, "is_renting": "OUI", "is_returning": "OUI", "duedate": "2025-12-29T07:09:49+00:00", "coordonnees_geo": {"lon": 2.4028435349464, "lat": 48.891102392008}, "nom_arrondissement_communes": "Pantin", "code_insee_commune": "93055", "station_opening_hours": null}, {"stationcode": "44003", "name": "Gabriel P\u00e9ri - Danielle Casanova", "is_installed": "OUI", "capacity": 20, "numdocksavailable": 8, "numbikesavailable": 12, "mechanical": 5, "ebike": 7, "is_renting": "OUI", "is_returning": "OUI", "duedate": "2025-12-29T07:09:33+00:00", "coordonnees_geo": {"lon": 2.4025777, "lat": 48.790114}, "nom_arrondissement_communes": "Vitry-sur-Seine", "code_insee_commune": "94081", "station_opening_hours": null}, {"stationcode": "15034", "name": "Lakanal - Commerce", "is_installed": "OUI", "capacity": 53, "numdocksavailable": 20, "numbikesavailable": 30, "mechanical": 24, "ebike": 6, "is_renting": "OUI", "is_returning": "OUI", "duedate": "2025-12-29T07:05:46+00:00", "coordonnees_geo": {"lon": 2.294059172272682, "lat": 48.84442462786544}, "nom_arrondissement_communes": "Paris", "code_insee_commune": "75056", "station_opening_hours": null}, {"stationcode": "5028", "name": "Censier - Jardin des Plantes", "is_installed": "OUI", "capacity": 28, "numdocksavailable": 12, "numbikesavailable": 16, "mechanical": 8, "ebike": 8, "is_renting": "OUI", "is_returning": "OUI", "duedate": "2025-12-29T07:08:57+00:00", "coordonnees_geo": {"lon": 2.355475388467312, "lat": 48.84107178161383}, "nom_arrondissement_communes": "Paris", "code_insee_commune": "75056", "station_opening_hours": null}, {"stationcode": "22203", "name": "Tertres - Fontaine", "is_installed": "OUI", "capacity": 28, "numdocksavailable": 23, "numbikesavailable": 5, "mechanical": 3, "ebike": 2, "is_renting": "OUI", "is_returning": "OUI", "duedate": "2025-12-29T07:03:19+00:00", "coordonnees_geo": {"lon": 2.306235730648041, "lat": 48.787553654715644}, "nom_arrondissement_communes": "Bagneux", "code_insee_commune": "92007", "station_opening_hours": null}, {"stationcode": "41202", "name": "Gare Rer de Fontenay sous Bois", "is_installed": "OUI", "capacity": 61, "numdocksavailable": 23, "numbikesavailable": 38, "mechanical": 34, "ebike": 4, "is_renting": "OUI", "is_returning": "OUI", "duedate": "2025-12-29T07:09:53+00:00", "coordonnees_geo": {"lon": 2.4630465, "lat": 48.8436279}, "nom_arrondissement_communes": "Fontenay-sous-Bois", "code_insee_commune": "94033", "station_opening_hours": null}, {"stationcode": "42021", "name": "Raspail - Manufacture des Oeillets", "is_installed": "OUI", "capacity": 32, "numdocksavailable": 10, "numbikesavailable": 22, "mechanical": 13, "ebike": 9, "is_renting": "OUI", "is_returning": "OUI", "duedate": "2025-12-29T07:04:07+00:00", "coordonnees_geo": {"lon": 2.3903009, "lat": 48.8094458}, "nom_arrondissement_communes": "Ivry-sur-Seine", "code_insee_commune": "94041", "station_opening_hours": null}, {"stationcode": "35020", "name": "Marcelle - Thalie", "is_installed": "OUI", "capacity": 20, "numdocksavailable": 19, "numbikesavailable": 1, "mechanical": 1, "ebike": 0, "is_renting": "OUI", "is_returning": "OUI", "duedate": "2025-12-29T07:09:10+00:00", "coordonnees_geo": {"lon": 2.4137883, "lat": 48.8835462}, "nom_arrondissement_communes": "Pantin", "code_insee_commune": "93055", "station_opening_hours": null}, {"stationcode": "25003", "name": "Henri Ste-Claire D\u00e9ville - Paul H\u00e9roult", "is_installed": "OUI", "capacity": 24, "numdocksavailable": 14, "numbikesavailable": 10, "mechanical": 3, "ebike": 7, "is_renting": "OUI", "is_returning": "OUI", "duedate": "2025-12-29T07:07:47+00:00", "coordonnees_geo": {"lon": 2.172411, "lat": 48.892663}, "nom_arrondissement_communes": "Rueil-Malmaison", "code_insee_commune": "92063", "station_opening_hours": null}, {"stationcode": "20115", "name": "Louis Lumi\u00e8re - Porte de Bagnolet", "is_installed": "OUI", "capacity": 20, "numdocksavailable": 18, "numbikesavailable": 2, "mechanical": 0, "ebike": 2, "is_renting": "OUI", "is_returning": "OUI", "duedate": "2025-12-29T07:01:37+00:00", "coordonnees_geo": {"lon": 2.4105210229754443, "lat": 48.86431136000005}, "nom_arrondissement_communes": "Paris", "code_insee_commune": "75056", "station_opening_hours": null}, {"stationcode": "31003", "name": "Paris - Emile Zola", "is_installed": "OUI", "capacity": 30, "numdocksavailable": 15, "numbikesavailable": 15, "mechanical": 3, "ebike": 12, "is_renting": "OUI", "is_returning": "OUI", "duedate": "2025-12-29T07:08:41+00:00", "coordonnees_geo": {"lon": 2.4186685681343083, "lat": 48.854898095789295}, "nom_arrondissement_communes": "Montreuil", "code_insee_commune": "93048", "station_opening_hours": null}, {"stationcode": "4201", "name": "Quai des C\u00e9lestins - Henri IV", "is_installed": "OUI", "capacity": 12, "numdocksavailable": 6, "numbikesavailable": 6, "mechanical": 0, "ebike": 6, "is_renting": "OUI", "is_returning": "OUI", "duedate": "2025-12-29T07:09:59+00:00", "coordonnees_geo": {"lon": 2.3624387532495, "lat": 48.851290697625}, "nom_arrondissement_communes": "Paris", "code_insee_commune": "75056", "station_opening_hours": null}, {"stationcode": "1020", "name": "Cambon - Rivoli", "is_installed": "OUI", "capacity": 40, "numdocksavailable": 17, "numbikesavailable": 22, "mechanical": 16, "ebike": 6, "is_renting": "OUI", "is_returning": "OUI", "duedate": "2025-12-29T07:05:01+00:00", "coordonnees_geo": {"lon": 2.3251800647137, "lat": 48.866143390992}, "nom_arrondissement_communes": "Paris", "code_insee_commune": "75056", "station_opening_hours": null}, {"stationcode": "11039", "name": "Richard Lenoir - Jean-Pierre Timbaud", "is_installed": "OUI", "capacity": 36, "numdocksavailable": 16, "numbikesavailable": 19, "mechanical": 15, "ebike": 4, "is_renting": "OUI", "is_returning": "OUI", "duedate": "2025-12-29T07:09:44+00:00", "coordonnees_geo": {"lon": 2.3693370749669, "lat": 48.865804276686}, "nom_arrondissement_communes": "Paris", "code_insee_commune": "75056", "station_opening_hours": null}]}